[{"company":"kmb","route":"1","routeType":"1","dir":"O","orig":"竹園邨","dest":"尖沙咀碼頭","stopList":[{"id":"18492910339410B1","name":"竹園邨總站","lat":"22.345415","long":"114.192640"},{"id":"9ED7E93749ABAE67","name":"天虹小學","lat":"22.345076","long":"114.190023"},{"id":"9583BCF159B682BA","name":"馬仔坑遊樂場","lat":"22.344296","long":"114.187763"},{"id":"D360B3EBF155C15A","name":"摩士公園","lat":"22.339876","long":"114.189506"},{"id":"713BF17AF24FE4DA","name":"摩士公園體育館","lat":"22.338347","long":"114.189704"},{"id":"7C4E16F4A138B142","name":"偉東樓","lat":"22.335816","long":"114.191616"},{"id":"A47333D8B495F77D","name":"盈東樓","lat":"22.334044","long":"114.191109"},{"id":"946C74E30100FE80","name":"九龍寨城公園","lat":"22.332261","long":"114.187981"},{"id":"C8203D267CECF949","name":"賈炳達道","lat":"22.330135","long":"114.187112"},{"id":"DB581AD59964EA41","name":"太子道西","lat":"22.328025","long":"114.187038"},{"id":"9DBBC71CB1578A87","name":"喇沙利道","lat":"22.326473","long":"114.183159"},{"id":"312CD2A987AA2773","name":"伯爵街","lat":"22.325975","long":"114.180423"},{"id":"40E8A4AA35AEB18A","name":"勵德街","lat":"22.325359","long":"114.176886"},{"id":"60F1DDDCB555E319","name":"拔萃男書院","lat":"22.324949","long":"114.174484"},{"id":"65B934D14EA190F1","name":"協和小學","lat":"22.324613","long":"114.172570"},{"id":"F7CAA2D4FF9D61F7","name":"太子站","lat":"22.324126","long":"114.169855"},{"id":"6AB438AD3AE100DD","name":"旺角奶路臣街 (S16)","lat":"22.318603","long":"114.169603"},{"id":"456320D47FFB5B1A","name":"旺角豉油街 (S24)","lat":"22.316174","long":"114.170140"},{"id":"5EEA801CA265E5C1","name":"油麻地永星里 (S33)","lat":"22.311527","long":"114.171044"},{"id":"5241470E37FA628F","name":"油麻地長樂街 (S43)","lat":"22.306710","long":"114.171641"},{"id":"A6AED77D365E7011","name":"尖沙咀德成街 (S46)","lat":"22.304530","long":"114.171826"},{"id":"1DEB855D55528B03","name":"金馬倫道 (S51)","lat":"22.298979","long":"114.172114"},{"id":"11A1269F9B78F269","name":"尖沙咀轉車站 - 中間道 (S53)","lat":"22.295877","long":"114.172442"},{"id":"E507F6160447C129","name":"香港文化中心","lat":"22.294519","long":"114.171217"},{"id":"C88E34E485B43EFB","name":"尖沙咀碼頭","lat":"22.294304","long":"114.169112"}],"routeId":"1","description":"正常班次"},{"company":"kmb","route":"1","routeType":"1","dir":"I","orig":"尖沙咀碼頭","dest":"竹園邨","stopList":[{"id":"C88E34E485B43EFB","name":"尖沙咀碼頭","lat":"22.294304","long":"114.169112"},{"id":"AB057A63C24E990E","name":"尖沙咀轉車站 - 中間道 (N3)","lat":"22.296050","long":"114.172172"},{"id":"2946BA6CACA326DF","name":"金巴利道 (N12)","lat":"22.300018","long":"114.171904"},{"id":"6C34AE386C779E0B","name":"油麻地寶靈街 (N22)","lat":"22.304695","long":"114.171587"},{"id":"3C9C928E1674AB98","name":"九龍中央郵政局 (N36)","lat":"22.309296","long":"114.171138"},{"id":"775FC7E2B86C4E3F","name":"油麻地文明里 (N40)","lat":"22.311068","long":"114.170860"},{"id":"01A56227D21AFB04","name":"旺角長沙街 (N52)","lat":"22.315797","long":"114.169950"},{"id":"221A18C37331E6FD","name":"旺角奶路臣街 (N65)","lat":"22.318521","long":"114.169408"},{"id":"3C50188583DABFC8","name":"港九潮州公學","lat":"22.321874","long":"114.171093"},{"id":"EA59A314ABB9386E","name":"伊利沙伯中學","lat":"22.323508","long":"114.170771"},{"id":"1D70AD74F1C97404","name":"太子站","lat":"22.324645","long":"114.169348"},{"id":"6045969736940272","name":"花墟公園","lat":"22.326866","long":"114.173105"},{"id":"F851B0B122F38CCC","name":"明愛太子宿舍","lat":"22.326955","long":"114.176894"},{"id":"C4F65410A7A2E8B6","name":"喇沙小學","lat":"22.327132","long":"114.180671"},{"id":"1E58DF8CAD59712E","name":"聖德肋撒醫院","lat":"22.327382","long":"114.185584"},{"id":"FD45CEE7D2E4A9BF","name":"衙前圍道","lat":"22.328490","long":"114.186330"},{"id":"C6F9EC39B9F09F32","name":"東寶庭道","lat":"22.330563","long":"114.186481"},{"id":"0021600EF3DBEF94","name":"九龍寨城公園","lat":"22.332460","long":"114.188921"},{"id":"26DE86F5E667C410","name":"美東樓","lat":"22.333067","long":"114.190213"},{"id":"B8626845E031C9CF","name":"摩士露天劇場","lat":"22.336181","long":"114.191437"},{"id":"E1EAFF3759608D41","name":"康強苑","lat":"22.337390","long":"114.190305"},{"id":"F2794804DD8799B4","name":"宏業樓","lat":"22.340330","long":"114.189207"},{"id":"CEACD1DF9F00EF44","name":"天宏苑","lat":"22.344413","long":"114.187669"},{"id":"6E410E80F8C9915B","name":"天虹小學","lat":"22.345294","long":"114.189927"},{"id":"18492910339410B1","name":"竹園邨總站","lat":"22.345415","long":"114.192640"}],"routeId":"1","description":"正常班次"},{"company":"ctb","route":"1","routeType":null,"dir":"I","orig":"跑馬地 (上)","dest":"摩星嶺","stopList":[{"id":"002403","name":"跑馬地 (上)","lat":"22.264400182091","long":"114.18864188053"},{"id":"002402","name":"箕璉坊, 藍塘道","lat":"22.265580672091","long":"114.18873205053"},{"id":"002492","name":"桂芳街, 成和道","lat":"22.266827182091","long":"114.18744416053"},{"id":"002493","name":"山村道, 成和道","lat":"22.268295142091","long":"114.18647527053"},{"id":"002453","name":"景光街","lat":"22.268939962091","long":"114.18483901053"},{"id":"002552","name":"養和醫院, 黃泥涌道","lat":"22.270151022091","long":"114.18267105053"},{"id":"002553","name":"跑馬地馬場, 黃泥涌道","lat":"22.271341142091","long":"114.18075706053"},{"id":"002467","name":"立德里, 摩理臣山道","lat":"22.276064312091","long":"114.18020849053"},{"id":"002566","name":"利景酒店, 灣仔道","lat":"22.277832632091","long":"114.17916549053"},{"id":"002537","name":"普樂里, 灣仔道","lat":"22.276798792091","long":"114.17597252053"},{"id":"002446","name":"修頓球場, 軒尼詩道","lat":"22.277433042091","long":"114.17187855053"},{"id":"002449","name":"晏頓街, 軒尼詩道","lat":"22.277666072091","long":"114.16883945053"},{"id":"001140","name":"太古廣場, 金鐘道","lat":"22.278070732091","long":"114.16486695053"},{"id":"001142","name":"中銀大廈, 金鐘道","lat":"22.279480102091","long":"114.16214434053"},{"id":"001054","name":"置地廣場, 德輔道中","lat":"22.281316152091","long":"114.15825054053"},{"id":"001056","name":"中環街市, 德輔道中","lat":"22.284855172091","long":"114.15539392053"},{"id":"001175","name":"急庇利街, 德輔道中","lat":"22.286597682091","long":"114.15157623053"},{"id":"001040","name":"西港城, 干諾道西","lat":"22.287710712091","long":"114.14980124053"},{"id":"001066","name":"皇后街, 德輔道西","lat":"22.287617562091","long":"114.14686036053"},{"id":"001067","name":"高陞街, 德輔道西","lat":"22.287746752091","long":"114.14541645053"},{"id":"001068","name":"正街, 德輔道西","lat":"22.287878642091","long":"114.14161842053"},{"id":"001069","name":"水街, 德輔道西","lat":"22.287186722091","long":"114.13806360053"},{"id":"001070","name":"山道, 德輔道西","lat":"22.286627542091","long":"114.13607459053"},{"id":"001082","name":"堅尼地城游泳池, 堅彌地城海旁","lat":"22.285484642091","long":"114.13174773053"},{"id":"001083","name":"山市街, 堅彌地城海旁","lat":"22.284330652091","long":"114.13037010053"},{"id":"001005","name":"聯邦新樓, 卑路乍街","lat":"22.282463392091","long":"114.12760792053"},{"id":"001164","name":"加惠民道, 域多利道","lat":"22.282072692091","long":"114.12493465053"},{"id":"001165","name":"西寧閣, 域多利道","lat":"22.281063612091","long":"114.12080737053"},{"id":"001166","name":"港島西廢物轉運站, 域多利道","lat":"22.280253272091","long":"114.11868249053"},{"id":"001167","name":"明愛賽馬會宿舍, 域多利道","lat":"22.278603752091","long":"114.11778908053"},{"id":"001168","name":"摩星嶺徑, 域多利道","lat":"22.275760642091","long":"114.11752426053"},{"id":"001186","name":"摩星嶺","lat":"22.274918352091","long":"114.11793506053"}],"routeId":"1","description":"正常班次"},{"company":"ctb","route":"1","routeType":null,"dir":"O","orig":"摩星嶺","dest":"跑馬地 (上)","stopList":[{"id":"001186","name":"摩星嶺","lat":"22.274918352091","long":"114.11793506053"},{"id":"001159","name":"摩星嶺徑, 域多利道","lat":"22.275971142091","long":"114.11742984053"},{"id":"001160","name":"明愛賽馬會宿舍, 域多利道","lat":"22.279145082091","long":"114.11783921053"},{"id":"001161","name":"港島西廢物轉運站, 域多利道","lat":"22.280930762091","long":"114.11960259053"},{"id":"001162","name":"西寧街, 域多利道","lat":"22.281730232091","long":"114.12264206053"},{"id":"001163","name":"西市街, 域多利道","lat":"22.282182852091","long":"114.12521679053"},{"id":"001022","name":"爹核士街, 吉席街","lat":"22.283220932091","long":"114.12755609053"},{"id":"001080","name":"卑路乍灣公園, 堅彌地城海旁","lat":"22.284354042091","long":"114.13017716053"},{"id":"001079","name":"歌連臣街, 堅彌地城海旁","lat":"22.286364162091","long":"114.13202184053"},{"id":"001059","name":"堅尼地城游泳池休憩處, 德輔道西","lat":"22.287202282091","long":"114.13257171053"},{"id":"001060","name":"山道, 德輔道西","lat":"22.287192342091","long":"114.13433789053"},{"id":"001061","name":"嘉安街, 德輔道西","lat":"22.287117792091","long":"114.13734316053"},{"id":"001062","name":"西區警署, 德輔道西","lat":"22.287960232091","long":"114.14034970053"},{"id":"001063","name":"正街, 德輔道西","lat":"22.287991912091","long":"114.14192498053"},{"id":"001064","name":"東邊街, 德輔道西","lat":"22.287915452091","long":"114.14422510053"},{"id":"001065","name":"修打蘭街, 德輔道西","lat":"22.287779782091","long":"114.14637128053"},{"id":"001187","name":"永安中心, 德輔道中","lat":"22.286401352091","long":"114.15288294053"},{"id":"001173","name":"恒生銀行總行, 德輔道中","lat":"22.284360062091","long":"114.15596819053"},{"id":"001049","name":"德忌利士街, 德輔道中","lat":"22.282866402091","long":"114.15717776053"},{"id":"001050","name":"歷山大廈, 德輔道中","lat":"22.281459032091","long":"114.15830013053"},{"id":"001052","name":"遮打花園, 德輔道中","lat":"22.280108962091","long":"114.16064635053"},{"id":"001025","name":"皇后像廣場, 遮打道","lat":"22.281482342091","long":"114.16005494053"},{"id":"001136","name":"金鐘站, 金鐘道","lat":"22.278493752091","long":"114.16445856053"},{"id":"002427","name":"軍器廠街, 軒尼詩道","lat":"22.277848662091","long":"114.16894462053"},{"id":"002431","name":"柯布連道, 軒尼詩道","lat":"22.277694092091","long":"114.17312989053"},{"id":"002412","name":"譚臣道, 菲林明道","lat":"22.277403262091","long":"114.17485950053"},{"id":"002539","name":"克街, 灣仔道","lat":"22.277181682091","long":"114.17717573053"},{"id":"002540","name":"天樂里, 灣仔道","lat":"22.277898752091","long":"114.17916388053"},{"id":"002548","name":"樂活道, 黃泥涌道","lat":"22.274365592091","long":"114.18345343053"},{"id":"002549","name":"雅谷大廈, 黃泥涌道","lat":"22.272085332091","long":"114.18455363053"},{"id":"002550","name":"跑馬地 (下)","lat":"22.270337792091","long":"114.18483108053"},{"id":"002490","name":"奕蔭街, 成和道","lat":"22.269795072091","long":"114.18484684053"},{"id":"002491","name":"昇平樓, 成和道","lat":"22.267818852091","long":"114.18685370053"},{"id":"002560","name":"箕璉坊","lat":"22.265346372091","long":"114.18855798053"},{"id":"002403","name":"跑馬地 (上)","lat":"22.264400182091","long":"114.18864188053"}],"routeId":"1","description":"正常班次"},{"company":"nlb","route":"1","routeType":null,"dir":null,"orig":"梅窩碼頭","dest":"大澳","stopList":[{"id":"1","name":"梅窩碼頭","lat":"22.26466400","long":"114.00155400","street":"梅窩碼頭","fare":"11.6","fareHoliday":"19.5"},{"id":"2","name":"梅窩熟食市場","lat":"22.26614300","long":"114.00004900","street":"銀礦灣道","fare":"11.6","fareHoliday":"19.5"},{"id":"3","name":"銀灣邨","lat":"22.26540600","long":"113.99707400","street":"銀礦灣道","fare":"11.6","fareHoliday":"19.5"},{"id":"4","name":"梅窩街市","lat":"22.26675900","long":"113.99699900","street":"銀石街","fare":"11.6","fareHoliday":"19.5"},{"id":"5","name":"銀景中心","lat":"22.26553700","long":"113.99696500","street":"銀礦灣道","fare":"11.6","fareHoliday":"19.5"},{"id":"6","name":"銀鑛灣濾水廠","lat":"22.26296600","long":"113.99782600","street":"嶼南道","fare":"11.6","fareHoliday":"19.5"},{"id":"7","name":"荔枝園","lat":"22.26075800","long":"113.99647700","street":"嶼南道","fare":"11.6","fareHoliday":"19.5"},{"id":"8","name":"南山三屋村","lat":"22.25707200","long":"113.99010800","street":"嶼南道","fare":"11.6","fareHoliday":"19.5"},{"id":"9","name":"南山營地","lat":"22.25545100","long":"113.98681100","street":"嶼南道","fare":"11.6","fareHoliday":"19.5"},{"id":"10","name":"太古職員宿舍","lat":"22.25191800","long":"113.98488700","street":"嶼南道","fare":"11.6","fareHoliday":"19.5"},{"id":"11","name":"貝澳油站","lat":"22.24731100","long":"113.98098500","street":"嶼南道","fare":"10.8","fareHoliday":"18.3"},{"id":"12","name":"老圍村","lat":"22.24425200","long":"113.97923600","street":"嶼南道","fare":"10.8","fareHoliday":"18.3"},{"id":"13","name":"新圍村","lat":"22.24347600","long":"113.97817800","street":"嶼南道","fare":"10.8","fareHoliday":"18.3"},{"id":"14","name":"羅屋村","lat":"22.24319200","long":"113.97488500","street":"嶼南道","fare":"10.8","fareHoliday":"18.3"},{"id":"15","name":"牛坳園","lat":"22.24304100","long":"113.97254500","street":"嶼南道","fare":"10.8","fareHoliday":"18.3"},{"id":"16","name":"散石灣中蘆","lat":"22.24124400","long":"113.96910500","street":"嶼南道","fare":"8.6","fareHoliday":"14.8"},{"id":"17","name":"散石灣村","lat":"22.23892800","long":"113.96677200","street":"嶼南道","fare":"8.6","fareHoliday":"14.8"},{"id":"18","name":"女青年會梁紹榮度假村","lat":"22.23748400","long":"113.96400100","street":"嶼南道","fare":"8.6","fareHoliday":"14.8"},{"id":"83","name":"散石灣迴旋處","lat":"22.23654400","long":"113.96255000","street":"嶼南道","fare":"8.6","fareHoliday":"14.8"},{"id":"19","name":"長沙上村","lat":"22.23523800","long":"113.96173900","street":"嶼南道","fare":"8.6","fareHoliday":"14.8"},{"id":"20","name":"長沙警署","lat":"22.23377200","long":"113.96021100","street":"嶼南道","fare":"8.6","fareHoliday":"14.8"},{"id":"21","name":"長沙下村","lat":"22.23478700","long":"113.95723200","street":"嶼南道","fare":"8.6","fareHoliday":"14.8"},{"id":"22","name":"長沙消防局","lat":"22.23663200","long":"113.95434900","street":"嶼南道","fare":"8.6","fareHoliday":"14.8"},{"id":"23","name":"麗濱別墅","lat":"22.23621700","long":"113.95191600","street":"嶼南道","fare":"8.6","fareHoliday":"14.8"},{"id":"24","name":"蝶崗","lat":"22.23454000","long":"113.94884100","street":"嶼南道","fare":"8.6","fareHoliday":"14.8"},{"id":"25","name":"長沙大橋","lat":"22.23338900","long":"113.94697700","street":"嶼南道","fare":"8.6","fareHoliday":"14.8"},{"id":"26","name":"上長沙海灘","lat":"22.23087700","long":"113.94152500","street":"嶼南道","fare":"8.6","fareHoliday":"14.8"},{"id":"27","name":"塘福海灘","lat":"22.22850900","long":"113.93533900","street":"嶼南道","fare":"6.0","fareHoliday":"11.9"},{"id":"28","name":"塘福村","lat":"22.22756500","long":"113.93270600","street":"嶼南道","fare":"6.0","fareHoliday":"11.9"},{"id":"32","name":"塘福懲教所","lat":"22.22876400","long":"113.92608400","street":"嶼南道","fare":"6.0","fareHoliday":"11.9"},{"id":"30","name":"麻埔坪村","lat":"22.22992600","long":"113.92805000","street":"麻埔坪道","fare":"6.0","fareHoliday":"11.9"},{"id":"31","name":"麻埔坪道口","lat":"22.22601800","long":"113.92949500","street":"嶼南道","fare":"6.0","fareHoliday":"11.9"},{"id":"178","name":"南大嶼山海底電纜站","lat":"22.22527200","long":"113.92866100","street":"嶼南道","fare":"6.0","fareHoliday":"11.9"},{"id":"33","name":"上橫壟","lat":"22.22334800","long":"113.92062400","street":"嶼南道","fare":"6.0","fareHoliday":"11.9"},{"id":"34","name":"下橫壟","lat":"22.22230500","long":"113.91974100","street":"嶼南道","fare":"6.0","fareHoliday":"11.9"},{"id":"35","name":"水口村(東)","lat":"22.22156500","long":"113.91605900","street":"嶼南道","fare":"6.0","fareHoliday":"11.9"},{"id":"36","name":"水口村","lat":"22.22098931","long":"113.91431800","street":"嶼南道","fare":"6.0","fareHoliday":"11.9"},{"id":"37","name":"四眼馬","lat":"22.22191300","long":"113.91037000","street":"嶼南道","fare":"6.0","fareHoliday":"11.9"},{"id":"38","name":"水口直升機場","lat":"22.22353200","long":"113.90806300","street":"嶼南道","fare":"6.0","fareHoliday":"11.9"},{"id":"39","name":"石壁警崗","lat":"22.22586200","long":"113.89772000","street":"嶼南道","fare":"4.6","fareHoliday":"6.8"},{"id":"40","name":"沙咀懲教所","lat":"22.22496900","long":"113.89348700","street":"石壁水塘道","fare":"4.6","fareHoliday":"6.8"},{"id":"41","name":"沙咀","lat":"22.22832800","long":"113.89060000","street":"姜山道","fare":"4.6","fareHoliday":"6.8"},{"id":"42","name":"石壁坳引水道通道","lat":"22.23945100","long":"113.89369700","street":"姜山道","fare":"4.6","fareHoliday":"6.8"},{"id":"58","name":"深屈道","lat":"22.24505400","long":"113.89119300","street":"深屈道","fare":"2.6","fareHoliday":"5.1"},{"id":"44","name":"法華苑","lat":"22.24612200","long":"113.88904200","street":"姜山道","fare":"2.6","fareHoliday":"5.1"},{"id":"45","name":"三緣精舍","lat":"22.24643500","long":"113.88624200","street":"姜山道","fare":"2.6","fareHoliday":"5.1"},{"id":"46","name":"成輝果園","lat":"22.24382000","long":"113.88420900","street":"姜山道","fare":"2.6","fareHoliday":"5.1"},{"id":"47","name":"觀音寺","lat":"22.24225600","long":"113.88299100","street":"姜山道","fare":"2.6","fareHoliday":"5.1"},{"id":"48","name":"龍仔","lat":"22.24081600","long":"113.88102200","street":"大澳道","fare":"2.6","fareHoliday":"5.1"},{"id":"49","name":"羌山管理站","lat":"22.24203200","long":"113.87882300","street":"大澳道","fare":"2.6","fareHoliday":"5.1"},{"id":"84","name":"新鳳村","lat":"22.24357100","long":"113.87697200","street":"大澳道","fare":"2.6","fareHoliday":"5.1"},{"id":"51","name":"靈隱寺","lat":"22.24401800","long":"113.87500900","street":"大澳道","fare":"2.6","fareHoliday":"5.1"},{"id":"52","name":"坑尾","lat":"22.25065600","long":"113.86906200","street":"大澳道","fare":"2.6","fareHoliday":"5.1"},{"id":"53","name":"佛教筏可紀念中學","lat":"22.25203300","long":"113.86698800","street":"大澳道","fare":"2.6","fareHoliday":"5.1"},{"id":"54","name":"龍田邨","lat":"22.25232600","long":"113.86497600","street":"大澳道","fare":"2.6","fareHoliday":"5.1"},{"id":"55","name":"大澳","lat":"22.25278300","long":"113.86216000","street":"大澳道","fare":"0.0","fareHoliday":"0.0"}],"routeId":"1","description":"正常班次"},{"company":"nlb","route":"1","routeType":null,"dir":null,"orig":"大澳","dest":"梅窩碼頭","stopList":[{"id":"221","name":"大澳","lat":"22.25278300","long":"113.86216000","street":"大澳道","fare":"11.6","fareHoliday":"19.5"},{"id":"222","name":"龍田邨","lat":"22.25252100","long":"113.86500500","street":"大澳道","fare":"11.6","fareHoliday":"19.5"},{"id":"224","name":"坑尾","lat":"22.25083200","long":"113.86930600","street":"大澳道","fare":"11.6","fareHoliday":"19.5"},{"id":"225","name":"靈隱寺","lat":"22.24428700","long":"113.87510700","street":"大澳道","fare":"11.6","fareHoliday":"19.5"},{"id":"226","name":"新鳳村","lat":"22.24390000","long":"113.87700600","street":"大澳道","fare":"11.6","fareHoliday":"19.5"},{"id":"227","name":"羌山管理站","lat":"22.24218200","long":"113.87905100","street":"大澳道","fare":"11.6","fareHoliday":"19.5"},{"id":"228","name":"龍仔","lat":"22.24137000","long":"113.88139200","street":"大澳道","fare":"11.6","fareHoliday":"19.5"},{"id":"229","name":"成輝果園","lat":"22.24400100","long":"113.88399500","street":"姜山道","fare":"10.8","fareHoliday":"18.3"},{"id":"230","name":"三緣精舍","lat":"22.24671100","long":"113.88596800","street":"姜山道","fare":"10.8","fareHoliday":"18.3"},{"id":"232","name":"法華苑","lat":"22.24622100","long":"113.88887200","street":"姜山道","fare":"10.8","fareHoliday":"18.3"},{"id":"233","name":"深屈道","lat":"22.24459200","long":"113.89187900","street":"深屈道","fare":"10.8","fareHoliday":"18.3"},{"id":"234","name":"石壁坳引水道通道","lat":"22.23917900","long":"113.89397500","street":"姜山道","fare":"8.6","fareHoliday":"14.8"},{"id":"235","name":"沙咀","lat":"22.22850300","long":"113.89110500","street":"姜山道","fare":"8.6","fareHoliday":"14.8"},{"id":"40","name":"沙咀懲教所","lat":"22.22496900","long":"113.89348700","street":"石壁水塘道","fare":"8.6","fareHoliday":"14.8"},{"id":"236","name":"石壁警崗","lat":"22.22611900","long":"113.89813400","street":"嶼南道","fare":"8.6","fareHoliday":"14.8"},{"id":"237","name":"水口直升機場","lat":"22.22370300","long":"113.90832500","street":"嶼南道","fare":"6.0","fareHoliday":"11.9"},{"id":"238","name":"四眼馬","lat":"22.22205400","long":"113.91063200","street":"嶼南道","fare":"6.0","fareHoliday":"11.9"},{"id":"239","name":"水口村","lat":"22.22110100","long":"113.91417300","street":"嶼南道","fare":"6.0","fareHoliday":"11.9"},{"id":"240","name":"水口村(東)","lat":"22.22184100","long":"113.91576300","street":"嶼南道","fare":"6.0","fareHoliday":"11.9"},{"id":"241","name":"下橫壟","lat":"22.22205000","long":"113.91923400","street":"嶼南道","fare":"6.0","fareHoliday":"11.9"},{"id":"242","name":"上橫壟","lat":"22.22435800","long":"113.92107700","street":"嶼南道","fare":"6.0","fareHoliday":"11.9"},{"id":"243","name":"南大嶼山海底電纜站","lat":"22.22588300","long":"113.92718000","street":"嶼南道","fare":"6.0","fareHoliday":"11.9"},{"id":"244","name":"麻埔坪道口","lat":"22.22658300","long":"113.93007700","street":"嶼南道","fare":"6.0","fareHoliday":"11.9"},{"id":"245","name":"塘福村","lat":"22.22776300","long":"113.93239700","street":"嶼南道","fare":"6.0","fareHoliday":"11.9"},{"id":"246","name":"塘福海灘","lat":"22.22894100","long":"113.93594400","street":"嶼南道","fare":"6.0","fareHoliday":"11.9"},{"id":"247","name":"上長沙海灘","lat":"22.23132900","long":"113.94176600","street":"嶼南道","fare":"6.0","fareHoliday":"11.9"},{"id":"248","name":"長沙大橋","lat":"22.23397900","long":"113.94736600","street":"嶼南道","fare":"6.0","fareHoliday":"11.9"},{"id":"249","name":"蝶崗","lat":"22.23506200","long":"113.94929800","street":"嶼南道","fare":"4.6","fareHoliday":"6.8"},{"id":"250","name":"麗濱別墅","lat":"22.23647200","long":"113.95142400","street":"嶼南道","fare":"4.6","fareHoliday":"6.8"},{"id":"251","name":"長沙消防局","lat":"22.23680300","long":"113.95543400","street":"嶼南道","fare":"4.6","fareHoliday":"6.8"},{"id":"252","name":"長沙下村","lat":"22.23496500","long":"113.95717000","street":"嶼南道","fare":"4.6","fareHoliday":"6.8"},{"id":"253","name":"長沙警署","lat":"22.23396400","long":"113.96017400","street":"嶼南道","fare":"4.6","fareHoliday":"6.8"},{"id":"254","name":"長沙上村","lat":"22.23533000","long":"113.96154700","street":"嶼南道","fare":"4.6","fareHoliday":"6.8"},{"id":"255","name":"散石灣迴旋處","lat":"22.23672700","long":"113.96242400","street":"嶼南道","fare":"4.6","fareHoliday":"6.8"},{"id":"256","name":"女青年會梁紹榮度假村","lat":"22.23776800","long":"113.96397300","street":"嶼南道","fare":"4.6","fareHoliday":"6.8"},{"id":"257","name":"散石灣村","lat":"22.23902400","long":"113.96652600","street":"嶼南道","fare":"4.6","fareHoliday":"6.8"},{"id":"258","name":"散石灣中蘆","lat":"22.24125500","long":"113.96866600","street":"嶼南道","fare":"4.6","fareHoliday":"6.8"},{"id":"259","name":"羅屋村","lat":"22.24337500","long":"113.97483200","street":"嶼南道","fare":"3.4","fareHoliday":"5.5"},{"id":"260","name":"新圍村","lat":"22.24347600","long":"113.97732200","street":"嶼南道","fare":"3.4","fareHoliday":"5.5"},{"id":"261","name":"老圍村","lat":"22.24444000","long":"113.97900000","street":"嶼南道","fare":"3.4","fareHoliday":"5.5"},{"id":"262","name":"貝澳油站","lat":"22.24750100","long":"113.98077000","street":"嶼南道","fare":"3.4","fareHoliday":"5.5"},{"id":"263","name":"太古職員宿舍","lat":"22.25212000","long":"113.98474500","street":"嶼南道","fare":"2.6","fareHoliday":"5.1"},{"id":"264","name":"南山營地","lat":"22.25606700","long":"113.98747000","street":"嶼南道","fare":"2.6","fareHoliday":"5.1"},{"id":"265","name":"南山三屋村","lat":"22.25732700","long":"113.98990100","street":"嶼南道","fare":"2.6","fareHoliday":"5.1"},{"id":"56","name":"禮智園墳場","lat":"22.25932700","long":"113.99399300","street":"嶼南道","fare":"2.6","fareHoliday":"5.1"},{"id":"266","name":"荔枝園","lat":"22.26066700","long":"113.99626800","street":"嶼南道","fare":"2.6","fareHoliday":"5.1"},{"id":"57","name":"梅窩警署","lat":"22.26409300","long":"113.99890600","street":"嶼南道","fare":"2.6","fareHoliday":"5.1"},{"id":"2","name":"梅窩熟食市場","lat":"22.26614300","long":"114.00004900","street":"銀礦灣道","fare":"2.6","fareHoliday":"5.1"},{"id":"3","name":"銀灣邨","lat":"22.26540600","long":"113.99707400","street":"銀礦灣道","fare":"2.6","fareHoliday":"5.1"},{"id":"4","name":"梅窩街市","lat":"22.26675900","long":"113.99699900","street":"銀石街","fare":"2.6","fareHoliday":"5.1"},{"id":"5","name":"銀景中心","lat":"22.26553700","long":"113.99696500","street":"銀礦灣道","fare":"2.6","fareHoliday":"5.1"},{"id":"305","name":"梅窩碼頭","lat":"22.26466400","long":"114.00155400","street":"梅窩碼頭","fare":"0.0","fareHoliday":"0.0"}],"routeId":"2","description":"正常班次"},{"company":"gmb","route":"1","routeType":1,"orig":"山頂(公共交通總站)","dest":"中環(香港站公共運輸交匯處)","stopList":[{"id":20014489,"name":"山頂廣場（下層巴士總站）","lat":22.270084542826492,"long":114.14988317765588},{"id":20014490,"name":"山頂道, 近山頂道五十六號Ｂ","lat":22.268321157800273,"long":114.16292393923615},{"id":20014491,"name":"雪廠街, 近印刷行","lat":22.279717441554588,"long":114.15724163666232},{"id":20000024,"name":"畢打街, 近中環站 D1 出口","lat":22.281777377729476,"long":114.1572832447664},{"id":20000295,"name":"康樂廣場, 交易廣場外","lat":22.28342111544006,"long":114.15868031787875},{"id":20014492,"name":"香港站小巴總站","lat":22.28591623656832,"long":114.15845014374341}],"routeId":2006408,"description":"正常班次"},{"company":"gmb","route":"1","routeType":2,"orig":"中環(香港站公共運輸交匯處)","dest":"山頂(公共交通總站)","stopList":[{"id":20014492,"name":"香港站小巴總站","lat":22.28591623656832,"long":114.15845014374341},{"id":20000026,"name":"紅棉路, 香港壁球中心外","lat":22.277623631260738,"long":114.16041791782935},{"id":20014493,"name":"山頂道, 近摘星閣第７座","lat":22.26854899410202,"long":114.16362195438818},{"id":20014494,"name":"加列山道, 近明德國際醫院","lat":22.260156622244704,"long":114.14954512754404},{"id":20014489,"name":"山頂廣場（下層巴士總站）","lat":22.270084542826492,"long":114.14988317765588}],"routeId":2006408,"description":"正常班次"},{"company":"gmb","route":"1","routeType":1,"orig":"西貢","dest":"九龍灣(德福花園)","stopList":[{"id":20001112,"name":"福民路小巴總站, 經華樓外","lat":22.38160987711899,"long":114.2734236652468},{"id":20001113,"name":"西貢公路, 白沙灣遊艇會外","lat":22.364820840211255,"long":114.25943097764687},{"id":20001114,"name":"西貢公路, 匡湖居外","lat":22.359731009194117,"long":114.25248621664541},{"id":20001993,"name":"清水灣道, 松濤苑對面","lat":22.343710250703612,"long":114.25369099629233},{"id":20001996,"name":"清水灣道, 井欄樹","lat":22.334000086544158,"long":114.23788272041506},{"id":20000566,"name":"清水灣道, 彩雲商場2期B外","lat":22.333474336765807,"long":114.21478968112734},{"id":20001117,"name":"清水灣道坪石邨鑽石樓外","lat":22.334008367500214,"long":114.20913065729457},{"id":20001115,"name":"德福廣場2期地面","lat":22.32174396055862,"long":114.21325293919243}],"routeId":2002337,"description":"正常班次"},{"company":"gmb","route":"1","routeType":2,"orig":"九龍灣(德福花園)","dest":"西貢","stopList":[{"id":20001115,"name":"德福廣場2期地面","lat":22.32174396055862,"long":114.21325293919243},{"id":20001116,"name":"龍翔道, 近牛池灣消防局","lat":22.33501998824765,"long":114.20813106425722},{"id":20001999,"name":"井欄樹","lat":22.334153810160945,"long":114.23733919611703},{"id":20001112,"name":"福民路小巴總站, 經華樓外","lat":22.38160987711899,"long":114.2734236652468}],"routeId":2002337,"description":"正常班次"}]