[{"company":"KMB","route":"10","routeType":"1","dir":"O","orig":"彩雲","dest":"大角咀(循環線)","stopList":[{"id":"09680C5849BFA077","name":"彩雲總站","lat":"22.333448","long":"114.214865"},{"id":"93E0033436973DA7","name":"彩虹站","lat":"22.334161","long":"114.210132"},{"id":"F6512E7C4A6D5C2E","name":"丹鳳樓","lat":"22.335233","long":"114.207616"},{"id":"9AC3AFC5216B9711","name":"錦雲樓","lat":"22.337382","long":"114.204795"},{"id":"AFB03B10416E2199","name":"志蓮淨苑","lat":"22.339894","long":"114.204371"},{"id":"4B9D547F0F450784","name":"龍蟠苑","lat":"22.342920","long":"114.200382"},{"id":"7BDF3895E0BCE33B","name":"龍逸樓","lat":"22.338860","long":"114.195867"},{"id":"168487E2C681CB0D","name":"龍榮樓","lat":"22.339271","long":"114.193843"},{"id":"3942D55ED3DE84C9","name":"摩士第二公園","lat":"22.337576","long":"114.192593"},{"id":"7C4E16F4A138B142","name":"偉東樓","lat":"22.335816","long":"114.191616"},{"id":"A47333D8B495F77D","name":"盈東樓","lat":"22.334044","long":"114.191109"},{"id":"946C74E30100FE80","name":"九龍寨城公園","lat":"22.332261","long":"114.187981"},{"id":"A0287E3D747AD4FA","name":"東寶庭道","lat":"22.331088","long":"114.186667"},{"id":"1CCCE3B2D9AB4D2A","name":"書院道","lat":"22.328972","long":"114.184996"},{"id":"5C6ECA890BF03809","name":"牛津道","lat":"22.330165","long":"114.181276"},{"id":"7A1C43F91CF8A6FC","name":"九龍塘會","lat":"22.329348","long":"114.178743"},{"id":"98FCC750B322B706","name":"九龍醫院","lat":"22.323064","long":"114.178288"},{"id":"AB741CA56ABEA9F2","name":"萬基大廈","lat":"22.319899","long":"114.176680"},{"id":"71C9731001C9C773","name":"何文田街","lat":"22.317661","long":"114.175062"},{"id":"F63C76EC97E38A91","name":"廣華醫院","lat":"22.314770","long":"114.172864"},{"id":"777ED0B1F3CF10DD","name":"油麻地消防局","lat":"22.313308","long":"114.171775"},{"id":"F5F6D6EF74B4D7B2","name":"上海街","lat":"22.312618","long":"114.169211"},{"id":"B96E368FC17CD0B0","name":"富榮花園","lat":"22.314039","long":"114.164201"},{"id":"420E7970087AD769","name":"柏景灣","lat":"22.316414","long":"114.163641"},{"id":"B76B249D3D253008","name":"富貴街","lat":"22.318679","long":"114.161867"},{"id":"A7F35DC09E1A1528","name":"櫸樹街","lat":"22.319354","long":"114.162802"},{"id":"0F4DB224F8A8FF9C","name":"福全街","lat":"22.320536","long":"114.165325"},{"id":"4884DCF89AD7BA6A","name":"旺角站","lat":"22.319688","long":"114.170707"},{"id":"48AA5A2907C1833D","name":"亞皆老街中電","lat":"22.320703","long":"114.176086"},{"id":"7D06FF559C2414AF","name":"聖佐治大廈","lat":"22.323516","long":"114.178017"},{"id":"E4B6BF6D835723A0","name":"伯爵街","lat":"22.326435","long":"114.180472"},{"id":"7CC71E7933DD9625","name":"喇沙書院","lat":"22.328512","long":"114.181843"},{"id":"D34CCDD12A1BC57F","name":"蘭開夏道","lat":"22.329812","long":"114.181880"},{"id":"EE3EA981F3D6485D","name":"書院道","lat":"22.329153","long":"114.184761"},{"id":"F159C47896D53738","name":"獅子石道","lat":"22.329045","long":"114.187875"},{"id":"0F38AE1F1CAFF245","name":"南角道","lat":"22.328990","long":"114.189568"},{"id":"642A6178B23761B6","name":"打鼓嶺道","lat":"22.329861","long":"114.191437"},{"id":"9E80A1847F06792A","name":"東頭邨康東樓","lat":"22.332683","long":"114.193660"},{"id":"661FEE32A0D73EB0","name":"王仲銘中學","lat":"22.333958","long":"114.194661"},{"id":"2196A42A8F733DB5","name":"啟德花園","lat":"22.337218","long":"114.195091"},{"id":"F0AC02C6C94078C4","name":"黃大仙警署","lat":"22.339447","long":"114.197681"},{"id":"A0FDF34B2D278750","name":"鳳德商場","lat":"22.343311","long":"114.199551"},{"id":"951CE3B3EB98BA3A","name":"志蓮淨苑","lat":"22.340105","long":"114.204311"},{"id":"64CE8117895E8FAD","name":"牛池灣村","lat":"22.336431","long":"114.207548"},{"id":"5CD4C77378D3A4AE","name":"牛池灣街市","lat":"22.334351","long":"114.209490"},{"id":"942E95B4336BDFA7","name":"白虹樓","lat":"22.332599","long":"114.215269"},{"id":"33BA3785390F1457","name":"觀日樓","lat":"22.333521","long":"114.216390"},{"id":"09680C5849BFA077","name":"彩雲總站","lat":"22.333448","long":"114.214865"}],"routeId":"10"},{"company":"CTB","route":"10","routeType":null,"dir":"I","orig":"堅尼地城","dest":"北角碼頭","stopList":[{"id":"001249","name":"北角碼頭","lat":"22.293287872091","long":"114.20149753053"},{"id":"001279","name":"琴行街, 英皇道","lat":"22.291204122091","long":"114.20095851053"},{"id":"001280","name":"新都城大廈, 英皇道","lat":"22.290876932091","long":"114.19937984053"},{"id":"001364","name":"長康街, 英皇道","lat":"22.290176642091","long":"114.19594569053"},{"id":"001283","name":"炮台山站, 英皇道","lat":"22.288146742091","long":"114.19355472053"},{"id":"001286","name":"清風街, 英皇道","lat":"22.284713662091","long":"114.19291666053"},{"id":"001214","name":"皇仁書院, 高士威道","lat":"22.281286912091","long":"114.19065162053"},{"id":"001215","name":"香港中央圖書館, 高士威道","lat":"22.280082042091","long":"114.18887826053"},{"id":"002457","name":"加路連山道, 禮頓道","lat":"22.277432082091","long":"114.18577553053"},{"id":"002547","name":"體育道, 黃泥涌道","lat":"22.276258492091","long":"114.18256067053"},{"id":"002548","name":"樂活道, 黃泥涌道","lat":"22.274365592091","long":"114.18345343053"},{"id":"002550","name":"跑馬地 (下)","lat":"22.270337792091","long":"114.18483108053"},{"id":"002552","name":"養和醫院, 黃泥涌道","lat":"22.270151022091","long":"114.18267105053"},{"id":"002458","name":"紀利華木球會, 禮頓道","lat":"22.276970692091","long":"114.18220985053"},{"id":"002558","name":"跑馬地馬場, 摩理臣山道","lat":"22.275441072091","long":"114.18030536053"},{"id":"002486","name":"錫克廟, 皇后大道東","lat":"22.274802192091","long":"114.17851714053"},{"id":"002487","name":"香港華仁書院, 皇后大道東","lat":"22.274833802091","long":"114.17623997053"},{"id":"002569","name":"胡忠大廈, 皇后大道東","lat":"22.274580512091","long":"114.17250642053"},{"id":"002488","name":"聯發街, 皇后大道東","lat":"22.276100292091","long":"114.17002156053"},{"id":"002489","name":"太古廣場三座, 皇后大道東","lat":"22.277274142091","long":"114.16820458053"},{"id":"001140","name":"太古廣場, 金鐘道","lat":"22.278070732091","long":"114.16486695053"},{"id":"001142","name":"中銀大廈, 金鐘道","lat":"22.279480102091","long":"114.16214434053"},{"id":"001054","name":"置地廣場, 德輔道中","lat":"22.281316152091","long":"114.15825054053"},{"id":"001121","name":"中環街市, 域多利皇后街","lat":"22.283815052091","long":"114.15559526053"},{"id":"001125","name":"威靈頓街, 皇后大道中","lat":"22.284833042091","long":"114.15330172053"},{"id":"001126","name":"荷李活華庭, 皇后大道中","lat":"22.284443202091","long":"114.15115814053"},{"id":"001127","name":"上環文娛中心, 皇后大道中","lat":"22.285970352091","long":"114.14910338053"},{"id":"001134","name":"帝后華庭, 皇后大道西","lat":"22.286525342091","long":"114.14736012053"},{"id":"001135","name":"修打蘭街, 皇后大道西","lat":"22.286631802091","long":"114.14534782053"},{"id":"001129","name":"東邊街, 皇后大道西","lat":"22.286847912091","long":"114.14426832053"},{"id":"001130","name":"正街, 皇后大道西","lat":"22.286844142091","long":"114.14276129053"},{"id":"001131","name":"西邊街, 皇后大道西","lat":"22.286915762091","long":"114.14144558053"},{"id":"001132","name":"朝光街, 皇后大道西","lat":"22.286757962091","long":"114.13975003053"},{"id":"001133","name":"石塘咀市政大廈, 皇后大道西","lat":"22.285969012091","long":"114.13561606053"},{"id":"001128","name":"日富里, 皇后大道西","lat":"22.286430502091","long":"114.13350308053"},{"id":"001002","name":"西寶城, 卑路乍街","lat":"22.286057592091","long":"114.13262448053"},{"id":"001003","name":"山市街, 卑路乍街","lat":"22.283632272091","long":"114.13063421053"},{"id":"001005","name":"聯邦新樓, 卑路乍街","lat":"22.282463392091","long":"114.12760792053"},{"id":"001164","name":"加惠民道, 域多利道","lat":"22.282072692091","long":"114.12493465053"},{"id":"001152","name":"堅尼地城","lat":"22.282034062091","long":"114.12264943053"}],"routeId":"10"},{"company":"CTB","route":"10","routeType":null,"dir":"O","orig":"堅尼地城","dest":"北角碼頭","stopList":[{"id":"001152","name":"堅尼地城","lat":"22.282034062091","long":"114.12264943053"},{"id":"001163","name":"西市街, 域多利道","lat":"22.282182852091","long":"114.12521679053"},{"id":"001022","name":"爹核士街, 吉席街","lat":"22.283220932091","long":"114.12755609053"},{"id":"001080","name":"卑路乍灣公園, 堅彌地城海旁","lat":"22.284354042091","long":"114.13017716053"},{"id":"001081","name":"西祥街, 堅彌地城海旁","lat":"22.284984992091","long":"114.13095631053"},{"id":"001079","name":"歌連臣街, 堅彌地城海旁","lat":"22.286364162091","long":"114.13202184053"},{"id":"001059","name":"堅尼地城游泳池休憩處, 德輔道西","lat":"22.287202282091","long":"114.13257171053"},{"id":"001060","name":"山道, 德輔道西","lat":"22.287192342091","long":"114.13433789053"},{"id":"001061","name":"嘉安街, 德輔道西","lat":"22.287117792091","long":"114.13734316053"},{"id":"001062","name":"西區警署, 德輔道西","lat":"22.287960232091","long":"114.14034970053"},{"id":"001063","name":"正街, 德輔道西","lat":"22.287991912091","long":"114.14192498053"},{"id":"001064","name":"東邊街, 德輔道西","lat":"22.287915452091","long":"114.14422510053"},{"id":"001065","name":"修打蘭街, 德輔道西","lat":"22.287779782091","long":"114.14637128053"},{"id":"001187","name":"永安中心, 德輔道中","lat":"22.286401352091","long":"114.15288294053"},{"id":"001173","name":"恒生銀行總行, 德輔道中","lat":"22.284360062091","long":"114.15596819053"},{"id":"001049","name":"德忌利士街, 德輔道中","lat":"22.282866402091","long":"114.15717776053"},{"id":"001050","name":"歷山大廈, 德輔道中","lat":"22.281459032091","long":"114.15830013053"},{"id":"001052","name":"遮打花園, 德輔道中","lat":"22.280108962091","long":"114.16064635053"},{"id":"001025","name":"皇后像廣場, 遮打道","lat":"22.281482342091","long":"114.16005494053"},{"id":"001136","name":"金鐘站, 金鐘道","lat":"22.278462002091","long":"114.16453368053"},{"id":"002479","name":"太古廣場三座, 皇后大道東","lat":"22.277614332091","long":"114.16784733053"},{"id":"002480","name":"聯發街, 皇后大道東","lat":"22.276092532091","long":"114.17017417053"},{"id":"002481","name":"廈門街, 皇后大道東","lat":"22.275205172091","long":"114.17158011053"},{"id":"002482","name":"尚翹峰, 皇后大道東","lat":"22.274470092091","long":"114.17386255053"},{"id":"002484","name":"聖若瑟小學, 皇后大道東","lat":"22.275165142091","long":"114.17692050053"},{"id":"002485","name":"伊利沙伯體育館, 皇后大道東","lat":"22.274920852091","long":"114.17867690053"},{"id":"002469","name":"禮頓道, 摩理臣山道","lat":"22.276257182091","long":"114.18045880053"},{"id":"002455","name":"勿地臣街, 禮頓道","lat":"22.277006672091","long":"114.18180360053"},{"id":"002456","name":"雲翠大廈, 禮頓道","lat":"22.277441222091","long":"114.18464429053"},{"id":"002474","name":"邊寧頓街","lat":"22.278458822091","long":"114.18603081053"},{"id":"001213","name":"維多利亞公園, 高士威道","lat":"22.281133262091","long":"114.19006592053"},{"id":"001259","name":"銀幕街, 英皇道","lat":"22.283615512091","long":"114.19246041053"},{"id":"001260","name":"七海商業中心, 英皇道","lat":"22.287742812091","long":"114.19296558053"},{"id":"001261","name":"電廠街, 英皇道","lat":"22.290056622091","long":"114.19505769053"},{"id":"001262","name":"糖水道, 英皇道","lat":"22.290808072091","long":"114.19810570053"},{"id":"001310","name":"新光戲院, 書局街","lat":"22.291615512091","long":"114.20012532053"},{"id":"001249","name":"北角碼頭","lat":"22.293287872091","long":"114.20149753053"}],"routeId":"10"}]