[{"company":"kmb","route":"108","routeType":"1","dir":"O","orig":"啟業","dest":"寶馬山","stopList":[{"id":"0718DE53C1C84496","name":"啟業總站","lat":"22.328668","long":"114.208557"},{"id":"AC4EEE801BB9133C","name":"麗晶花園13座","lat":"22.330688","long":"114.206918"},{"id":"5CD6A0A0CE6B53B6","name":"麗晶商場","lat":"22.329638","long":"114.205624"},{"id":"32A2D05A195364DC","name":"宏天廣場","lat":"22.326567","long":"114.205250"},{"id":"C1C31D615DAA97F4","name":"德朗邨停車場","lat":"22.327940","long":"114.204303"},{"id":"A4601C77EB896E30","name":"啟德(德朗邨)","lat":"22.330099","long":"114.204609"},{"id":"E207DBF95EA7DE26","name":"沐虹街","lat":"22.332082","long":"114.204744"},{"id":"C71093B5185DF735","name":"東九龍總區警察總部","lat":"22.334237","long":"114.201936"},{"id":"C80FB453C9F53569","name":"譽．港灣","lat":"22.332000","long":"114.196917"},{"id":"8BB1DE68DB8316D3","name":"九龍城轉車站- 富豪東方酒店(B7)","lat":"22.327159","long":"114.190608"},{"id":"AE4D7869B643DAA2","name":"宋皇臺道","lat":"22.324158","long":"114.188708"},{"id":"AE2A53D953B640BE","name":"馬頭角道","lat":"22.322299","long":"114.187759"},{"id":"E798CB4E2C777782","name":"土瓜灣街市","lat":"22.317698","long":"114.187646"},{"id":"6E8CB58283AF3CB1","name":"浙江街遊樂場","lat":"22.313480","long":"114.187159"},{"id":"9CFB5F7232818FFA","name":"紅磡北拱街","lat":"22.311832","long":"114.186119"},{"id":"A06590AD808DC9A9","name":"紅磡平治街","lat":"22.309645","long":"114.184591"},{"id":"06C9926B2E2B304F","name":"紅隧轉車站 (A6)","lat":"22.303077","long":"114.180907"},{"id":"F948129B464BB963","name":"景隆街","lat":"22.281564","long":"114.182443"},{"id":"73D995FCB1FFF157","name":"利舞臺廣場","lat":"22.278900","long":"114.183182"},{"id":"0DE359EA64DEF296","name":"雲翠大廈","lat":"22.277617","long":"114.184351"},{"id":"76B4054F2E1F00B0","name":"邊寧頓街","lat":"22.278744","long":"114.185975"},{"id":"BEFD9F22518EC452","name":"聖保祿醫院","lat":"22.278912","long":"114.188142"},{"id":"65EDACB416872451","name":"豪園","lat":"22.278183","long":"114.190784"},{"id":"0083ED6E0A4B1B04","name":"光明台","lat":"22.277201","long":"114.193299"},{"id":"7C88601B99189BD4","name":"勵德邨德全樓","lat":"22.278793","long":"114.193486"},{"id":"323B8C4CA047E7D4","name":"怡景道","lat":"22.282030","long":"114.194059"},{"id":"E14F46F557B6BF78","name":"北角官立小學(雲景道)","lat":"22.283811","long":"114.195072"},{"id":"455338DEEC08A032","name":"海景台","lat":"22.285164","long":"114.196121"},{"id":"D7369E9D4404292E","name":"恒景園","lat":"22.287086","long":"114.196889"},{"id":"5DB2359F5F8535E9","name":"雲峯大廈","lat":"22.287098","long":"114.199066"},{"id":"29A5797CA506CDEE","name":"賽西湖大廈(樹仁大學)","lat":"22.285157","long":"114.199581"},{"id":"712502C1013BBC1C","name":"寶馬山總站","lat":"22.283365","long":"114.198923"}],"routeId":"108","description":"正常班次"},{"company":"kmb","route":"108","routeType":"3","dir":"O","orig":"九龍城(盛德街)","dest":"銅鑼灣(邊寧頓街)","stopList":[{"id":"D63D9356CBA8B0CD","name":"盛德街總站","lat":"22.323819","long":"114.187694"},{"id":"AE4D7869B643DAA2","name":"宋皇臺道","lat":"22.324158","long":"114.188708"},{"id":"AE2A53D953B640BE","name":"馬頭角道","lat":"22.322299","long":"114.187759"},{"id":"E798CB4E2C777782","name":"土瓜灣街市","lat":"22.317698","long":"114.187646"},{"id":"6E8CB58283AF3CB1","name":"浙江街遊樂場","lat":"22.313480","long":"114.187159"},{"id":"9CFB5F7232818FFA","name":"紅磡北拱街","lat":"22.311832","long":"114.186119"},{"id":"A06590AD808DC9A9","name":"紅磡平治街","lat":"22.309645","long":"114.184591"},{"id":"06C9926B2E2B304F","name":"紅隧轉車站 (A6)","lat":"22.303077","long":"114.180907"},{"id":"F948129B464BB963","name":"景隆街","lat":"22.281564","long":"114.182443"},{"id":"73D995FCB1FFF157","name":"利舞臺廣場","lat":"22.278900","long":"114.183182"},{"id":"0DE359EA64DEF296","name":"雲翠大廈","lat":"22.277617","long":"114.184351"},{"id":"76B4054F2E1F00B0","name":"邊寧頓街","lat":"22.278744","long":"114.185975"}],"routeId":"108","description":"特別班次"},{"company":"kmb","route":"108","routeType":"1","dir":"I","orig":"寶馬山","dest":"啟業","stopList":[{"id":"712502C1013BBC1C","name":"寶馬山總站","lat":"22.283365","long":"114.198923"},{"id":"C24D58A7C3133FDC","name":"豐林閣(樹仁大學)","lat":"22.285208","long":"114.199456"},{"id":"B1D2A289C9710B3E","name":"桂華山中學","lat":"22.287054","long":"114.199035"},{"id":"632639E4C5ED8F2E","name":"富麗園","lat":"22.287199","long":"114.197405"},{"id":"B8287EA10FCA0837","name":"萬德閣","lat":"22.286200","long":"114.196747"},{"id":"F7756ADD267DFE71","name":"雲景台","lat":"22.284742","long":"114.195932"},{"id":"45B5CCA0A38FC3D5","name":"北角官立小學(雲景道)","lat":"22.283215","long":"114.194977"},{"id":"C1C2FA697C82D436","name":"怡景道","lat":"22.281431","long":"114.193702"},{"id":"A5AE9E9EC7923C42","name":"勵德邨勵潔樓","lat":"22.278850","long":"114.193699"},{"id":"8F3036848FC1BBEA","name":"勵德邨邨榮樓","lat":"22.277758","long":"114.194491"},{"id":"F2DC5E6E97C7012A","name":"利群道","lat":"22.276749","long":"114.194221"},{"id":"E0EE7D134C3C963D","name":"豪園","lat":"22.278129","long":"114.190444"},{"id":"455C67DEE3D3E649","name":"摩頓台","lat":"22.279612","long":"114.188873"},{"id":"5B3C373DE4DCAE6F","name":"怡和街","lat":"22.279745","long":"114.185534"},{"id":"19F3CE793CCBE505","name":"堅拿道東","lat":"22.278393","long":"114.181326"},{"id":"11B2034DDF30617A","name":"紅隧轉車站 (C2)","lat":"22.302459","long":"114.179851"},{"id":"AA97FFC49AE957A5","name":"紅磡山谷道","lat":"22.309361","long":"114.183871"},{"id":"F6A446C66F7F805E","name":"紅磡北拱街","lat":"22.312193","long":"114.186074"},{"id":"4850531F57582BD9","name":"土瓜灣落山道","lat":"22.317025","long":"114.187465"},{"id":"4C52780594F2D674","name":"土瓜灣天光道","lat":"22.319632","long":"114.187459"},{"id":"AA62C03711F778F2","name":"洋葵樓","lat":"22.322517","long":"114.187516"},{"id":"6D6EE27729F3C486","name":"香港家庭計劃指導會","lat":"22.323904","long":"114.188214"},{"id":"47B6BE5FC95C2042","name":"亞皆老街球場","lat":"22.326329","long":"114.189403"},{"id":"BB172B3A5DAC85A4","name":"九龍城轉車站- 富豪東方酒店(A3)","lat":"22.328624","long":"114.191977"},{"id":"D7A05B5BAF07A89B","name":"譽．港灣","lat":"22.332960","long":"114.196532"},{"id":"3D717F0365D5505B","name":"景泰街","lat":"22.334279","long":"114.199287"},{"id":"29759ECB92E1A91B","name":"工業貿易大樓","lat":"22.332189","long":"114.197970"},{"id":"B48B8F12CD929F0F","name":"啟德(啟晴邨)","lat":"22.332416","long":"114.203904"},{"id":"72999453ECAC4693","name":"麗晶花園第8座","lat":"22.331389","long":"114.205832"},{"id":"0718DE53C1C84496","name":"啟業總站","lat":"22.328668","long":"114.208557"}],"routeId":"108","description":"正常班次"}]