[{"company":"gmb","route":"108A","routeType":1,"orig":"彩明公共運輸交匯處","dest":"坑口（北）","stopList":[{"id":20006977,"name":"彩明公共運輸交匯處","lat":22.30595428323382,"long":114.2517681324497},{"id":20003049,"name":"彩明街彩明商場","lat":22.306488470787084,"long":114.25301792289476},{"id":20003050,"name":"翠嶺路, 維景灣畔","lat":22.303587999696422,"long":114.25233945739208},{"id":20007075,"name":"翠嶺路, 善明邨對面","lat":22.303020409230893,"long":114.24940829323951},{"id":20003051,"name":"翠嶺路, 匯知中學","lat":22.30535068500519,"long":114.24855545792641},{"id":20003052,"name":"翠嶺路, 佛教正覺中學","lat":22.307355176850976,"long":114.24923584074618},{"id":20004514,"name":"唐明街, 尚德商場外","lat":22.310619733650157,"long":114.2587390673581},{"id":20003176,"name":"唐俊街, 佛教志蓮小學外","lat":22.31050151929796,"long":114.26034038063362},{"id":20002602,"name":"唐德街, 博愛醫院八十週年鄧英喜中學對面","lat":22.30827185688473,"long":114.25858241485318},{"id":20006978,"name":"寶邑路, 港鐵將軍澳站外","lat":22.307223557294524,"long":114.26005698293437},{"id":20003174,"name":"寶邑路, 寶盈花園對面","lat":22.307998956431206,"long":114.26242550479155},{"id":20005021,"name":"寶康路, 富康花園外","lat":22.3102383028875,"long":114.26288302011375},{"id":20005022,"name":"寶康路, 廣明苑外","lat":22.31310226522826,"long":114.26046809924479},{"id":20005023,"name":"靈康路, 靈實醫院對面","lat":22.314331649179383,"long":114.25806183990646},{"id":20001973,"name":"寶順路, 將軍澳游泳池外","lat":22.318258070846852,"long":114.26174264155195},{"id":20001171,"name":"寶寧路, 厚德邨對面","lat":22.319421826714233,"long":114.26398542298277},{"id":20001162,"name":"重華路, 東港城第6座對面","lat":22.317100007193098,"long":114.26575043737186},{"id":20001163,"name":"培成路, 南豐廣場外","lat":22.315376222953983,"long":114.26379850327483},{"id":20003054,"name":"寶寧路25號富寧商場外","lat":22.318742568255473,"long":114.26756648401933},{"id":20001161,"name":"坑口(北)公共運輸交匯處","lat":22.317910949818987,"long":114.26899270750854}],"routeId":2000993,"description":"正常班次"},{"company":"gmb","route":"108A","routeType":2,"orig":"坑口（北）","dest":"彩明公共運輸交匯處","stopList":[{"id":20001161,"name":"坑口(北)公共運輸交匯處","lat":22.317910949818987,"long":114.26899270750854},{"id":20001172,"name":"寶寧路, 將軍澳醫院對面","lat":22.317468528327797,"long":114.26885653546587},{"id":20001162,"name":"重華路, 東港城第6座對面","lat":22.317100007193098,"long":114.26575043737186},{"id":20001163,"name":"培成路, 南豐廣場外","lat":22.315376222953983,"long":114.26379850327483},{"id":20001164,"name":"寶寧路, 厚德邨外","lat":22.31916892337347,"long":114.26407261945711},{"id":20004514,"name":"唐明街, 尚德商場外","lat":22.310619733650157,"long":114.2587390673581},{"id":20003045,"name":"唐俊街, 佛教志蓮小學外","lat":22.31006617447768,"long":114.26051734142729},{"id":20002603,"name":"寶邑路, 港鐵將軍澳站對面","lat":22.307064267194676,"long":114.26037757682934},{"id":20003225,"name":"唐賢街, 將軍澳天主教小學外","lat":22.308711884844527,"long":114.2577839773003},{"id":20008083,"name":"景嶺路,彩明苑彩富閣","lat":22.308129168073503,"long":114.25320446491243},{"id":20003049,"name":"彩明街彩明商場","lat":22.306488470787084,"long":114.25301792289476},{"id":20003175,"name":"翠嶺路, 健明邨外","lat":22.30801993359066,"long":114.25005262572087},{"id":20003055,"name":"翠嶺路, 真道書院","lat":22.30636186263631,"long":114.2491188679182},{"id":20007074,"name":"翠嶺路, 善明邨","lat":22.303119728521157,"long":114.24944716390736},{"id":20003056,"name":"翠嶺路, 維景灣畔對面","lat":22.30358809442606,"long":114.25213565516631},{"id":20006977,"name":"彩明公共運輸交匯處","lat":22.30595428323382,"long":114.2517681324497}],"routeId":2000993,"description":"正常班次"}]