[{"company":"gmb","route":"108A","routeType":1,"orig":"彩明公共運輸交匯處","dest":"坑口（北）","stopList":[{"id":1,"name":"彩明公共運輸交匯處","lat":22.30595428323382,"long":22.30595428323382},{"id":2,"name":"彩明街彩明商場","lat":22.306488470787084,"long":22.306488470787084},{"id":3,"name":"翠嶺路, 維景灣畔","lat":22.303587999696422,"long":22.303587999696422},{"id":4,"name":"翠嶺路, 善明邨對面","lat":22.303020409230893,"long":22.303020409230893},{"id":5,"name":"翠嶺路, 匯知中學","lat":22.30535068500519,"long":22.30535068500519},{"id":6,"name":"翠嶺路, 佛教正覺中學","lat":22.307355176850976,"long":22.307355176850976},{"id":7,"name":"唐明街, 尚德商場外","lat":22.310619733650157,"long":22.310619733650157},{"id":8,"name":"唐俊街, 佛教志蓮小學外","lat":22.31050151929796,"long":22.31050151929796},{"id":9,"name":"唐德街, 博愛醫院八十週年鄧英喜中學對面","lat":22.30827185688473,"long":22.30827185688473},{"id":10,"name":"寶邑路, 港鐵將軍澳站外","lat":22.307223557294524,"long":22.307223557294524},{"id":11,"name":"寶邑路, 寶盈花園對面","lat":22.307998956431206,"long":22.307998956431206},{"id":12,"name":"寶康路, 富康花園外","lat":22.3102383028875,"long":22.3102383028875},{"id":13,"name":"寶康路, 廣明苑外","lat":22.31310226522826,"long":22.31310226522826},{"id":14,"name":"靈康路, 靈實醫院對面","lat":22.314331649179383,"long":22.314331649179383},{"id":15,"name":"寶順路, 將軍澳游泳池外","lat":22.318258070846852,"long":22.318258070846852},{"id":16,"name":"寶寧路, 厚德邨對面","lat":22.319421826714233,"long":22.319421826714233},{"id":17,"name":"重華路, 東港城第6座對面","lat":22.317100007193098,"long":22.317100007193098},{"id":18,"name":"培成路, 南豐廣場外","lat":22.315376222953983,"long":22.315376222953983},{"id":19,"name":"寶寧路25號富寧商場外","lat":22.318742568255473,"long":22.318742568255473},{"id":20,"name":"坑口(北)公共運輸交匯處","lat":22.317910949818987,"long":22.317910949818987}],"routeId":2000993,"description":"正常班次"},{"company":"gmb","route":"108A","routeType":2,"orig":"坑口（北）","dest":"彩明公共運輸交匯處","stopList":[{"id":1,"name":"坑口(北)公共運輸交匯處","lat":22.317910949818987,"long":22.317910949818987},{"id":2,"name":"寶寧路, 將軍澳醫院對面","lat":22.317468528327797,"long":22.317468528327797},{"id":3,"name":"重華路, 東港城第6座對面","lat":22.317100007193098,"long":22.317100007193098},{"id":4,"name":"培成路, 南豐廣場外","lat":22.315376222953983,"long":22.315376222953983},{"id":5,"name":"寶寧路, 厚德邨外","lat":22.31916892337347,"long":22.31916892337347},{"id":6,"name":"唐明街, 尚德商場外","lat":22.310619733650157,"long":22.310619733650157},{"id":7,"name":"唐俊街, 佛教志蓮小學外","lat":22.31006617447768,"long":22.31006617447768},{"id":8,"name":"寶邑路, 港鐵將軍澳站對面","lat":22.307064267194676,"long":22.307064267194676},{"id":9,"name":"唐賢街, 將軍澳天主教小學外","lat":22.308711884844527,"long":22.308711884844527},{"id":10,"name":"景嶺路,彩明苑彩富閣","lat":22.308129168073503,"long":22.308129168073503},{"id":11,"name":"彩明街彩明商場","lat":22.306488470787084,"long":22.306488470787084},{"id":12,"name":"翠嶺路, 健明邨外","lat":22.30801993359066,"long":22.30801993359066},{"id":13,"name":"翠嶺路, 真道書院","lat":22.30636186263631,"long":22.30636186263631},{"id":14,"name":"翠嶺路, 善明邨","lat":22.303119728521157,"long":22.303119728521157},{"id":15,"name":"翠嶺路, 維景灣畔對面","lat":22.30358809442606,"long":22.30358809442606},{"id":16,"name":"彩明公共運輸交匯處","lat":22.30595428323382,"long":22.30595428323382}],"routeId":2000993,"description":"正常班次"}]