[{"company":"kmb","route":"11","routeType":"1","dir":"O","orig":"鑽石山站","dest":"九龍站","stopList":[{"id":"6F817E994CAF7928","name":"鑽石山站巴士總站","lat":"22.340830","long":"114.201718"},{"id":"4B9D547F0F450784","name":"龍蟠苑","lat":"22.342920","long":"114.200382"},{"id":"7BDF3895E0BCE33B","name":"龍逸樓","lat":"22.338860","long":"114.195867"},{"id":"262578A9C404DCD6","name":"黃大仙總站","lat":"22.340796","long":"114.195088"},{"id":"FAA80B89ED720399","name":"新蒲崗衍慶街","lat":"22.335853","long":"114.194507"},{"id":"1C79BF0732EDBD9C","name":"宋皇臺公園","lat":"22.326298","long":"114.189878"},{"id":"225F00F550C301AE","name":"新山道","lat":"22.322068","long":"114.187728"},{"id":"3331EE733A2A3EBB","name":"馬坑涌道","lat":"22.319598","long":"114.187736"},{"id":"F5795A904B483F33","name":"土瓜灣上鄉道","lat":"22.318431","long":"114.187672"},{"id":"57DFE7792042405B","name":"浙江街遊樂場","lat":"22.314562","long":"114.187656"},{"id":"7CC8FC8889FF1596","name":"新柳街","lat":"22.312282","long":"114.186412"},{"id":"DF4F6B54816F5172","name":"紅磡平治街","lat":"22.309524","long":"114.184594"},{"id":"5CCBD9A6B58BF20D","name":"九龍佑寧堂","lat":"22.305649","long":"114.172574"},{"id":"2F165341B07CBDB9","name":"佐敦吳松街","lat":"22.305229","long":"114.169912"},{"id":"FD1B403FD4EC3E8D","name":"佐敦炮台街","lat":"22.305617","long":"114.168054"},{"id":"FB9FA7AAA17E9E9D","name":"雅翔道(西區海底隧道) (D1)","lat":"22.304410","long":"114.160239"},{"id":"593DE4298B444E66","name":"九龍站巴士總站","lat":"22.305079","long":"114.162604"}],"routeId":"11","description":"正常班次"},{"company":"kmb","route":"11","routeType":"1","dir":"I","orig":"九龍站","dest":"鑽石山站","stopList":[{"id":"593DE4298B444E66","name":"九龍站巴士總站","lat":"22.305079","long":"114.162604"},{"id":"31072508CEF942C6","name":"雅翔道(環球貿易廣場) (C1)","lat":"22.303565","long":"114.159802"},{"id":"ABA951678F8CD6FB","name":"佐敦上海街","lat":"22.305680","long":"114.168789"},{"id":"8864CF7D3E4B1EF6","name":"佐敦志和街","lat":"22.305886","long":"114.172499"},{"id":"3CB94742E4B5E3E5","name":"衛理道","lat":"22.306781","long":"114.175981"},{"id":"33033960343A57A8","name":"紅磡山谷道","lat":"22.309321","long":"114.183816"},{"id":"E37FF663075361FE","name":"紅磡北拱街","lat":"22.312219","long":"114.186087"},{"id":"4850531F57582BD9","name":"土瓜灣落山道","lat":"22.317025","long":"114.187465"},{"id":"1C02C4A92902FE95","name":"上鄉道","lat":"22.319280","long":"114.187420"},{"id":"9C1D2401E1E06544","name":"新山道","lat":"22.321714","long":"114.187444"},{"id":"3FB80081AB2FF6FB","name":"亞皆老街球場","lat":"22.326257","long":"114.189390"},{"id":"6AEFD1C261E8E4D8","name":"富豪東方酒店","lat":"22.328601","long":"114.191962"},{"id":"661FEE32A0D73EB0","name":"王仲銘中學","lat":"22.333958","long":"114.194661"},{"id":"8815F901477E6435","name":"大成街","lat":"22.337983","long":"114.193131"},{"id":"20915DF05723C615","name":"龍慧樓","lat":"22.340024","long":"114.194140"},{"id":"6C15579CA43DF72E","name":"黃大仙總站 (落客站)","lat":"22.341022","long":"114.194867"},{"id":"9FB606D162511C77","name":"黃大仙總站","lat":"22.340841","long":"114.195295"},{"id":"F0AC02C6C94078C4","name":"黃大仙警署","lat":"22.339447","long":"114.197681"},{"id":"A0FDF34B2D278750","name":"鳳德商場","lat":"22.343311","long":"114.199551"},{"id":"6F817E994CAF7928","name":"鑽石山站巴士總站","lat":"22.340830","long":"114.201718"}],"routeId":"11","description":"正常班次"},{"company":"ctb","route":"11","routeType":null,"dir":"I","orig":"渣甸山","dest":"中環碼頭","stopList":[{"id":"002511","name":"柏園, 大坑徑","lat":"22.273616632091","long":"114.19302436053"},{"id":"002407","name":"慧景園, 春暉道","lat":"22.273448522091","long":"114.19415009053"},{"id":"002461","name":"金雲閣, 睦誠道","lat":"22.272588872091","long":"114.19382832053"},{"id":"002462","name":"渣甸山花園, 睦誠道","lat":"22.270875502091","long":"114.19427738053"},{"id":"002463","name":"睦誠徑, 睦誠道","lat":"22.269801292091","long":"114.19499126053"},{"id":"002464","name":"盛苑, 睦誠道","lat":"22.269408612091","long":"114.19440083053"},{"id":"002471","name":"畢拉山徑, 畢拉山道","lat":"22.267172122091","long":"114.19351046053"},{"id":"002472","name":"渣甸園, 畢拉山道","lat":"22.266296052091","long":"114.19233783053"},{"id":"002473","name":"渣甸臺, 畢拉山道","lat":"22.265236972091","long":"114.19072879053"},{"id":"002525","name":"畢拉山道, 大坑道","lat":"22.266390032091","long":"114.19046582053"},{"id":"002526","name":"渣甸山花園大廈, 大坑道","lat":"22.268757812091","long":"114.18991393053"},{"id":"002527","name":"白建時道, 大坑道","lat":"22.271106362091","long":"114.19148188053"},{"id":"002528","name":"瑞士花園, 大坑道","lat":"22.272945472091","long":"114.19187613053"},{"id":"002529","name":"龍風臺, 大坑道","lat":"22.274782692091","long":"114.19197716053"},{"id":"002530","name":"大寶閣, 大坑道","lat":"22.276889492091","long":"114.19149485053"},{"id":"002531","name":"優悠台, 大坑道","lat":"22.275810472091","long":"114.19323932053"},{"id":"002532","name":"香港真光中學, 大坑道","lat":"22.276324832091","long":"114.19520168053"},{"id":"002533","name":"利群道, 大坑道","lat":"22.276757522091","long":"114.19422681053"},{"id":"002534","name":"豪園, 大坑道","lat":"22.277982862091","long":"114.19076599053"},{"id":"002465","name":"香港中央圖書館, 摩頓台","lat":"22.279536862091","long":"114.18897018053"},{"id":"002439","name":"希慎廣場, 軒尼詩道","lat":"22.279999772091","long":"114.18335916053"},{"id":"002440","name":"堅拿道東, 軒尼詩道","lat":"22.279528242091","long":"114.18192401053"},{"id":"002442","name":"北海中心, 軒尼詩道","lat":"22.278327962091","long":"114.17845458053"},{"id":"002446","name":"修頓球場, 軒尼詩道","lat":"22.277433042091","long":"114.17187855053"},{"id":"002449","name":"晏頓街, 軒尼詩道","lat":"22.277666072091","long":"114.16883945053"},{"id":"001141","name":"高等法院, 金鐘道","lat":"22.278413762091","long":"114.16387262053"},{"id":"001142","name":"中銀大廈, 金鐘道","lat":"22.279480102091","long":"114.16214434053"},{"id":"001106","name":"畢打街","lat":"22.281823852091","long":"114.15738082053"},{"id":"001143","name":"國際金融中心二期, 民耀街","lat":"22.284964992091","long":"114.15981958053"},{"id":"001145","name":"中環碼頭","lat":"22.286269622091","long":"114.15989890053"}],"routeId":"11","description":"正常班次"},{"company":"ctb","route":"11","routeType":null,"dir":"O","orig":"中環碼頭","dest":"渣甸山","stopList":[{"id":"001145","name":"中環碼頭","lat":"22.286269622091","long":"114.15989890053"},{"id":"001032","name":"中環 (交易廣場)","lat":"22.283695952091","long":"114.15803274053"},{"id":"001181","name":"域多利皇后街, 干諾道中","lat":"22.284417192091","long":"114.15666707053"},{"id":"001050","name":"歷山大廈, 德輔道中","lat":"22.281459032091","long":"114.15830013053"},{"id":"001052","name":"遮打花園, 德輔道中","lat":"22.280108962091","long":"114.16064635053"},{"id":"001136","name":"金鐘站, 金鐘道","lat":"22.278493752091","long":"114.16445856053"},{"id":"002430","name":"盧押道, 軒尼詩道","lat":"22.277681222091","long":"114.17099800053"},{"id":"002434","name":"史釗域道, 軒尼詩道","lat":"22.278009642091","long":"114.17617122053"},{"id":"002435","name":"杜老誌道, 軒尼詩道","lat":"22.278720922091","long":"114.17909682053"},{"id":"002437","name":"灣仔消防局, 軒尼詩道","lat":"22.279686862091","long":"114.18178779053"},{"id":"002574","name":"百德新街, 怡和街","lat":"22.279778702091","long":"114.18607065053"},{"id":"002535","name":"聖保祿醫院, 銅鑼灣道","lat":"22.278919992091","long":"114.18806171053"},{"id":"002512","name":"豪園, 大坑道","lat":"22.278402192091","long":"114.19034583053"},{"id":"002513","name":"光明臺, 大坑道","lat":"22.277046402091","long":"114.19359621053"},{"id":"002514","name":"上林, 大坑道","lat":"22.276095132091","long":"114.19534532053"},{"id":"002515","name":"昍逵閣, 大坑道","lat":"22.275631802091","long":"114.19332040053"},{"id":"002516","name":"宏豐台, 大坑道","lat":"22.275680462091","long":"114.19176128053"},{"id":"002517","name":"龍風臺, 大坑道","lat":"22.274386982091","long":"114.19244035053"},{"id":"002511","name":"柏園, 大坑徑","lat":"22.273616632091","long":"114.19302436053"},{"id":"002407","name":"慧景園, 春暉道","lat":"22.273448522091","long":"114.19415009053"},{"id":"002461","name":"金雲閣, 睦誠道","lat":"22.272588872091","long":"114.19382832053"},{"id":"002462","name":"渣甸山花園, 睦誠道","lat":"22.270875502091","long":"114.19427738053"},{"id":"002463","name":"睦誠徑, 睦誠道","lat":"22.269801292091","long":"114.19499126053"},{"id":"002464","name":"盛苑, 睦誠道","lat":"22.269408612091","long":"114.19440083053"},{"id":"002471","name":"畢拉山徑, 畢拉山道","lat":"22.267172122091","long":"114.19351046053"},{"id":"002472","name":"渣甸園, 畢拉山道","lat":"22.266296052091","long":"114.19233783053"},{"id":"002473","name":"渣甸臺, 畢拉山道","lat":"22.265236972091","long":"114.19072879053"},{"id":"002525","name":"畢拉山道, 大坑道","lat":"22.266390032091","long":"114.19046582053"},{"id":"002526","name":"渣甸山花園大廈, 大坑道","lat":"22.268757812091","long":"114.18991393053"},{"id":"002527","name":"白建時道, 大坑道","lat":"22.271106362091","long":"114.19148188053"},{"id":"002528","name":"瑞士花園, 大坑道","lat":"22.272945472091","long":"114.19187613053"}],"routeId":"11","description":"正常班次"},{"company":"nlb","route":"11","routeType":null,"dir":null,"orig":"大澳 (水口開)","dest":"東涌站巴士總站","stopList":[{"id":"240","name":"水口村(東)","lat":"22.22184100","long":"113.91576300","street":"嶼南道","fare":"6.5","fareHoliday":"12.9"},{"id":"241","name":"下橫壟","lat":"22.22205000","long":"113.91923400","street":"嶼南道","fare":"6.5","fareHoliday":"12.9"},{"id":"242","name":"上橫壟","lat":"22.22435800","long":"113.92107700","street":"嶼南道","fare":"6.5","fareHoliday":"12.9"},{"id":"243","name":"南大嶼山海底電纜站","lat":"22.22588300","long":"113.92718000","street":"嶼南道","fare":"6.5","fareHoliday":"12.9"},{"id":"244","name":"麻埔坪道口","lat":"22.22658300","long":"113.93007700","street":"嶼南道","fare":"6.5","fareHoliday":"12.9"},{"id":"245","name":"塘福村","lat":"22.22776300","long":"113.93239700","street":"嶼南道","fare":"6.5","fareHoliday":"12.9"},{"id":"246","name":"塘福海灘","lat":"22.22894100","long":"113.93594400","street":"嶼南道","fare":"6.5","fareHoliday":"12.9"},{"id":"247","name":"上長沙海灘","lat":"22.23132900","long":"113.94176600","street":"嶼南道","fare":"6.5","fareHoliday":"12.9"},{"id":"248","name":"長沙大橋","lat":"22.23397900","long":"113.94736600","street":"嶼南道","fare":"6.5","fareHoliday":"12.9"},{"id":"249","name":"蝶崗","lat":"22.23506200","long":"113.94929800","street":"嶼南道","fare":"6.5","fareHoliday":"12.9"},{"id":"250","name":"麗濱別墅","lat":"22.23647200","long":"113.95142400","street":"嶼南道","fare":"6.5","fareHoliday":"12.9"},{"id":"251","name":"長沙消防局","lat":"22.23680300","long":"113.95543400","street":"嶼南道","fare":"6.5","fareHoliday":"12.9"},{"id":"252","name":"長沙下村","lat":"22.23496500","long":"113.95717000","street":"嶼南道","fare":"6.5","fareHoliday":"12.9"},{"id":"253","name":"長沙警署","lat":"22.23396400","long":"113.96017400","street":"嶼南道","fare":"6.5","fareHoliday":"12.9"},{"id":"254","name":"長沙上村","lat":"22.23533000","long":"113.96154700","street":"嶼南道","fare":"6.5","fareHoliday":"12.9"},{"id":"255","name":"散石灣迴旋處","lat":"22.23672700","long":"113.96242400","street":"嶼南道","fare":"6.5","fareHoliday":"12.9"},{"id":"179","name":"東涌道","lat":"22.23791800","long":"113.96292000","street":"嶼南道","fare":"6.5","fareHoliday":"12.9"},{"id":"64","name":"長沙引水道","lat":"22.23981400","long":"113.95721600","street":"東涌道","fare":"6.5","fareHoliday":"12.9"},{"id":"65","name":"伯公坳","lat":"22.24805400","long":"113.94313900","street":"東涌道","fare":"6.5","fareHoliday":"12.9"},{"id":"66","name":"東涌坳管理站","lat":"22.26400600","long":"113.93715500","street":"東涌道","fare":"6.5","fareHoliday":"12.9"},{"id":"67","name":"十八區墳場","lat":"22.26546600","long":"113.93646300","street":"東涌道","fare":"6.5","fareHoliday":"12.9"},{"id":"68","name":"石門甲道","lat":"22.26991800","long":"113.93424300","street":"東涌道","fare":"2.6","fareHoliday":"5.1"},{"id":"69","name":"龍井頭","lat":"22.27597500","long":"113.93337700","street":"東涌道","fare":"2.6","fareHoliday":"5.1"},{"id":"70","name":"黃家圍","lat":"22.27716200","long":"113.93381200","street":"東涌道","fare":"2.6","fareHoliday":"5.1"},{"id":"71","name":"下嶺皮","lat":"22.27873100","long":"113.93547500","street":"東涌道","fare":"2.6","fareHoliday":"5.1"},{"id":"72","name":"上嶺皮","lat":"22.27891200","long":"113.93685600","street":"東涌道","fare":"2.6","fareHoliday":"5.1"},{"id":"73","name":"東涌鄉事委員會","lat":"22.27913800","long":"113.93929900","street":"東涌道","fare":"2.6","fareHoliday":"5.1"},{"id":"74","name":"馬灣新村","lat":"22.27986500","long":"113.94024300","street":"松仁路","fare":"2.6","fareHoliday":"5.1"},{"id":"77","name":"東涌消防局","lat":"22.28603000","long":"113.94105700","street":"順東路","fare":"2.6","fareHoliday":"5.1"},{"id":"78","name":"東涌纜車站","lat":"22.28930100","long":"113.93873300","street":"達東路","fare":"2.6","fareHoliday":"5.1"},{"id":"79","name":"東涌站巴士總站","lat":"22.28986200","long":"113.93961600","street":"達東路","fare":"0.0","fareHoliday":"0.0"}],"routeId":"18","description":"正常班次"},{"company":"nlb","route":"11","routeType":null,"dir":null,"orig":"大澳","dest":"東涌站巴士總站","stopList":[{"id":"221","name":"大澳","lat":"22.25278300","long":"113.86216000","street":"大澳道","fare":"12.8","fareHoliday":"21.1"},{"id":"222","name":"龍田邨","lat":"22.25252100","long":"113.86500500","street":"大澳道","fare":"12.8","fareHoliday":"21.1"},{"id":"224","name":"坑尾","lat":"22.25083200","long":"113.86930600","street":"大澳道","fare":"12.8","fareHoliday":"21.1"},{"id":"225","name":"靈隱寺","lat":"22.24428700","long":"113.87510700","street":"大澳道","fare":"12.8","fareHoliday":"21.1"},{"id":"226","name":"新鳳村","lat":"22.24390000","long":"113.87700600","street":"大澳道","fare":"12.8","fareHoliday":"21.1"},{"id":"227","name":"羌山管理站","lat":"22.24218200","long":"113.87905100","street":"大澳道","fare":"12.8","fareHoliday":"21.1"},{"id":"228","name":"龍仔","lat":"22.24137000","long":"113.88139200","street":"大澳道","fare":"12.8","fareHoliday":"21.1"},{"id":"229","name":"成輝果園","lat":"22.24400100","long":"113.88399500","street":"姜山道","fare":"11.6","fareHoliday":"19.2"},{"id":"230","name":"三緣精舍","lat":"22.24671100","long":"113.88596800","street":"姜山道","fare":"11.6","fareHoliday":"19.2"},{"id":"232","name":"法華苑","lat":"22.24622100","long":"113.88887200","street":"姜山道","fare":"11.6","fareHoliday":"19.2"},{"id":"233","name":"深屈道","lat":"22.24459200","long":"113.89187900","street":"深屈道","fare":"11.6","fareHoliday":"19.2"},{"id":"234","name":"石壁坳引水道通道","lat":"22.23917900","long":"113.89397500","street":"姜山道","fare":"9.2","fareHoliday":"15.9"},{"id":"235","name":"沙咀","lat":"22.22850300","long":"113.89110500","street":"姜山道","fare":"9.2","fareHoliday":"15.9"},{"id":"40","name":"沙咀懲教所","lat":"22.22496900","long":"113.89348700","street":"石壁水塘道","fare":"9.2","fareHoliday":"15.9"},{"id":"236","name":"石壁警崗","lat":"22.22611900","long":"113.89813400","street":"嶼南道","fare":"9.2","fareHoliday":"15.9"},{"id":"237","name":"水口直升機場","lat":"22.22370300","long":"113.90832500","street":"嶼南道","fare":"6.5","fareHoliday":"12.9"},{"id":"238","name":"四眼馬","lat":"22.22205400","long":"113.91063200","street":"嶼南道","fare":"6.5","fareHoliday":"12.9"},{"id":"239","name":"水口村","lat":"22.22110100","long":"113.91417300","street":"嶼南道","fare":"6.5","fareHoliday":"12.9"},{"id":"240","name":"水口村(東)","lat":"22.22184100","long":"113.91576300","street":"嶼南道","fare":"6.5","fareHoliday":"12.9"},{"id":"241","name":"下橫壟","lat":"22.22205000","long":"113.91923400","street":"嶼南道","fare":"6.5","fareHoliday":"12.9"},{"id":"242","name":"上橫壟","lat":"22.22435800","long":"113.92107700","street":"嶼南道","fare":"6.5","fareHoliday":"12.9"},{"id":"243","name":"南大嶼山海底電纜站","lat":"22.22588300","long":"113.92718000","street":"嶼南道","fare":"6.5","fareHoliday":"12.9"},{"id":"32","name":"塘福懲教所","lat":"22.22876400","long":"113.92608400","street":"嶼南道","fare":"6.5","fareHoliday":"12.9"},{"id":"30","name":"麻埔坪村","lat":"22.22992600","long":"113.92805000","street":"麻埔坪道","fare":"6.5","fareHoliday":"12.9"},{"id":"244","name":"麻埔坪道口","lat":"22.22658300","long":"113.93007700","street":"嶼南道","fare":"6.5","fareHoliday":"12.9"},{"id":"245","name":"塘福村","lat":"22.22776300","long":"113.93239700","street":"嶼南道","fare":"6.5","fareHoliday":"12.9"},{"id":"246","name":"塘福海灘","lat":"22.22894100","long":"113.93594400","street":"嶼南道","fare":"6.5","fareHoliday":"12.9"},{"id":"247","name":"上長沙海灘","lat":"22.23132900","long":"113.94176600","street":"嶼南道","fare":"6.5","fareHoliday":"12.9"},{"id":"248","name":"長沙大橋","lat":"22.23397900","long":"113.94736600","street":"嶼南道","fare":"6.5","fareHoliday":"12.9"},{"id":"249","name":"蝶崗","lat":"22.23506200","long":"113.94929800","street":"嶼南道","fare":"6.5","fareHoliday":"12.9"},{"id":"250","name":"麗濱別墅","lat":"22.23647200","long":"113.95142400","street":"嶼南道","fare":"6.5","fareHoliday":"12.9"},{"id":"251","name":"長沙消防局","lat":"22.23680300","long":"113.95543400","street":"嶼南道","fare":"6.5","fareHoliday":"12.9"},{"id":"252","name":"長沙下村","lat":"22.23496500","long":"113.95717000","street":"嶼南道","fare":"6.5","fareHoliday":"12.9"},{"id":"253","name":"長沙警署","lat":"22.23396400","long":"113.96017400","street":"嶼南道","fare":"6.5","fareHoliday":"12.9"},{"id":"254","name":"長沙上村","lat":"22.23533000","long":"113.96154700","street":"嶼南道","fare":"6.5","fareHoliday":"12.9"},{"id":"255","name":"散石灣迴旋處","lat":"22.23672700","long":"113.96242400","street":"嶼南道","fare":"6.5","fareHoliday":"12.9"},{"id":"179","name":"東涌道","lat":"22.23791800","long":"113.96292000","street":"嶼南道","fare":"6.5","fareHoliday":"12.9"},{"id":"64","name":"長沙引水道","lat":"22.23981400","long":"113.95721600","street":"東涌道","fare":"6.5","fareHoliday":"12.9"},{"id":"65","name":"伯公坳","lat":"22.24805400","long":"113.94313900","street":"東涌道","fare":"6.5","fareHoliday":"12.9"},{"id":"66","name":"東涌坳管理站","lat":"22.26400600","long":"113.93715500","street":"東涌道","fare":"6.5","fareHoliday":"12.9"},{"id":"67","name":"十八區墳場","lat":"22.26546600","long":"113.93646300","street":"東涌道","fare":"6.5","fareHoliday":"12.9"},{"id":"68","name":"石門甲道","lat":"22.26991800","long":"113.93424300","street":"東涌道","fare":"2.6","fareHoliday":"5.1"},{"id":"69","name":"龍井頭","lat":"22.27597500","long":"113.93337700","street":"東涌道","fare":"2.6","fareHoliday":"5.1"},{"id":"70","name":"黃家圍","lat":"22.27716200","long":"113.93381200","street":"東涌道","fare":"2.6","fareHoliday":"5.1"},{"id":"71","name":"下嶺皮","lat":"22.27873100","long":"113.93547500","street":"東涌道","fare":"2.6","fareHoliday":"5.1"},{"id":"72","name":"上嶺皮","lat":"22.27891200","long":"113.93685600","street":"東涌道","fare":"2.6","fareHoliday":"5.1"},{"id":"73","name":"東涌鄉事委員會","lat":"22.27913800","long":"113.93929900","street":"東涌道","fare":"2.6","fareHoliday":"5.1"},{"id":"74","name":"馬灣新村","lat":"22.27986500","long":"113.94024300","street":"松仁路","fare":"2.6","fareHoliday":"5.1"},{"id":"185","name":"北大嶼山醫院(北行), 逸東邨美逸樓","lat":"22.28129500","long":"113.93882200","street":"松仁路","fare":"2.6","fareHoliday":"5.1"},{"id":"76","name":"北大嶼山醫院(南行)","lat":"22.28186100","long":"113.93880300","street":"松仁路","fare":"2.6","fareHoliday":"5.1"},{"id":"77","name":"東涌消防局","lat":"22.28603000","long":"113.94105700","street":"順東路","fare":"2.6","fareHoliday":"5.1"},{"id":"78","name":"東涌纜車站","lat":"22.28930100","long":"113.93873300","street":"達東路","fare":"2.6","fareHoliday":"5.1"},{"id":"79","name":"東涌站巴士總站","lat":"22.28986200","long":"113.93961600","street":"達東路","fare":"0.0","fareHoliday":"0.0"}],"routeId":"14","description":"正常班次"},{"company":"nlb","route":"11","routeType":null,"dir":null,"orig":"東涌站巴士總站","dest":"大澳","stopList":[{"id":"278","name":"東涌站巴士總站","lat":"22.28986200","long":"113.93961600","street":"達東路","fare":"12.8","fareHoliday":"21.1"},{"id":"80","name":"富東廣場","lat":"22.28887000","long":"113.94210500","street":"達東路","fare":"12.8","fareHoliday":"21.1"},{"id":"81","name":"裕東苑","lat":"22.28607700","long":"113.94160300","street":"順東路","fare":"12.8","fareHoliday":"21.1"},{"id":"185","name":"北大嶼山醫院(北行), 逸東邨美逸樓","lat":"22.28129500","long":"113.93882200","street":"松仁路","fare":"12.8","fareHoliday":"21.1"},{"id":"76","name":"北大嶼山醫院(南行)","lat":"22.28186100","long":"113.93880300","street":"松仁路","fare":"12.8","fareHoliday":"21.1"},{"id":"94","name":"東涌鄉事委員會","lat":"22.27893600","long":"113.93879500","street":"東涌道","fare":"12.8","fareHoliday":"21.1"},{"id":"279","name":"上嶺皮","lat":"22.27879200","long":"113.93714800","street":"東涌道","fare":"12.8","fareHoliday":"21.1"},{"id":"280","name":"下嶺皮","lat":"22.27851200","long":"113.93542300","street":"東涌道","fare":"12.8","fareHoliday":"21.1"},{"id":"282","name":"黃家圍","lat":"22.27703800","long":"113.93397500","street":"東涌道","fare":"12.8","fareHoliday":"21.1"},{"id":"283","name":"龍井頭","lat":"22.27570700","long":"113.93370700","street":"東涌道","fare":"12.8","fareHoliday":"21.1"},{"id":"284","name":"石門甲道","lat":"22.27047000","long":"113.93446500","street":"東涌道","fare":"12.8","fareHoliday":"21.1"},{"id":"286","name":"十八區墳場","lat":"22.26567800","long":"113.93674000","street":"東涌道","fare":"12.8","fareHoliday":"21.1"},{"id":"287","name":"東涌坳管理站","lat":"22.26410400","long":"113.93755200","street":"東涌道","fare":"12.8","fareHoliday":"21.1"},{"id":"288","name":"伯公坳","lat":"22.24893900","long":"113.94259700","street":"東涌道","fare":"12.8","fareHoliday":"21.1"},{"id":"273","name":"長沙引水道","lat":"22.24000700","long":"113.95733900","street":"東涌道","fare":"12.8","fareHoliday":"21.1"},{"id":"83","name":"散石灣迴旋處","lat":"22.23654400","long":"113.96255000","street":"嶼南道","fare":"12.8","fareHoliday":"21.1"},{"id":"19","name":"長沙上村","lat":"22.23523800","long":"113.96173900","street":"嶼南道","fare":"9.2","fareHoliday":"15.9"},{"id":"20","name":"長沙警署","lat":"22.23377200","long":"113.96021100","street":"嶼南道","fare":"9.2","fareHoliday":"15.9"},{"id":"21","name":"長沙下村","lat":"22.23478700","long":"113.95723200","street":"嶼南道","fare":"9.2","fareHoliday":"15.9"},{"id":"22","name":"長沙消防局","lat":"22.23663200","long":"113.95434900","street":"嶼南道","fare":"9.2","fareHoliday":"15.9"},{"id":"23","name":"麗濱別墅","lat":"22.23621700","long":"113.95191600","street":"嶼南道","fare":"9.2","fareHoliday":"15.9"},{"id":"24","name":"蝶崗","lat":"22.23454000","long":"113.94884100","street":"嶼南道","fare":"9.2","fareHoliday":"15.9"},{"id":"25","name":"長沙大橋","lat":"22.23338900","long":"113.94697700","street":"嶼南道","fare":"9.2","fareHoliday":"15.9"},{"id":"26","name":"上長沙海灘","lat":"22.23087700","long":"113.94152500","street":"嶼南道","fare":"9.2","fareHoliday":"15.9"},{"id":"27","name":"塘福海灘","lat":"22.22850900","long":"113.93533900","street":"嶼南道","fare":"6.5","fareHoliday":"12.9"},{"id":"28","name":"塘福村","lat":"22.22756500","long":"113.93270600","street":"嶼南道","fare":"6.5","fareHoliday":"12.9"},{"id":"32","name":"塘福懲教所","lat":"22.22876400","long":"113.92608400","street":"嶼南道","fare":"6.5","fareHoliday":"12.9"},{"id":"30","name":"麻埔坪村","lat":"22.22992600","long":"113.92805000","street":"麻埔坪道","fare":"6.5","fareHoliday":"12.9"},{"id":"31","name":"麻埔坪道口","lat":"22.22601800","long":"113.92949500","street":"嶼南道","fare":"6.5","fareHoliday":"12.9"},{"id":"178","name":"南大嶼山海底電纜站","lat":"22.22527200","long":"113.92866100","street":"嶼南道","fare":"6.5","fareHoliday":"12.9"},{"id":"33","name":"上橫壟","lat":"22.22334800","long":"113.92062400","street":"嶼南道","fare":"6.5","fareHoliday":"12.9"},{"id":"34","name":"下橫壟","lat":"22.22230500","long":"113.91974100","street":"嶼南道","fare":"6.5","fareHoliday":"12.9"},{"id":"35","name":"水口村(東)","lat":"22.22156500","long":"113.91605900","street":"嶼南道","fare":"6.5","fareHoliday":"12.9"},{"id":"36","name":"水口村","lat":"22.22098931","long":"113.91431800","street":"嶼南道","fare":"6.5","fareHoliday":"12.9"},{"id":"37","name":"四眼馬","lat":"22.22191300","long":"113.91037000","street":"嶼南道","fare":"6.5","fareHoliday":"12.9"},{"id":"38","name":"水口直升機場","lat":"22.22353200","long":"113.90806300","street":"嶼南道","fare":"6.5","fareHoliday":"12.9"},{"id":"39","name":"石壁警崗","lat":"22.22586200","long":"113.89772000","street":"嶼南道","fare":"4.8","fareHoliday":"7.1"},{"id":"40","name":"沙咀懲教所","lat":"22.22496900","long":"113.89348700","street":"石壁水塘道","fare":"4.8","fareHoliday":"7.1"},{"id":"41","name":"沙咀","lat":"22.22832800","long":"113.89060000","street":"姜山道","fare":"4.8","fareHoliday":"7.1"},{"id":"42","name":"石壁坳引水道通道","lat":"22.23945100","long":"113.89369700","street":"姜山道","fare":"4.8","fareHoliday":"7.1"},{"id":"58","name":"深屈道","lat":"22.24505400","long":"113.89119300","street":"深屈道","fare":"2.6","fareHoliday":"5.1"},{"id":"44","name":"法華苑","lat":"22.24612200","long":"113.88904200","street":"姜山道","fare":"2.6","fareHoliday":"5.1"},{"id":"45","name":"三緣精舍","lat":"22.24643500","long":"113.88624200","street":"姜山道","fare":"2.6","fareHoliday":"5.1"},{"id":"46","name":"成輝果園","lat":"22.24382000","long":"113.88420900","street":"姜山道","fare":"2.6","fareHoliday":"5.1"},{"id":"47","name":"觀音寺","lat":"22.24225600","long":"113.88299100","street":"姜山道","fare":"2.6","fareHoliday":"5.1"},{"id":"48","name":"龍仔","lat":"22.24081600","long":"113.88102200","street":"大澳道","fare":"2.6","fareHoliday":"5.1"},{"id":"49","name":"羌山管理站","lat":"22.24203200","long":"113.87882300","street":"大澳道","fare":"2.6","fareHoliday":"5.1"},{"id":"84","name":"新鳳村","lat":"22.24357100","long":"113.87697200","street":"大澳道","fare":"2.6","fareHoliday":"5.1"},{"id":"51","name":"靈隱寺","lat":"22.24401800","long":"113.87500900","street":"大澳道","fare":"2.6","fareHoliday":"5.1"},{"id":"52","name":"坑尾","lat":"22.25065600","long":"113.86906200","street":"大澳道","fare":"2.6","fareHoliday":"5.1"},{"id":"53","name":"佛教筏可紀念中學","lat":"22.25203300","long":"113.86698800","street":"大澳道","fare":"2.6","fareHoliday":"5.1"},{"id":"54","name":"龍田邨","lat":"22.25232600","long":"113.86497600","street":"大澳道","fare":"2.6","fareHoliday":"5.1"},{"id":"55","name":"大澳","lat":"22.25278300","long":"113.86216000","street":"大澳道","fare":"0.0","fareHoliday":"0.0"}],"routeId":"13","description":"正常班次"},{"company":"nlb","route":"11","routeType":null,"dir":null,"orig":"大澳 (沙咀開)","dest":"東涌站巴士總站","stopList":[{"id":"40","name":"沙咀懲教所","lat":"22.22496900","long":"113.89348700","street":"石壁水塘道","fare":"9.2","fareHoliday":"15.9"},{"id":"236","name":"石壁警崗","lat":"22.22611900","long":"113.89813400","street":"嶼南道","fare":"9.2","fareHoliday":"15.9"},{"id":"237","name":"水口直升機場","lat":"22.22370300","long":"113.90832500","street":"嶼南道","fare":"6.5","fareHoliday":"12.9"},{"id":"238","name":"四眼馬","lat":"22.22205400","long":"113.91063200","street":"嶼南道","fare":"6.5","fareHoliday":"12.9"},{"id":"239","name":"水口村","lat":"22.22110100","long":"113.91417300","street":"嶼南道","fare":"6.5","fareHoliday":"12.9"},{"id":"240","name":"水口村(東)","lat":"22.22184100","long":"113.91576300","street":"嶼南道","fare":"6.5","fareHoliday":"12.9"},{"id":"241","name":"下橫壟","lat":"22.22205000","long":"113.91923400","street":"嶼南道","fare":"6.5","fareHoliday":"12.9"},{"id":"242","name":"上橫壟","lat":"22.22435800","long":"113.92107700","street":"嶼南道","fare":"6.5","fareHoliday":"12.9"},{"id":"243","name":"南大嶼山海底電纜站","lat":"22.22588300","long":"113.92718000","street":"嶼南道","fare":"6.5","fareHoliday":"12.9"},{"id":"32","name":"塘福懲教所","lat":"22.22876400","long":"113.92608400","street":"嶼南道","fare":"6.5","fareHoliday":"12.9"},{"id":"30","name":"麻埔坪村","lat":"22.22992600","long":"113.92805000","street":"麻埔坪道","fare":"6.5","fareHoliday":"12.9"},{"id":"244","name":"麻埔坪道口","lat":"22.22658300","long":"113.93007700","street":"嶼南道","fare":"6.5","fareHoliday":"12.9"},{"id":"245","name":"塘福村","lat":"22.22776300","long":"113.93239700","street":"嶼南道","fare":"6.5","fareHoliday":"12.9"},{"id":"246","name":"塘福海灘","lat":"22.22894100","long":"113.93594400","street":"嶼南道","fare":"6.5","fareHoliday":"12.9"},{"id":"247","name":"上長沙海灘","lat":"22.23132900","long":"113.94176600","street":"嶼南道","fare":"6.5","fareHoliday":"12.9"},{"id":"248","name":"長沙大橋","lat":"22.23397900","long":"113.94736600","street":"嶼南道","fare":"6.5","fareHoliday":"12.9"},{"id":"249","name":"蝶崗","lat":"22.23506200","long":"113.94929800","street":"嶼南道","fare":"6.5","fareHoliday":"12.9"},{"id":"250","name":"麗濱別墅","lat":"22.23647200","long":"113.95142400","street":"嶼南道","fare":"6.5","fareHoliday":"12.9"},{"id":"251","name":"長沙消防局","lat":"22.23680300","long":"113.95543400","street":"嶼南道","fare":"6.5","fareHoliday":"12.9"},{"id":"252","name":"長沙下村","lat":"22.23496500","long":"113.95717000","street":"嶼南道","fare":"6.5","fareHoliday":"12.9"},{"id":"253","name":"長沙警署","lat":"22.23396400","long":"113.96017400","street":"嶼南道","fare":"6.5","fareHoliday":"12.9"},{"id":"254","name":"長沙上村","lat":"22.23533000","long":"113.96154700","street":"嶼南道","fare":"6.5","fareHoliday":"12.9"},{"id":"255","name":"散石灣迴旋處","lat":"22.23672700","long":"113.96242400","street":"嶼南道","fare":"6.5","fareHoliday":"12.9"},{"id":"179","name":"東涌道","lat":"22.23791800","long":"113.96292000","street":"嶼南道","fare":"6.5","fareHoliday":"12.9"},{"id":"64","name":"長沙引水道","lat":"22.23981400","long":"113.95721600","street":"東涌道","fare":"6.5","fareHoliday":"12.9"},{"id":"65","name":"伯公坳","lat":"22.24805400","long":"113.94313900","street":"東涌道","fare":"6.5","fareHoliday":"12.9"},{"id":"66","name":"東涌坳管理站","lat":"22.26400600","long":"113.93715500","street":"東涌道","fare":"6.5","fareHoliday":"12.9"},{"id":"67","name":"十八區墳場","lat":"22.26546600","long":"113.93646300","street":"東涌道","fare":"6.5","fareHoliday":"12.9"},{"id":"68","name":"石門甲道","lat":"22.26991800","long":"113.93424300","street":"東涌道","fare":"2.6","fareHoliday":"5.1"},{"id":"69","name":"龍井頭","lat":"22.27597500","long":"113.93337700","street":"東涌道","fare":"2.6","fareHoliday":"5.1"},{"id":"70","name":"黃家圍","lat":"22.27716200","long":"113.93381200","street":"東涌道","fare":"2.6","fareHoliday":"5.1"},{"id":"71","name":"下嶺皮","lat":"22.27873100","long":"113.93547500","street":"東涌道","fare":"2.6","fareHoliday":"5.1"},{"id":"72","name":"上嶺皮","lat":"22.27891200","long":"113.93685600","street":"東涌道","fare":"2.6","fareHoliday":"5.1"},{"id":"73","name":"東涌鄉事委員會","lat":"22.27913800","long":"113.93929900","street":"東涌道","fare":"2.6","fareHoliday":"5.1"},{"id":"74","name":"馬灣新村","lat":"22.27986500","long":"113.94024300","street":"松仁路","fare":"2.6","fareHoliday":"5.1"},{"id":"77","name":"東涌消防局","lat":"22.28603000","long":"113.94105700","street":"順東路","fare":"2.6","fareHoliday":"5.1"},{"id":"78","name":"東涌纜車站","lat":"22.28930100","long":"113.93873300","street":"達東路","fare":"2.6","fareHoliday":"5.1"},{"id":"79","name":"東涌站巴士總站","lat":"22.28986200","long":"113.93961600","street":"達東路","fare":"0.0","fareHoliday":"0.0"}],"routeId":"17","description":"正常班次"},{"company":"gmb","route":"11","routeType":1,"orig":"坑口村","dest":"彩虹站(龍翔道)","stopList":[{"id":20012484,"name":"庭和里, 近坑口村","lat":22.32053728006542,"long":114.2665082216263},{"id":20002563,"name":"重華路, 東港城第6座對面","lat":22.316973483087775,"long":114.26592506150432},{"id":20002597,"name":"坑口站公共運輸交匯處","lat":22.315845573505552,"long":114.26424525693855},{"id":20003054,"name":"寶寧路25號富寧商場外","lat":22.318742568255473,"long":114.26756648401933},{"id":20001140,"name":"寶寧路, 將軍澳醫院外","lat":22.31763096857842,"long":114.26905075871622},{"id":20012485,"name":"坑口道, 近雅景別墅","lat":22.32163398422133,"long":114.26895976066591},{"id":20013010,"name":"香港科技大學(南站)","lat":22.33313355668898,"long":114.26287382841113},{"id":20001142,"name":"清水灣道, 大埔仔村外","lat":22.337160447531637,"long":114.25907489728151},{"id":20012487,"name":"清水灣道, 大埔仔坳","lat":22.340023584953,"long":114.25856351852418},{"id":20012488,"name":"清水灣道, 打鼓嶺新村對面","lat":22.34334794365079,"long":114.25189018249513},{"id":20001145,"name":"清水灣道, 壁屋懲教署對面","lat":22.339739895208332,"long":114.24684515105326},{"id":20012489,"name":"清水灣道, 白石窩","lat":22.335806000894504,"long":114.24194455146791},{"id":20001146,"name":"清水灣道, 近井欄樹","lat":22.33362117671796,"long":114.2368536465605},{"id":20012490,"name":"清水灣道, 近龍窩村","lat":22.334505966912108,"long":114.23050761222841},{"id":20012491,"name":"清水灣道, 德望學校對面","lat":22.33375670518064,"long":114.22056198120119},{"id":20000566,"name":"彩雲邨","lat":22.333474336765807,"long":114.21478968112734},{"id":20001117,"name":"龍翔道, 近彩虹港鐵","lat":22.334008367500214,"long":114.20913065729457},{"id":20012492,"name":"龍翔道, 彩虹邨紅萼樓外","lat":22.336689223174876,"long":114.20663595199586}],"routeId":2004791,"description":"正常班次"},{"company":"gmb","route":"11","routeType":2,"orig":"彩虹站(龍翔道)","dest":"坑口村","stopList":[{"id":20001116,"name":"龍翔道, 近牛池灣消防局","lat":22.33501998824765,"long":114.20813106425722},{"id":20000568,"name":"清水灣道, 彩雲邨飛鳳樓外","lat":22.33374519476139,"long":114.2150421353843},{"id":20012493,"name":"清水灣道, 德望學校外","lat":22.33391548945987,"long":114.22109842300416},{"id":20012494,"name":"騰龍台","lat":22.333394477867078,"long":114.23516392707826},{"id":20001999,"name":"清水灣道,井欄樹","lat":22.334153810160945,"long":114.23733919611703},{"id":20002000,"name":"清水灣道, 白石窩","lat":22.337086660405674,"long":114.24268912233951},{"id":20002001,"name":"清水灣道, 壁屋懲教所外","lat":22.339749094792726,"long":114.24647624790641},{"id":20012495,"name":"清水灣道, 打鼓嶺新村","lat":22.343734953392374,"long":114.2542988061905},{"id":20012479,"name":"清水灣道, 大埔仔坳","lat":22.34049991584068,"long":114.25854742527008},{"id":20012472,"name":"香港科技大學(北站)","lat":22.338425879883967,"long":114.26210403442384},{"id":20012496,"name":"清水灣道, 大埔仔村對面","lat":22.336649527911547,"long":114.25936281681062},{"id":20012497,"name":"水邊村","lat":22.321246913150418,"long":114.26900804042816},{"id":20012498,"name":"半見村","lat":22.316979135300375,"long":114.27076220512392},{"id":20001172,"name":"寶寧路, 將軍澳醫院對面","lat":22.317468528327797,"long":114.26885653546587},{"id":20001162,"name":"重華路, 東港城第6座對面","lat":22.317100007193098,"long":114.26575043737186},{"id":20002597,"name":"坑口站公共運輸交匯處","lat":22.315845573505552,"long":114.26424525693855},{"id":20012484,"name":"庭和里, 近坑口村","lat":22.32053728006542,"long":114.2665082216263}],"routeId":2004791,"description":"正常班次"}]