[{"company":"kmb","route":"111P","routeType":"1","dir":"O","orig":"彩福","dest":"中環(港澳碼頭)","stopList":[{"id":"534DB02642325617","name":"彩福","lat":"22.328659","long":"114.217222"},{"id":"79E1F84E966F6113","name":"彩賢樓","lat":"22.329755","long":"114.216147"},{"id":"53FCF9B3DFD6C9F2","name":"彩興苑","lat":"22.331233","long":"114.213272"},{"id":"D64C1350EE61A2AD","name":"富豪東方酒店","lat":"22.327089","long":"114.190520"},{"id":"D187AB3DC52090EF","name":"木廠街","lat":"22.323136","long":"114.188185"},{"id":"40CC41621D07AA2D","name":"土瓜灣街市","lat":"22.317656","long":"114.187731"},{"id":"6E8CB58283AF3CB1","name":"浙江街遊樂場","lat":"22.313480","long":"114.187159"},{"id":"5FFF428D657F1361","name":"紅磡北拱街","lat":"22.311891","long":"114.186151"},{"id":"A06590AD808DC9A9","name":"紅磡平治街","lat":"22.309645","long":"114.184591"},{"id":"4D3CBBDB95447F2E","name":"紅磡海底隧道收費廣場","lat":"22.302826","long":"114.180845"},{"id":"742D35CD1DEA10FD","name":"利景酒店","lat":"22.277754","long":"114.178965"},{"id":"8B5745F31A5778D7","name":"普樂里","lat":"22.276750","long":"114.175940"},{"id":"D15281453EE5E0B4","name":"菲林明道","lat":"22.277543","long":"114.173776"},{"id":"A0424645102B1D9C","name":"修頓球場","lat":"22.277389","long":"114.172021"},{"id":"9D0E44D3210264C3","name":"高等法院","lat":"22.278550","long":"114.163505"},{"id":"EC2573EE5FF42AAC","name":"滙豐總行","lat":"22.280726","long":"114.159172"},{"id":"C0B3CCF700EDA89C","name":"中環街市","lat":"22.284818","long":"114.155374"},{"id":"3D3122319983EAC4","name":"港澳碼頭巴士總站","lat":"22.288491","long":"114.149844"}],"routeId":"111P","description":"正常班次"},{"company":"kmb","route":"111P","routeType":"1","dir":"I","orig":"中環(港澳碼頭)","dest":"彩福","stopList":[{"id":"3D3122319983EAC4","name":"港澳碼頭巴士總站","lat":"22.288491","long":"114.149844"},{"id":"2DF5E48438A56E56","name":"林士街","lat":"22.286162","long":"114.153634"},{"id":"01920071384D131D","name":"砵典乍街","lat":"22.283973","long":"114.156337"},{"id":"50C82DFB0AC97FC8","name":"皇后像廣場","lat":"22.280766","long":"114.159695"},{"id":"7E4358262A4F586A","name":"金鐘站","lat":"22.278258","long":"114.165144"},{"id":"FA0F3FFF968619F2","name":"軍器廠街","lat":"22.277826","long":"114.169465"},{"id":"B3C1A7541DDBB708","name":"柯布連道","lat":"22.277684","long":"114.172641"},{"id":"FD9F24DFA3090351","name":"莊士敦道","lat":"22.277097","long":"114.174925"},{"id":"D9C045AD58C8CD38","name":"克街","lat":"22.277213","long":"114.177126"},{"id":"16166F0A6907133D","name":"南洋酒店","lat":"22.277282","long":"114.180214"},{"id":"11B2034DDF30617A","name":"紅磡海底隧道收費廣場","lat":"22.302459","long":"114.179851"},{"id":"33033960343A57A8","name":"紅磡山谷道","lat":"22.309321","long":"114.183816"},{"id":"F6A446C66F7F805E","name":"紅磡北拱街","lat":"22.312193","long":"114.186074"},{"id":"35CD2E3911AEA038","name":"土瓜灣落山道","lat":"22.316808","long":"114.187508"},{"id":"C847FC07707BC068","name":"土瓜灣天光道","lat":"22.319370","long":"114.187448"},{"id":"AA62C03711F778F2","name":"洋葵樓","lat":"22.322517","long":"114.187516"},{"id":"661FEE32A0D73EB0","name":"王仲銘中學","lat":"22.333958","long":"114.194661"},{"id":"D446D1EA79502BF2","name":"泰東樓","lat":"22.336357","long":"114.194529"},{"id":"FE3B13A457EEA70C","name":"黃大仙警署","lat":"22.338987","long":"114.196765"},{"id":"F203BEDE3E90A5BA","name":"新蒲崗四美街","lat":"22.338209","long":"114.201716"},{"id":"3BB1407BA61E0A9B","name":"金碧樓","lat":"22.335522","long":"114.204886"},{"id":"100E6F60BAC1BDEB","name":"坪石邨","lat":"22.333185","long":"114.207227"},{"id":"C970D8254790191E","name":"彩興路","lat":"22.331230","long":"114.212443"},{"id":"6557A31762F5311F","name":"彩德商場","lat":"22.329627","long":"114.212538"},{"id":"90ED381AD3BAE4F9","name":"彩亮樓","lat":"22.329787","long":"114.215130"},{"id":"534DB02642325617","name":"彩福","lat":"22.328659","long":"114.217222"}],"routeId":"111P","description":"正常班次"},{"company":"nwfb","route":"111P","routeType":null,"dir":"I","orig":"中環 (港澳碼頭)","dest":"彩福邨","stopList":[{"id":"001027","name":"中環 (港澳碼頭)","lat":"22.288274152091","long":"114.15042248053"},{"id":"001044","name":"林士街, 德輔道中","lat":"22.286050072091","long":"114.15372775053"},{"id":"002737","name":"砵典乍街, 德輔道中","lat":"22.283948002091","long":"114.15630946053"},{"id":"001051","name":"皇后像廣場, 德輔道中","lat":"22.280748762091","long":"114.15964401053"},{"id":"001137","name":"金鐘站, 金鐘道","lat":"22.278348592091","long":"114.16493918053"},{"id":"002427","name":"軍器廠街, 軒尼詩道","lat":"22.277848662091","long":"114.16894462053"},{"id":"002431","name":"柯布連道, 軒尼詩道","lat":"22.277694092091","long":"114.17312989053"},{"id":"002413","name":"大有廣場, 菲林明道","lat":"22.276992282091","long":"114.17491050053"},{"id":"002539","name":"克街, 灣仔道","lat":"22.277181682091","long":"114.17717573053"},{"id":"002968","name":"南洋酒店, 摩理臣山道","lat":"22.276754282091","long":"114.18038082053"},{"id":"001475","name":"海底隧道收費廣場","lat":"22.302817792091","long":"114.18008423053"},{"id":"001412","name":"山谷道, 漆咸道北","lat":"22.309305192091","long":"114.18379162053"},{"id":"001413","name":"北拱街, 漆咸道北","lat":"22.312201072091","long":"114.18612482053"},{"id":"001534","name":"落山道, 馬頭圍道","lat":"22.316614492091","long":"114.18747797053"},{"id":"001535","name":"天光道, 馬頭圍道","lat":"22.319316112091","long":"114.18745764053"},{"id":"001772","name":"馬頭圍邨洋葵樓, 馬頭涌道","lat":"22.322467342091","long":"114.18759772053"},{"id":"002991","name":"王仲銘中學, 彩虹道","lat":"22.334210062091","long":"114.19447847053"},{"id":"003005","name":"東頭邨泰東樓, 彩虹道","lat":"22.335570972091","long":"114.19418205053"},{"id":"001689","name":"黃大仙警署, 彩虹道","lat":"22.339132542091","long":"114.19711901053"},{"id":"001452","name":"四美街, 彩虹道","lat":"22.338128872091","long":"114.20174977053"},{"id":"001448","name":"彩虹邨金碧樓, 彩虹邨通道","lat":"22.335157802091","long":"114.20498066053"},{"id":"001503","name":"坪石邨, 太子道東","lat":"22.333081342091","long":"114.20723458053"},{"id":"003605","name":"彩興路","lat":"22.331222212091","long":"114.21236533053"},{"id":"003606","name":"彩德商場, 彩榮路","lat":"22.329475802091","long":"114.21270167053"},{"id":"003607","name":"彩德邨彩亮樓, 彩榮路","lat":"22.329802282091","long":"114.21513102053"},{"id":"003289","name":"彩福邨","lat":"22.328706902091","long":"114.21726483053"}],"routeId":"111P","description":"正常班次"},{"company":"nwfb","route":"111P","routeType":null,"dir":"O","orig":"彩福邨","dest":"中環 (港澳碼頭)","stopList":[{"id":"003289","name":"彩福邨","lat":"22.328706902091","long":"114.21726483053"},{"id":"003290","name":"彩德邨彩賢樓, 彩榮路","lat":"22.329728742091","long":"114.21511606053"},{"id":"003291","name":"彩興苑, 彩興路","lat":"22.331247092091","long":"114.21325454053"},{"id":"001577","name":"富豪東方酒店, 太子道東","lat":"22.327146622091","long":"114.19053280053"},{"id":"001530","name":"木廠街, 馬頭涌道","lat":"22.323261842091","long":"114.18821017053"},{"id":"001538","name":"土瓜灣街市, 馬頭圍道","lat":"22.317651292091","long":"114.18770359053"},{"id":"001643","name":"浙江街遊樂場, 漆咸道北","lat":"22.313753452091","long":"114.18730143053"},{"id":"001644","name":"北拱街, 漆咸道北","lat":"22.311833242091","long":"114.18612626053"},{"id":"001415","name":"平治街, 漆咸道北","lat":"22.309564142091","long":"114.18459248053"},{"id":"001476","name":"海底隧道收費廣場","lat":"22.303015922091","long":"114.18084154053"},{"id":"002566","name":"利景酒店, 灣仔道","lat":"22.277832632091","long":"114.17916549053"},{"id":"002537","name":"普樂里, 灣仔道","lat":"22.276798792091","long":"114.17597252053"},{"id":"002445","name":"菲林明道, 軒尼詩道","lat":"22.277602072091","long":"114.17407242053"},{"id":"002446","name":"修頓球場, 軒尼詩道","lat":"22.277433042091","long":"114.17187855053"},{"id":"001141","name":"高等法院, 金鐘道","lat":"22.278413762091","long":"114.16387262053"},{"id":"001053","name":"滙豐總行大廈, 德輔道中","lat":"22.280739462091","long":"114.15905007053"},{"id":"001056","name":"中環街市, 德輔道中","lat":"22.284855172091","long":"114.15539392053"},{"id":"001027","name":"中環 (港澳碼頭)","lat":"22.288274152091","long":"114.15042248053"}],"routeId":"111P","description":"正常班次"}]