[{"company":"kmb","route":"111R","routeType":"1","dir":"O","orig":"灣仔北(會展新翼)","dest":"觀塘(裕民坊)","stopList":[{"id":"635D6769D9C2C20F","name":"博覽道","lat":"22.282866","long":"114.172300"},{"id":"11B2034DDF30617A","name":"紅磡海底隧道收費廣場","lat":"22.302459","long":"114.179851"},{"id":"33033960343A57A8","name":"紅磡山谷道","lat":"22.309321","long":"114.183816"},{"id":"F6A446C66F7F805E","name":"紅磡北拱街","lat":"22.312193","long":"114.186074"},{"id":"35CD2E3911AEA038","name":"土瓜灣落山道","lat":"22.316808","long":"114.187508"},{"id":"C847FC07707BC068","name":"土瓜灣天光道","lat":"22.319370","long":"114.187448"},{"id":"AA62C03711F778F2","name":"洋葵樓","lat":"22.322517","long":"114.187516"},{"id":"2F7C67769B9FB896","name":"亞皆老街球場","lat":"22.326376","long":"114.189427"},{"id":"E99D3F96A9F7B5EB","name":"富豪東方酒店","lat":"22.328723","long":"114.192106"},{"id":"0543B8455A70833F","name":"天主教伍華中學","lat":"22.333087","long":"114.195516"},{"id":"D446D1EA79502BF2","name":"泰東樓","lat":"22.336357","long":"114.194529"},{"id":"FE3B13A457EEA70C","name":"黃大仙警署","lat":"22.338987","long":"114.196765"},{"id":"138A71694F5A3451","name":"新蒲崗四美街","lat":"22.338289","long":"114.201631"},{"id":"4A8AAC7402C3F60F","name":"金碧樓","lat":"22.335033","long":"114.205083"},{"id":"100E6F60BAC1BDEB","name":"坪石邨","lat":"22.333185","long":"114.207227"},{"id":"23AF5995FEBCA8E6","name":"啟業邨","lat":"22.330675","long":"114.210388"},{"id":"8C09B3648DCDAF3C","name":"九龍灣站","lat":"22.325547","long":"114.214339"},{"id":"6465DE9EE57F6C94","name":"牛頭角下邨","lat":"22.321984","long":"114.214628"},{"id":"3E73B73B12E25DCF","name":"觀塘道休憩處","lat":"22.318039","long":"114.215032"},{"id":"3F9AE21DC3A540B9","name":"牛頭角站 (V1)","lat":"22.314739","long":"114.220539"},{"id":"8B8DDE8FC3A125B8","name":"觀塘(裕民坊)總站","lat":"22.314833","long":"114.224871"}],"routeId":"111R","description":"正常班次"}]