[{"company":"gmb","route":"114B","routeType":1,"orig":"調景嶺站公共運輸交匯處","dest":"藍塘傲(循環線)","stopList":[{"id":20012835,"name":"港鐵調景嶺站小巴總站","lat":22.30505844136336,"long":22.30505844136336},{"id":20003049,"name":"彩明街, 近彩明苑彩貴閣","lat":22.306488470787084,"long":22.306488470787084},{"id":20012836,"name":"景嶺路, 近香港知專設計學院","lat":22.30513581685986,"long":22.30513581685986},{"id":20012837,"name":"寶邑路, 近將軍澳中心第三座","lat":22.306185753706732,"long":22.306185753706732},{"id":20012838,"name":"唐賢街, 近天晉3A","lat":22.305773844455565,"long":22.305773844455565},{"id":20012839,"name":"唐賢街, 近帝景灣","lat":22.304155830274162,"long":22.304155830274162},{"id":20012840,"name":"唐賢街, 近藍塘傲","lat":22.303421618255268,"long":22.303421618255268},{"id":20012841,"name":"唐賢街, 近Capri Tower 8","lat":22.303428572181232,"long":22.303428572181232},{"id":20012842,"name":"港鐵調景嶺站小巴總站","lat":22.304999135239953,"long":22.304999135239953}],"routeId":2005187,"description":"正常班次"}]