[{"company":"kmb","route":"115P","routeType":"1","dir":"O","orig":"海逸豪園","dest":"中環(港澳碼頭)","stopList":[{"id":"A90086446CCBE314","name":"海逸豪園","lat":"22.307644","long":"114.192280"},{"id":"7055FEADC58CB1F1","name":"黃埔花園總站","lat":"22.304840","long":"114.190806"},{"id":"36F7DCE4723C2C44","name":"紅樂道","lat":"22.302752","long":"114.185478"},{"id":"95FAB1D2AD752ECE","name":"紅磡南道","lat":"22.305121","long":"114.185074"},{"id":"AC48794DF1F3332C","name":"機利士南路","lat":"22.307406","long":"114.184489"},{"id":"5029C93BB80545B1","name":"紅磡海底隧道收費廣場","lat":"22.301884","long":"114.180600"},{"id":"2BF5780A30BB85E1","name":"伊利莎伯大廈","lat":"22.281581","long":"114.181313"},{"id":"C9109584C37A5B98","name":"舊灣仔警署","lat":"22.279372","long":"114.175241"},{"id":"970DA2E578488682","name":"分域街","lat":"22.279162","long":"114.170839"},{"id":"38C9E6D10257D167","name":"皇后像廣場","lat":"22.281958","long":"114.160000"},{"id":"D29F8DE10E3417AD","name":"砵典乍街","lat":"22.283641","long":"114.157236"},{"id":"F0B6112380784741","name":"林士街","lat":"22.286445","long":"114.154064"},{"id":"D22F547E19E900D7","name":"港澳碼頭巴士總站","lat":"22.288528","long":"114.149851"}],"routeId":"115P","description":"特別班次"},{"company":"nwfb","route":"115P","routeType":null,"dir":"I","orig":"中環 (港澳碼頭)","dest":"海逸豪園","stopList":[],"routeId":"115P","description":"正常班次"},{"company":"nwfb","route":"115P","routeType":null,"dir":"O","orig":"海逸豪園","dest":"中環 (港澳碼頭)","stopList":[{"id":"001808","name":"海逸豪園","lat":"22.307798872091","long":"114.19221990053"},{"id":"001596","name":"黃埔花園","lat":"22.305003232091","long":"114.19077968053"},{"id":"003269","name":"海韻軒, 紅樂道","lat":"22.303047922091","long":"114.18521331053"},{"id":"001803","name":"紅磡南道","lat":"22.305195542091","long":"114.18504872053"},{"id":"001804","name":"機利士南路","lat":"22.307347652091","long":"114.18452885053"},{"id":"002998","name":"海底隧道收費廣場","lat":"22.301838952091","long":"114.18055015053"},{"id":"002570","name":"伊利莎伯大廈, 告士打道","lat":"22.281546792091","long":"114.18126242053"},{"id":"002417","name":"舊灣仔警署, 告士打道","lat":"22.279365262091","long":"114.17502194053"},{"id":"002421","name":"分域街, 告士打道","lat":"22.279171322091","long":"114.17096442053"},{"id":"001033","name":"皇后像廣場, 干諾道中","lat":"22.281992192091","long":"114.16003822053"},{"id":"001034","name":"砵典乍街, 干諾道中","lat":"22.283587582091","long":"114.15730419053"},{"id":"001037","name":"林士街, 干諾道中","lat":"22.286484072091","long":"114.15404315053"},{"id":"001027","name":"中環 (港澳碼頭)","lat":"22.288274152091","long":"114.15042248053"}],"routeId":"115P","description":"正常班次"}]