[{"company":"kmb","route":"116","routeType":"1","dir":"O","orig":"慈雲山(中)","dest":"鰂魚涌(祐民街)","stopList":[{"id":"57C138647A7F8CEF","name":"慈雲山(中)巴士總站","lat":"22.348548","long":"114.200379"},{"id":"119ADA59BD2708D2","name":"正暉樓","lat":"22.350314","long":"114.200922"},{"id":"C185612B431B197A","name":"正康樓","lat":"22.348672","long":"114.202907"},{"id":"A4C9136D18013389","name":"德愛中學","lat":"22.347293","long":"114.204339"},{"id":"EF01999C9F909553","name":"鑽石山火葬場","lat":"22.345108","long":"114.206879"},{"id":"B337148DB333E5C4","name":"富山邨","lat":"22.342864","long":"114.207963"},{"id":"711A39D02DB2B4D8","name":"斧山道運動場","lat":"22.339659","long":"114.207353"},{"id":"325D388E2C927954","name":"新蒲崗四美街","lat":"22.337865","long":"114.201738"},{"id":"A2BB1A240289038A","name":"彩虹道遊樂場","lat":"22.337502","long":"114.195595"},{"id":"C7D38CBF5ADEA564","name":"新蒲崗寧遠街","lat":"22.333961","long":"114.195007"},{"id":"8BB1DE68DB8316D3","name":"九龍城轉車站- 富豪東方酒店(B7)","lat":"22.327159","long":"114.190608"},{"id":"AE2A53D953B640BE","name":"馬頭角道","lat":"22.322299","long":"114.187759"},{"id":"E798CB4E2C777782","name":"土瓜灣街市","lat":"22.317698","long":"114.187646"},{"id":"6E8CB58283AF3CB1","name":"浙江街遊樂場","lat":"22.313480","long":"114.187159"},{"id":"9CFB5F7232818FFA","name":"紅磡北拱街","lat":"22.311832","long":"114.186119"},{"id":"A06590AD808DC9A9","name":"紅磡平治街","lat":"22.309645","long":"114.184591"},{"id":"4D3CBBDB95447F2E","name":"紅磡海底隧道收費廣場","lat":"22.302826","long":"114.180845"},{"id":"4795FBE235012096","name":"南洋酒店","lat":"22.277131","long":"114.180045"},{"id":"B618AF0918FC2598","name":"崇光百貨","lat":"22.280249","long":"114.183934"},{"id":"DF901EF2F9A46F7B","name":"維多利亞公園","lat":"22.280960","long":"114.189952"},{"id":"834CC2324AAFB567","name":"銀幕街","lat":"22.283692","long":"114.192457"},{"id":"58C47FBFFF12E65F","name":"七海商業中心","lat":"22.287726","long":"114.192958"},{"id":"4AEB8A22E18AB111","name":"電廠街","lat":"22.290036","long":"114.195070"},{"id":"98AF62607465CE59","name":"糖水道","lat":"22.290828","long":"114.198066"},{"id":"2969EE1DAEAD252A","name":"港運城","lat":"22.291737","long":"114.202600"},{"id":"B6E124DFD59022EF","name":"健康村","lat":"22.292173","long":"114.206222"},{"id":"0B071FC4D33FC334","name":"模範邨","lat":"22.291653","long":"114.207838"},{"id":"17A5341790B188CB","name":"民新街","lat":"22.290048","long":"114.209490"},{"id":"74CB8B8ECA4F4A44","name":"新威園","lat":"22.285898","long":"114.211197"},{"id":"A15E3D395843BC2F","name":"基利路","lat":"22.283891","long":"114.213662"},{"id":"AEFFE0AEBB68BF31","name":"鰂魚涌巴士總站","lat":"22.284323","long":"114.212814"}],"routeId":"116","description":"正常班次"},{"company":"kmb","route":"116","routeType":"1","dir":"I","orig":"鰂魚涌(祐民街)","dest":"慈雲山(中)","stopList":[{"id":"AEFFE0AEBB68BF31","name":"鰂魚涌巴士總站","lat":"22.284323","long":"114.212814"},{"id":"628DF6A22E9172F8","name":"新威園","lat":"22.285618","long":"114.211020"},{"id":"EE07E4C45A4CC134","name":"民新街","lat":"22.289634","long":"114.209351"},{"id":"E5054AD30B9831F3","name":"健康村","lat":"22.291870","long":"114.206469"},{"id":"616738F21326814A","name":"健威花園","lat":"22.291719","long":"114.203666"},{"id":"38D2BF58A38ADCA0","name":"新都城大廈","lat":"22.290899","long":"114.199574"},{"id":"F8365ACAC0B85C65","name":"長康街","lat":"22.290172","long":"114.196075"},{"id":"A3B9F3D6B2668DE3","name":"炮台山站","lat":"22.288786","long":"114.194187"},{"id":"6CAA11E0FD871B20","name":"清風街","lat":"22.284804","long":"114.193035"},{"id":"3E29AD52CE8C9255","name":"中央圖書館","lat":"22.280229","long":"114.189201"},{"id":"184C33F0F1EF7379","name":"怡和街","lat":"22.279728","long":"114.185591"},{"id":"469644E45027A992","name":"堅拿道東","lat":"22.278593","long":"114.181347"},{"id":"11B2034DDF30617A","name":"紅磡海底隧道收費廣場","lat":"22.302459","long":"114.179851"},{"id":"33033960343A57A8","name":"紅磡山谷道","lat":"22.309321","long":"114.183816"},{"id":"F6A446C66F7F805E","name":"紅磡北拱街","lat":"22.312193","long":"114.186074"},{"id":"35CD2E3911AEA038","name":"土瓜灣落山道","lat":"22.316808","long":"114.187508"},{"id":"C847FC07707BC068","name":"土瓜灣天光道","lat":"22.319370","long":"114.187448"},{"id":"AA62C03711F778F2","name":"洋葵樓","lat":"22.322517","long":"114.187516"},{"id":"2F7C67769B9FB896","name":"亞皆老街球場","lat":"22.326376","long":"114.189427"},{"id":"7F25B423230F5BEE","name":"九龍城轉車站- 富豪東方酒店(A2)","lat":"22.328940","long":"114.192314"},{"id":"CFCA63CAF4C25D2B","name":"天主教伍華中學","lat":"22.333001","long":"114.195586"},{"id":"D446D1EA79502BF2","name":"泰東樓","lat":"22.336357","long":"114.194529"},{"id":"E7A17EFD6E7435AF","name":"黃大仙警署","lat":"22.339114","long":"114.197038"},{"id":"138A71694F5A3451","name":"新蒲崗四美街","lat":"22.338289","long":"114.201631"},{"id":"DB6981B82045B45C","name":"真鐸學校","lat":"22.339786","long":"114.207218"},{"id":"ACE23D880D07ABB1","name":"宏景花園","lat":"22.342399","long":"114.207911"},{"id":"1DA57A1376E99AC6","name":"蒲崗村道學校村","lat":"22.345557","long":"114.206232"},{"id":"964AA1DCAAD06512","name":"德愛中學","lat":"22.347594","long":"114.204096"},{"id":"D237B30F94B6065D","name":"慈民邨","lat":"22.348542","long":"114.202610"},{"id":"7D025E77F4B35266","name":"慈安苑","lat":"22.348661","long":"114.201216"},{"id":"EE3B5ABCB87027E7","name":"正暉樓","lat":"22.350378","long":"114.200715"},{"id":"57C138647A7F8CEF","name":"慈雲山(中)巴士總站","lat":"22.348548","long":"114.200379"}],"routeId":"116","description":"正常班次"},{"company":"kmb","route":"116","routeType":"2","dir":"I","orig":"炮台山站","dest":"慈雲山(中)","stopList":[{"id":"A3B9F3D6B2668DE3","name":"炮台山站","lat":"22.288786","long":"114.194187"},{"id":"6CAA11E0FD871B20","name":"清風街","lat":"22.284804","long":"114.193035"},{"id":"3E29AD52CE8C9255","name":"中央圖書館","lat":"22.280229","long":"114.189201"},{"id":"184C33F0F1EF7379","name":"怡和街","lat":"22.279728","long":"114.185591"},{"id":"469644E45027A992","name":"堅拿道東","lat":"22.278593","long":"114.181347"},{"id":"11B2034DDF30617A","name":"紅磡海底隧道收費廣場","lat":"22.302459","long":"114.179851"},{"id":"33033960343A57A8","name":"紅磡山谷道","lat":"22.309321","long":"114.183816"},{"id":"F6A446C66F7F805E","name":"紅磡北拱街","lat":"22.312193","long":"114.186074"},{"id":"35CD2E3911AEA038","name":"土瓜灣落山道","lat":"22.316808","long":"114.187508"},{"id":"C847FC07707BC068","name":"土瓜灣天光道","lat":"22.319370","long":"114.187448"},{"id":"AA62C03711F778F2","name":"洋葵樓","lat":"22.322517","long":"114.187516"},{"id":"2F7C67769B9FB896","name":"亞皆老街球場","lat":"22.326376","long":"114.189427"},{"id":"7F25B423230F5BEE","name":"九龍城轉車站- 富豪東方酒店(A2)","lat":"22.328940","long":"114.192314"},{"id":"CFCA63CAF4C25D2B","name":"天主教伍華中學","lat":"22.333001","long":"114.195586"},{"id":"D446D1EA79502BF2","name":"泰東樓","lat":"22.336357","long":"114.194529"},{"id":"E7A17EFD6E7435AF","name":"黃大仙警署","lat":"22.339114","long":"114.197038"},{"id":"138A71694F5A3451","name":"新蒲崗四美街","lat":"22.338289","long":"114.201631"},{"id":"DB6981B82045B45C","name":"真鐸學校","lat":"22.339786","long":"114.207218"},{"id":"ACE23D880D07ABB1","name":"宏景花園","lat":"22.342399","long":"114.207911"},{"id":"1DA57A1376E99AC6","name":"蒲崗村道學校村","lat":"22.345557","long":"114.206232"},{"id":"964AA1DCAAD06512","name":"德愛中學","lat":"22.347594","long":"114.204096"},{"id":"D237B30F94B6065D","name":"慈民邨","lat":"22.348542","long":"114.202610"},{"id":"7D025E77F4B35266","name":"慈安苑","lat":"22.348661","long":"114.201216"},{"id":"EE3B5ABCB87027E7","name":"正暉樓","lat":"22.350378","long":"114.200715"},{"id":"57C138647A7F8CEF","name":"慈雲山(中)巴士總站","lat":"22.348548","long":"114.200379"}],"routeId":"116","description":"特別班次"},{"company":"nwfb","route":"116","routeType":null,"dir":"I","orig":"慈雲山 (中)","dest":"鰂魚涌 (祐民街)","stopList":[{"id":"003028","name":"慈雲山 (中)","lat":"22.348597652091","long":"114.20018681053"},{"id":"001701","name":"慈正邨正暉樓, 慈雲山道","lat":"22.350188592091","long":"114.20095618053"},{"id":"001702","name":"慈正邨正康樓, 慈雲山道","lat":"22.348658942091","long":"114.20301440053"},{"id":"001703","name":"德愛中學, 慈雲山道","lat":"22.347405502091","long":"114.20422544053"},{"id":"003029","name":"鑽石山火葬場, 蒲崗村道","lat":"22.344808562091","long":"114.20705941053"},{"id":"001704","name":"富山邨, 蒲崗村道","lat":"22.342419562091","long":"114.20805112053"},{"id":"001705","name":"斧山道運動場, 斧山道","lat":"22.339720692091","long":"114.20736776053"},{"id":"001699","name":"四美街, 彩虹道","lat":"22.337937222091","long":"114.20174654053"},{"id":"001450","name":"彩虹道遊樂場, 彩虹道","lat":"22.337495022091","long":"114.19561951053"},{"id":"001451","name":"寧遠街, 彩虹道","lat":"22.334144962091","long":"114.19475521053"},{"id":"001577","name":"富豪東方酒店, 太子道東","lat":"22.327146622091","long":"114.19053280053"},{"id":"003030","name":"馬頭角道, 馬頭涌道","lat":"22.322379282091","long":"114.18776440053"},{"id":"001538","name":"土瓜灣街市, 馬頭圍道","lat":"22.317651292091","long":"114.18770359053"},{"id":"001643","name":"浙江街遊樂場, 漆咸道北","lat":"22.313753452091","long":"114.18730143053"},{"id":"001644","name":"北拱街, 漆咸道北","lat":"22.311833242091","long":"114.18612626053"},{"id":"001415","name":"平治街, 漆咸道北","lat":"22.309564142091","long":"114.18459248053"},{"id":"001476","name":"海底隧道收費廣場","lat":"22.303015922091","long":"114.18084154053"},{"id":"002456","name":"雲翠大廈, 禮頓道","lat":"22.277441222091","long":"114.18464429053"},{"id":"002474","name":"邊寧頓街","lat":"22.278458822091","long":"114.18603081053"},{"id":"002673","name":"南洋酒店, 摩理臣山道","lat":"22.277139682091","long":"114.18010487053"},{"id":"002438","name":"崇光百貨, 軒尼詩道","lat":"22.280207632091","long":"114.18417804053"},{"id":"001213","name":"維多利亞公園, 高士威道","lat":"22.281133262091","long":"114.19006592053"},{"id":"001259","name":"銀幕街, 英皇道","lat":"22.283615512091","long":"114.19246041053"},{"id":"001260","name":"七海商業中心, 英皇道","lat":"22.287742812091","long":"114.19296558053"},{"id":"001261","name":"電廠街, 英皇道","lat":"22.290056622091","long":"114.19505769053"},{"id":"001262","name":"糖水道, 英皇道","lat":"22.290808072091","long":"114.19810570053"},{"id":"001264","name":"港運城, 英皇道","lat":"22.291703622091","long":"114.20248986053"},{"id":"001265","name":"健康村, 英皇道","lat":"22.292089592091","long":"114.20652344053"},{"id":"002677","name":"模範邨, 英皇道","lat":"22.291670382091","long":"114.20785144053"},{"id":"003338","name":"民新街, 英皇道","lat":"22.290055362091","long":"114.20945578053"},{"id":"001268","name":"新威園, 英皇道","lat":"22.285544382091","long":"114.21133814053"},{"id":"002776","name":"基利路","lat":"22.283896142091","long":"114.21358259053"},{"id":"002799","name":"鰂魚涌","lat":"22.284230752091","long":"114.21281931053"}],"routeId":"116","description":"正常班次"},{"company":"nwfb","route":"116","routeType":null,"dir":"O","orig":"鰂魚涌 (祐民街)","dest":"慈雲山 (中)","stopList":[{"id":"002799","name":"鰂魚涌","lat":"22.284230752091","long":"114.21281931053"},{"id":"001365","name":"新威園, 英皇道","lat":"22.285529212091","long":"114.21108139053"},{"id":"001274","name":"民新街, 英皇道","lat":"22.289926312091","long":"114.20930325053"},{"id":"001276","name":"健康村, 英皇道","lat":"22.291912702091","long":"114.20634072053"},{"id":"001277","name":"健威花園, 英皇道","lat":"22.291810122091","long":"114.20389006053"},{"id":"001280","name":"新都城大廈, 英皇道","lat":"22.290876932091","long":"114.19937984053"},{"id":"001364","name":"長康街, 英皇道","lat":"22.290176642091","long":"114.19594569053"},{"id":"001283","name":"炮台山站, 英皇道","lat":"22.288146742091","long":"114.19355472053"},{"id":"001286","name":"清風街, 英皇道","lat":"22.284713662091","long":"114.19291666053"},{"id":"001215","name":"香港中央圖書館, 高士威道","lat":"22.280082042091","long":"114.18887826053"},{"id":"002554","name":"怡和街","lat":"22.279929702091","long":"114.18500787053"},{"id":"002404","name":"堅拿道巴士專用線","lat":"22.278043882091","long":"114.18120688053"},{"id":"001475","name":"海底隧道收費廣場","lat":"22.302817792091","long":"114.18008423053"},{"id":"001412","name":"山谷道, 漆咸道北","lat":"22.309305192091","long":"114.18379162053"},{"id":"001413","name":"北拱街, 漆咸道北","lat":"22.312201072091","long":"114.18612482053"},{"id":"001534","name":"落山道, 馬頭圍道","lat":"22.316614492091","long":"114.18747797053"},{"id":"001535","name":"天光道, 馬頭圍道","lat":"22.319316112091","long":"114.18745764053"},{"id":"001772","name":"馬頭圍邨洋葵樓, 馬頭涌道","lat":"22.322467342091","long":"114.18759772053"},{"id":"001529","name":"亞皆老街遊樂場, 馬頭涌道","lat":"22.326431422091","long":"114.18954401053"},{"id":"001572","name":"富豪東方酒店, 太子道東","lat":"22.328494832091","long":"114.19184067053"},{"id":"001642","name":"天主教伍華中學, 彩虹道","lat":"22.333238172091","long":"114.19538309053"},{"id":"003005","name":"東頭邨泰東樓, 彩虹道","lat":"22.335570972091","long":"114.19418205053"},{"id":"001689","name":"黃大仙警署, 彩虹道","lat":"22.339132542091","long":"114.19711901053"},{"id":"001452","name":"四美街, 彩虹道","lat":"22.338128872091","long":"114.20174977053"},{"id":"001709","name":"真鐸學校, 斧山道","lat":"22.339652462091","long":"114.20713892053"},{"id":"001710","name":"宏景花園, 蒲崗村道","lat":"22.342339532091","long":"114.20795619053"},{"id":"003027","name":"蒲崗村道學校村, 蒲崗村道","lat":"22.345444242091","long":"114.20630841053"},{"id":"003033","name":"德愛中學, 慈雲山道","lat":"22.347603602091","long":"114.20413403053"},{"id":"001711","name":"慈民邨, 慈雲山道","lat":"22.348680882091","long":"114.20245965053"},{"id":"001712","name":"慈安苑, 惠華街","lat":"22.348715682091","long":"114.20121263053"},{"id":"001701","name":"慈正邨正暉樓, 慈雲山道","lat":"22.350188592091","long":"114.20095618053"},{"id":"003028","name":"慈雲山 (中)","lat":"22.348597652091","long":"114.20018681053"}],"routeId":"116","description":"正常班次"}]