[{"company":"KMB","route":"12","routeType":"1","dir":"O","orig":"海麗邨","dest":"尖沙咀東(麼地道)","stopList":[{"id":"296E43213D6DB624","name":"海麗邨巴士總站","lat":"22.332734","long":"114.147094"},{"id":"32CB1FBDCB7932A6","name":"泓景臺","lat":"22.333824","long":"114.148134"},{"id":"CCAD6B9A4B1CFFD8","name":"碧海藍天","lat":"22.333001","long":"114.149756"},{"id":"1BD82E4312536F0C","name":"發祥街西","lat":"22.330184","long":"114.151263"},{"id":"5FBC215F6F58AC98","name":"富昌邨","lat":"22.327330","long":"114.154676"},{"id":"A411F9374FB2879B","name":"港灣豪庭","lat":"22.324135","long":"114.158717"},{"id":"5A0D9C9441ED6AC5","name":"大角咀中匯街","lat":"22.322767","long":"114.159836"},{"id":"9BF9C994F2DAE15D","name":"奧運站","lat":"22.318545","long":"114.160606"},{"id":"F5098BFD784B8FAB","name":"海富苑","lat":"22.316217","long":"114.163941"},{"id":"1C7C526A52EF9171","name":"富榮花園","lat":"22.313988","long":"114.164449"},{"id":"DED3339EB26494EA","name":"甘肅街","lat":"22.308783","long":"114.167883"},{"id":"577633405E7A3ACD","name":"渡船街","lat":"22.307260","long":"114.167506"},{"id":"F6EE4DC41A299593","name":"匯翔道","lat":"22.304334","long":"114.167837"},{"id":"83EB94899B6BBB4B","name":"柯士甸道","lat":"22.302051","long":"114.168121"},{"id":"5F60283656DF3016","name":"新港中心","lat":"22.297488","long":"114.168979"},{"id":"576538E1395C8508","name":"尖東站","lat":"22.295226","long":"114.174647"},{"id":"F388A6F066DE4562","name":"尖沙咀東（麼地道）","lat":"22.296679","long":"114.175866"}],"routeId":"12"},{"company":"KMB","route":"12","routeType":"1","dir":"I","orig":"尖沙咀東(麼地道)","dest":"海麗邨","stopList":[{"id":"F388A6F066DE4562","name":"尖沙咀東（麼地道）","lat":"22.296679","long":"114.175866"},{"id":"8E8DB91C885F1230","name":"尖東站","lat":"22.294724","long":"114.174189"},{"id":"E3A083E4F64D93CD","name":"九龍公園徑","lat":"22.295997","long":"114.170136"},{"id":"2EEB9CB69FB6A58D","name":"中港城","lat":"22.300341","long":"114.168095"},{"id":"450A96AF1DA8E41C","name":"柯士甸站","lat":"22.303707","long":"114.167718"},{"id":"F2BD88B8D506E78A","name":"渡船街","lat":"22.307181","long":"114.167159"},{"id":"16F899DA5289900D","name":"欣翔道","lat":"22.308881","long":"114.166179"},{"id":"B96E368FC17CD0B0","name":"富榮花園","lat":"22.314039","long":"114.164201"},{"id":"420E7970087AD769","name":"柏景灣","lat":"22.316414","long":"114.163641"},{"id":"831F928D7F101526","name":"博文街","lat":"22.319356","long":"114.160769"},{"id":"195C509959C6A799","name":"君匯港","lat":"22.322229","long":"114.159642"},{"id":"663688103FBA1C52","name":"聚魚道","lat":"22.323831","long":"114.158758"},{"id":"E4B28352C803EAA9","name":"南昌公園","lat":"22.325062","long":"114.156979"},{"id":"CC9AE3EF28E5725F","name":"富昌邨","lat":"22.327310","long":"114.154421"},{"id":"2D30B4FAF44D2398","name":"東京街西","lat":"22.329224","long":"114.152032"},{"id":"296E43213D6DB624","name":"海麗邨巴士總站","lat":"22.332734","long":"114.147094"}],"routeId":"12"},{"company":"CTB","route":"12","routeType":null,"dir":"I","orig":"羅便臣道","dest":"中環碼頭","stopList":[],"routeId":"12"},{"company":"CTB","route":"12","routeType":null,"dir":"O","orig":"中環碼頭","dest":"羅便臣道","stopList":[{"id":"001170","name":"中環 3 號碼頭, 民光街","lat":"22.287492242091","long":"114.15733493053"},{"id":"001195","name":"中環 5 號碼頭","lat":"22.286879172091","long":"114.15919907053"},{"id":"001171","name":"中環 (天星碼頭)","lat":"22.286604172091","long":"114.16035307053"},{"id":"001145","name":"中環碼頭","lat":"22.286269622091","long":"114.15989890053"},{"id":"001032","name":"中環 (交易廣場)","lat":"22.283695952091","long":"114.15803274053"},{"id":"001030","name":"怡和大廈, 干諾道中","lat":"22.282618792091","long":"114.15929917053"},{"id":"001122","name":"滙豐總行大廈, 皇后大道中","lat":"22.279919512091","long":"114.15903769053"},{"id":"001042","name":"蘭桂坊, 德己立街","lat":"22.281516532091","long":"114.15613926053"},{"id":"001084","name":"擺花街","lat":"22.282471302091","long":"114.15429220053"},{"id":"001075","name":"大館, 荷李活道","lat":"22.281907662091","long":"114.15431591053"},{"id":"001001","name":"中央廣場, 亞畢諾道","lat":"22.279916732091","long":"114.15458450053"},{"id":"001018","name":"明愛中心, 堅道","lat":"22.279434502091","long":"114.15420482053"},{"id":"001019","name":"孫中山紀念館, 堅道","lat":"22.281336102091","long":"114.15190655053"},{"id":"001020","name":"樓梯街, 堅道","lat":"22.282821442091","long":"114.14949489053"},{"id":"001021","name":"西摩道, 堅道","lat":"22.283159702091","long":"114.14786353053"},{"id":"001154","name":"寶玉閣, 西摩道","lat":"22.282826282091","long":"114.14880373053"},{"id":"001155","name":"衛城道, 西摩道","lat":"22.282494302091","long":"114.14939124053"},{"id":"001156","name":"羅便臣道, 西摩道","lat":"22.280757142091","long":"114.15072530053"},{"id":"001149","name":"高主教書院, 羅便臣道","lat":"22.278541232091","long":"114.15324279053"},{"id":"001150","name":"花園台, 羅便臣道","lat":"22.276011452091","long":"114.15489341053"},{"id":"001072","name":"香港動植物公園, 花園道","lat":"22.277527002091","long":"114.15772013053"},{"id":"001073","name":"聖約翰座堂, 花園道","lat":"22.278373862091","long":"114.15978086053"},{"id":"002596","name":"長江集團中心, 皇后大道中","lat":"22.279863942091","long":"114.15992504053"},{"id":"001106","name":"畢打街","lat":"22.281823852091","long":"114.15738082053"},{"id":"001041","name":"香港公園, 紅棉路","lat":"22.277664742091","long":"114.16044539053"},{"id":"001078","name":"堅麗閣, 堅尼地道","lat":"22.276481502091","long":"114.15748729053"},{"id":"001076","name":"歷山大廈, 雪廠街","lat":"22.281372022091","long":"114.15884246053"},{"id":"001143","name":"國際金融中心二期, 民耀街","lat":"22.284964992091","long":"114.15981958053"}],"routeId":"12"}]