[{"company":"kmb","route":"13X","routeType":"1","dir":"O","orig":"寶達","dest":"尖沙咀東","stopList":[{"id":"8B6421F5CD63D612","name":"寶達巴士總站","lat":"22.317529","long":"114.236240"},{"id":"3C0AF6BA82588E2F","name":"秀程樓","lat":"22.320022","long":"114.233232"},{"id":"F8DEE1D5F9A349AD","name":"秀康樓","lat":"22.323034","long":"114.230584"},{"id":"4A14A012710E80B1","name":"秀樂樓","lat":"22.321801","long":"114.230416"},{"id":"3216F11DA45B80D7","name":"秀茂坪商場","lat":"22.319064","long":"114.231863"},{"id":"6F106FD26B684372","name":"秀安樓","lat":"22.316738","long":"114.233354"},{"id":"26305AF62FBEE2BC","name":"秀明樓","lat":"22.315095","long":"114.234630"},{"id":"A8CE52F4450FE939","name":"梁式芝書院","lat":"22.315549","long":"114.232908"},{"id":"41E81A921D79F375","name":"曉麗苑","lat":"22.318714","long":"114.229840"},{"id":"BFF2560B1C1687B2","name":"聯合醫院","lat":"22.322257","long":"114.225928"},{"id":"0CA3C6C38D2F3F75","name":"康寧道公園","lat":"22.321413","long":"114.224419"},{"id":"FAF9EF8853A3B65E","name":"樂華南邨","lat":"22.320642","long":"114.222775"},{"id":"EDFC39232C98E301","name":"樂雅苑","lat":"22.321929","long":"114.220892"},{"id":"449F6831A832F1F3","name":"牛頭角總站","lat":"22.323007","long":"114.216874"},{"id":"3E54E8AF4083B065","name":"淘大花園","lat":"22.324412","long":"114.215439"},{"id":"3F4B54625D1F9E48","name":"九龍灣運動場","lat":"22.326543","long":"114.208393"},{"id":"F663E12DC37F3C5A","name":"麗晶花園18座","lat":"22.329538","long":"114.208095"},{"id":"D2B43459063F53DB","name":"麗晶花園13座","lat":"22.330648","long":"114.206988"},{"id":"7995F69FE44D0DB3","name":"麗晶商場","lat":"22.329583","long":"114.205637"},{"id":"F90ED764C7A95649","name":"啟德隧道轉車站 - 宏展街 (M1)","lat":"22.325057","long":"114.205195"},{"id":"041DFA7A1729D20C","name":"紅磡曲街","lat":"22.308098","long":"114.182784"},{"id":"5CCBD9A6B58BF20D","name":"九龍佑寧堂","lat":"22.305649","long":"114.172574"},{"id":"A37F8CF766FCF9F3","name":"尖沙咀德成街 (S47)","lat":"22.304279","long":"114.171799"},{"id":"EAE9158BE729E917","name":"金巴利道 (S50)","lat":"22.301046","long":"114.172057"},{"id":"D2217D7746597D10","name":"尖沙咀中間道 (S54)","lat":"22.295794","long":"114.172446"},{"id":"576538E1395C8508","name":"尖東站","lat":"22.295226","long":"114.174647"},{"id":"1864222D8939BD69","name":"永安廣場","lat":"22.296522","long":"114.176660"},{"id":"E74C9012605BA534","name":"尖沙咀東總站","lat":"22.301922","long":"114.178413"}],"routeId":"13X","description":"正常班次"},{"company":"kmb","route":"13X","routeType":"2","dir":"O","orig":"寶達","dest":"尖沙咀東","stopList":[{"id":"8B6421F5CD63D612","name":"寶達巴士總站","lat":"22.317529","long":"114.236240"},{"id":"3C0AF6BA82588E2F","name":"秀程樓","lat":"22.320022","long":"114.233232"},{"id":"F8DEE1D5F9A349AD","name":"秀康樓","lat":"22.323034","long":"114.230584"},{"id":"4A14A012710E80B1","name":"秀樂樓","lat":"22.321801","long":"114.230416"},{"id":"3216F11DA45B80D7","name":"秀茂坪商場","lat":"22.319064","long":"114.231863"},{"id":"6F106FD26B684372","name":"秀安樓","lat":"22.316738","long":"114.233354"},{"id":"26305AF62FBEE2BC","name":"秀明樓","lat":"22.315095","long":"114.234630"},{"id":"A8CE52F4450FE939","name":"梁式芝書院","lat":"22.315549","long":"114.232908"},{"id":"41E81A921D79F375","name":"曉麗苑","lat":"22.318714","long":"114.229840"},{"id":"BFF2560B1C1687B2","name":"聯合醫院","lat":"22.322257","long":"114.225928"},{"id":"0CA3C6C38D2F3F75","name":"康寧道公園","lat":"22.321413","long":"114.224419"},{"id":"FAF9EF8853A3B65E","name":"樂華南邨","lat":"22.320642","long":"114.222775"},{"id":"EDFC39232C98E301","name":"樂雅苑","lat":"22.321929","long":"114.220892"},{"id":"449F6831A832F1F3","name":"牛頭角總站","lat":"22.323007","long":"114.216874"},{"id":"3E54E8AF4083B065","name":"淘大花園","lat":"22.324412","long":"114.215439"},{"id":"29ED2073D6C52B5A","name":"香港輔助警察隊總部","lat":"22.325187","long":"114.206906"},{"id":"F90ED764C7A95649","name":"啟德隧道轉車站 - 宏展街 (M1)","lat":"22.325057","long":"114.205195"},{"id":"041DFA7A1729D20C","name":"紅磡曲街","lat":"22.308098","long":"114.182784"},{"id":"5CCBD9A6B58BF20D","name":"九龍佑寧堂","lat":"22.305649","long":"114.172574"},{"id":"A37F8CF766FCF9F3","name":"尖沙咀德成街 (S47)","lat":"22.304279","long":"114.171799"},{"id":"EAE9158BE729E917","name":"金巴利道 (S50)","lat":"22.301046","long":"114.172057"},{"id":"D2217D7746597D10","name":"尖沙咀中間道 (S54)","lat":"22.295794","long":"114.172446"},{"id":"576538E1395C8508","name":"尖東站","lat":"22.295226","long":"114.174647"},{"id":"1864222D8939BD69","name":"永安廣場","lat":"22.296522","long":"114.176660"},{"id":"E74C9012605BA534","name":"尖沙咀東總站","lat":"22.301922","long":"114.178413"}],"routeId":"13X","description":"特別班次"},{"company":"kmb","route":"13X","routeType":"3","dir":"O","orig":"彩褔","dest":"尖沙咀東","stopList":[{"id":"534DB02642325617","name":"彩福","lat":"22.328659","long":"114.217222"},{"id":"79E1F84E966F6113","name":"彩賢樓","lat":"22.329755","long":"114.216147"},{"id":"E905F8E518AE17B6","name":"盈安樓","lat":"22.329075","long":"114.214996"},{"id":"24AD2532770CF399","name":"盈順樓","lat":"22.326815","long":"114.215265"},{"id":"5564FED01546FF23","name":"彩頤居","lat":"22.325779","long":"114.216743"},{"id":"449F6831A832F1F3","name":"牛頭角總站","lat":"22.323007","long":"114.216874"},{"id":"3E54E8AF4083B065","name":"淘大花園","lat":"22.324412","long":"114.215439"},{"id":"29ED2073D6C52B5A","name":"香港輔助警察隊總部","lat":"22.325187","long":"114.206906"},{"id":"F90ED764C7A95649","name":"啟德隧道轉車站 - 宏展街 (M1)","lat":"22.325057","long":"114.205195"},{"id":"5CCBD9A6B58BF20D","name":"九龍佑寧堂","lat":"22.305649","long":"114.172574"},{"id":"A37F8CF766FCF9F3","name":"尖沙咀德成街 (S47)","lat":"22.304279","long":"114.171799"},{"id":"EAE9158BE729E917","name":"金巴利道 (S50)","lat":"22.301046","long":"114.172057"},{"id":"D2217D7746597D10","name":"尖沙咀中間道 (S54)","lat":"22.295794","long":"114.172446"},{"id":"576538E1395C8508","name":"尖東站","lat":"22.295226","long":"114.174647"},{"id":"1864222D8939BD69","name":"永安廣場","lat":"22.296522","long":"114.176660"},{"id":"E74C9012605BA534","name":"尖沙咀東總站","lat":"22.301922","long":"114.178413"}],"routeId":"13X","description":"特別班次"},{"company":"kmb","route":"13X","routeType":"5","dir":"O","orig":"寶達","dest":"尖沙咀東","stopList":[{"id":"8B6421F5CD63D612","name":"寶達巴士總站","lat":"22.317529","long":"114.236240"},{"id":"3C0AF6BA82588E2F","name":"秀程樓","lat":"22.320022","long":"114.233232"},{"id":"F8DEE1D5F9A349AD","name":"秀康樓","lat":"22.323034","long":"114.230584"},{"id":"4A14A012710E80B1","name":"秀樂樓","lat":"22.321801","long":"114.230416"},{"id":"3216F11DA45B80D7","name":"秀茂坪商場","lat":"22.319064","long":"114.231863"},{"id":"6F106FD26B684372","name":"秀安樓","lat":"22.316738","long":"114.233354"},{"id":"26305AF62FBEE2BC","name":"秀明樓","lat":"22.315095","long":"114.234630"},{"id":"A8CE52F4450FE939","name":"梁式芝書院","lat":"22.315549","long":"114.232908"},{"id":"41E81A921D79F375","name":"曉麗苑","lat":"22.318714","long":"114.229840"},{"id":"BFF2560B1C1687B2","name":"聯合醫院","lat":"22.322257","long":"114.225928"},{"id":"0CA3C6C38D2F3F75","name":"康寧道公園","lat":"22.321413","long":"114.224419"},{"id":"FAF9EF8853A3B65E","name":"樂華南邨","lat":"22.320642","long":"114.222775"},{"id":"EDFC39232C98E301","name":"樂雅苑","lat":"22.321929","long":"114.220892"},{"id":"449F6831A832F1F3","name":"牛頭角總站","lat":"22.323007","long":"114.216874"},{"id":"3E54E8AF4083B065","name":"淘大花園","lat":"22.324412","long":"114.215439"},{"id":"29ED2073D6C52B5A","name":"香港輔助警察隊總部","lat":"22.325187","long":"114.206906"},{"id":"F90ED764C7A95649","name":"啟德隧道轉車站 - 宏展街 (M1)","lat":"22.325057","long":"114.205195"},{"id":"5CCBD9A6B58BF20D","name":"九龍佑寧堂","lat":"22.305649","long":"114.172574"},{"id":"A37F8CF766FCF9F3","name":"尖沙咀德成街 (S47)","lat":"22.304279","long":"114.171799"},{"id":"EAE9158BE729E917","name":"金巴利道 (S50)","lat":"22.301046","long":"114.172057"},{"id":"D2217D7746597D10","name":"尖沙咀中間道 (S54)","lat":"22.295794","long":"114.172446"},{"id":"576538E1395C8508","name":"尖東站","lat":"22.295226","long":"114.174647"},{"id":"1864222D8939BD69","name":"永安廣場","lat":"22.296522","long":"114.176660"},{"id":"E74C9012605BA534","name":"尖沙咀東總站","lat":"22.301922","long":"114.178413"}],"routeId":"13X","description":"特別班次"},{"company":"kmb","route":"13X","routeType":"1","dir":"I","orig":"尖沙咀東","dest":"寶達","stopList":[{"id":"E74C9012605BA534","name":"尖沙咀東總站","lat":"22.301922","long":"114.178413"},{"id":"BEEBDDB542A7E709","name":"香港科學館","lat":"22.301475","long":"114.176613"},{"id":"48184733EFE9D3E3","name":"尖沙咀麼地道","lat":"22.298487","long":"114.175834"},{"id":"243A28F74F73A045","name":"尖東站","lat":"22.294779","long":"114.174389"},{"id":"1F2E60EDB4254D30","name":"尖沙咀中間道 (N2)","lat":"22.295816","long":"114.172187"},{"id":"D066F149BE3A1D28","name":"九龍清真寺 (N7)","lat":"22.298695","long":"114.171951"},{"id":"1B9CA570385CC6F2","name":"尖沙咀警署 (N14)","lat":"22.302619","long":"114.171661"},{"id":"E5E7111594073DE2","name":"油麻地南京街 (N24)","lat":"22.306300","long":"114.171428"},{"id":"B0668BFF6178BA0B","name":"勞資審裁處","lat":"22.308049","long":"114.172768"},{"id":"3CB94742E4B5E3E5","name":"衛理道","lat":"22.306781","long":"114.175981"},{"id":"AA97FFC49AE957A5","name":"紅磡山谷道","lat":"22.309361","long":"114.183871"},{"id":"416B7606A9A5FEEB","name":"啟德隧道轉車站 - 啟成街 (N1)","lat":"22.325231","long":"114.204423"},{"id":"D4707218581C0F72","name":"宏天廣場","lat":"22.326861","long":"114.205126"},{"id":"B68FB7076BB07A22","name":"啟禮道","lat":"22.328407","long":"114.205505"},{"id":"553D370FA21F7DA4","name":"麗晶商場","lat":"22.329702","long":"114.205406"},{"id":"72999453ECAC4693","name":"麗晶花園第8座","lat":"22.331389","long":"114.205832"},{"id":"AA26D9F25826AA4A","name":"啟業邨","lat":"22.328645","long":"114.208437"},{"id":"FBE38593BDEB0802","name":"九龍灣運動場","lat":"22.326515","long":"114.208649"},{"id":"921C19F6147C74A6","name":"振華苑","lat":"22.322426","long":"114.218357"},{"id":"47C3597662B81B47","name":"樂雅苑","lat":"22.322730","long":"114.220872"},{"id":"7EF64469471FE344","name":"樂華南邨","lat":"22.320826","long":"114.222941"},{"id":"0A03521DFD20FEA9","name":"康寧道公園","lat":"22.320977","long":"114.224024"},{"id":"DD5B5646768C5F09","name":"聯合醫院","lat":"22.322105","long":"114.226132"},{"id":"7ABD55FC15C048F0","name":"秀雅道遊樂場","lat":"22.321051","long":"114.226779"},{"id":"C3201264CC8E5C5D","name":"曉麗苑","lat":"22.319078","long":"114.229349"},{"id":"C8830886D41FB5FA","name":"曉光街遊樂場","lat":"22.317021","long":"114.231554"},{"id":"9615800192F1667C","name":"梁式芝書院","lat":"22.314896","long":"114.233811"},{"id":"D17050E8964504BB","name":"秀明樓","lat":"22.315934","long":"114.233922"},{"id":"04DDF4F7F1C74876","name":"秀富樓","lat":"22.317096","long":"114.232170"},{"id":"BF08F9C08BB54A2B","name":"秀茂坪商場","lat":"22.319131","long":"114.231266"},{"id":"5FF5FCFD1121F033","name":"秀樂樓","lat":"22.321718","long":"114.230419"},{"id":"B809C24DC8C87767","name":"秀康樓","lat":"22.323111","long":"114.230621"},{"id":"3BA4DBB4520188DF","name":"秀程樓","lat":"22.320010","long":"114.233479"},{"id":"8B6421F5CD63D612","name":"寶達巴士總站","lat":"22.317529","long":"114.236240"}],"routeId":"13X","description":"正常班次"},{"company":"kmb","route":"13X","routeType":"2","dir":"I","orig":"尖沙咀東","dest":"寶達","stopList":[{"id":"E74C9012605BA534","name":"尖沙咀東總站","lat":"22.301922","long":"114.178413"},{"id":"BEEBDDB542A7E709","name":"香港科學館","lat":"22.301475","long":"114.176613"},{"id":"48184733EFE9D3E3","name":"尖沙咀麼地道","lat":"22.298487","long":"114.175834"},{"id":"1F2E60EDB4254D30","name":"尖沙咀中間道 (N2)","lat":"22.295816","long":"114.172187"},{"id":"D066F149BE3A1D28","name":"九龍清真寺 (N7)","lat":"22.298695","long":"114.171951"},{"id":"1B9CA570385CC6F2","name":"尖沙咀警署 (N14)","lat":"22.302619","long":"114.171661"},{"id":"E5E7111594073DE2","name":"油麻地南京街 (N24)","lat":"22.306300","long":"114.171428"},{"id":"B0668BFF6178BA0B","name":"勞資審裁處","lat":"22.308049","long":"114.172768"},{"id":"3CB94742E4B5E3E5","name":"衛理道","lat":"22.306781","long":"114.175981"},{"id":"AA97FFC49AE957A5","name":"紅磡山谷道","lat":"22.309361","long":"114.183871"},{"id":"416B7606A9A5FEEB","name":"啟德隧道轉車站 - 啟成街 (N1)","lat":"22.325231","long":"114.204423"},{"id":"C4AF473A49643363","name":"香港輔助警察隊總部","lat":"22.325532","long":"114.207998"},{"id":"921C19F6147C74A6","name":"振華苑","lat":"22.322426","long":"114.218357"},{"id":"47C3597662B81B47","name":"樂雅苑","lat":"22.322730","long":"114.220872"},{"id":"7EF64469471FE344","name":"樂華南邨","lat":"22.320826","long":"114.222941"},{"id":"0A03521DFD20FEA9","name":"康寧道公園","lat":"22.320977","long":"114.224024"},{"id":"DD5B5646768C5F09","name":"聯合醫院","lat":"22.322105","long":"114.226132"},{"id":"7ABD55FC15C048F0","name":"秀雅道遊樂場","lat":"22.321051","long":"114.226779"},{"id":"C3201264CC8E5C5D","name":"曉麗苑","lat":"22.319078","long":"114.229349"},{"id":"C8830886D41FB5FA","name":"曉光街遊樂場","lat":"22.317021","long":"114.231554"},{"id":"9615800192F1667C","name":"梁式芝書院","lat":"22.314896","long":"114.233811"},{"id":"D17050E8964504BB","name":"秀明樓","lat":"22.315934","long":"114.233922"},{"id":"04DDF4F7F1C74876","name":"秀富樓","lat":"22.317096","long":"114.232170"},{"id":"BF08F9C08BB54A2B","name":"秀茂坪商場","lat":"22.319131","long":"114.231266"},{"id":"5FF5FCFD1121F033","name":"秀樂樓","lat":"22.321718","long":"114.230419"},{"id":"B809C24DC8C87767","name":"秀康樓","lat":"22.323111","long":"114.230621"},{"id":"3BA4DBB4520188DF","name":"秀程樓","lat":"22.320010","long":"114.233479"},{"id":"8B6421F5CD63D612","name":"寶達巴士總站","lat":"22.317529","long":"114.236240"}],"routeId":"13X","description":"特別班次"}]