[{"company":"nwfb","route":"148R","routeType":null,"dir":"I","orig":"青衣(長安)","dest":"灣仔 (會展新翼)","stopList":[],"routeId":"148R","description":"正常班次"},{"company":"nwfb","route":"148R","routeType":null,"dir":"O","orig":"灣仔 (會展新翼)","dest":"青衣(長安)","stopList":[{},{"id":"001475","name":"海底隧道收費廣場","lat":"22.302817792091","long":"114.18008423053"},{"id":"001423","name":"銘基書院, 櫻桃街","lat":"22.318582002091","long":"114.16438793053"},{"id":"002878","name":"帝柏海灣, 櫻桃街","lat":"22.317851152091","long":"114.16189949053"},{"id":"003511","name":"奧運站, 深旺道","lat":"22.318440772091","long":"114.16036899053"},{"id":"003512","name":"君匯港, 深旺道","lat":"22.321902502091","long":"114.15970244053"},{"id":"003138","name":"長青邨青桃樓, 青衣路","lat":"22.345164902091","long":"114.10983153053"},{"id":"003120","name":"美景花園, 青康路","lat":"22.344847852091","long":"114.10773833053"},{"id":"003121","name":"長青邨, 青康路","lat":"22.348183272091","long":"114.10580045053"},{"id":"003122","name":"青盛苑, 青康路","lat":"22.348928592091","long":"114.10311255053"},{"id":"003123","name":"長康邨康順樓, 涌美路","lat":"22.350061452091","long":"114.10054431053"},{"id":"003124","name":"職安健學院, 涌美路","lat":"22.350950522091","long":"114.10291233053"},{"id":"003129","name":"長康邨康富樓, 涌美路","lat":"22.350509812091","long":"114.10596592053"},{"id":"003125","name":"青衣警署, 青衣鄉事會路","lat":"22.351904242091","long":"114.10740101053"},{"id":"003126","name":"綠悠雅苑, 楓樹窩路","lat":"22.352445792091","long":"114.10504684053"},{"id":"003127","name":"青衣邨宜業樓, 楓樹窩路","lat":"22.354145492091","long":"114.10222114053"},{"id":"003128","name":"楓樹窩體育館, 楓樹窩路","lat":"22.355749782091","long":"114.10210712053"},{"id":"002006","name":"長亨邨亨翠樓, 青衣西路","lat":"22.353272642091","long":"114.09885265053"},{"id":"003317","name":"曉峰園, 寮肚路","lat":"22.353950912091","long":"114.09746752053"},{"id":"003318","name":"長亨邨停車場, 寮肚路","lat":"22.356063042091","long":"114.09739830053"},{"id":"003319","name":"長宏邨","lat":"22.357352502091","long":"114.09614481053"},{"id":"003108","name":"長安邨","lat":"22.361614492091","long":"114.10334104053"}],"routeId":"148R","description":"正常班次"}]