[{"company":"kmb","route":"148R","routeType":"1","dir":"O","orig":"灣仔(會展)","dest":"青衣(長安邨)","stopList":[{"id":"635D6769D9C2C20F","name":"會展新翼","lat":"22.282866","long":"114.172300"},{"id":"11B2034DDF30617A","name":"紅磡海底隧道收費廣場","lat":"22.302459","long":"114.179851"},{"id":"22138E6C8051FDBD","name":"銘基書院","lat":"22.318555","long":"114.164859"},{"id":"3B8B261C1DA409BD","name":"帝柏海灣","lat":"22.317868","long":"114.162187"},{"id":"9DA7325E4238402B","name":"奧運站","lat":"22.318378","long":"114.160423"},{"id":"195C509959C6A799","name":"君匯港","lat":"22.322229","long":"114.159642"},{"id":"6DF1AF2871D4B7D9","name":"長青邨青桃樓","lat":"22.344820","long":"114.109832"},{"id":"196A1E44C305C174","name":"美景花園","lat":"22.344755","long":"114.107760"},{"id":"BDE0F1679E1C8ABF","name":"長青巴士總站","lat":"22.348267","long":"114.105463"},{"id":"13458794A52910B0","name":"青盛苑","lat":"22.348861","long":"114.103381"},{"id":"67DFAB691BECE339","name":"長康邨康順樓","lat":"22.349838","long":"114.100522"},{"id":"6D016EBFA090D535","name":"職安健學院","lat":"22.351037","long":"114.102936"},{"id":"04D3244DD2B38746","name":"長康邨康富樓","lat":"22.350587","long":"114.105885"},{"id":"59B81980AC8F7878","name":"青衣警署","lat":"22.351792","long":"114.107458"},{"id":"4236C502F947A6DF","name":"綠悠雅苑","lat":"22.352449","long":"114.105116"},{"id":"C78F66DF6FA871B6","name":"青衣邨宜業樓","lat":"22.353967","long":"114.102140"},{"id":"8D7CB6C3D48258D6","name":"楓樹窩體育館","lat":"22.355589","long":"114.102107"},{"id":"CA1C0FB0345F9675","name":"長亨邨","lat":"22.353398","long":"114.098810"},{"id":"A2BE47AFF20CD4F6","name":"曉峰園","lat":"22.353940","long":"114.097467"},{"id":"CC6B75E6D60B4C57","name":"長亨邨停車場","lat":"22.355984","long":"114.097366"},{"id":"26AC2D471648CA0C","name":"長宏巴士總站","lat":"22.357309","long":"114.096206"},{"id":"00EC5193F83C6F76","name":"長安巴士總站","lat":"22.361544","long":"114.102887"}],"routeId":"148R","description":"正常班次"},{"company":"nwfb","route":"148R","routeType":null,"dir":"O","orig":"灣仔 (會展新翼)","dest":"青衣(長安)","stopList":[{"id":"003254","name":"灣仔 (會展新翼)","lat":"22.282785222091","long":"114.17217901053"},{"id":"001475","name":"海底隧道收費廣場","lat":"22.302817792091","long":"114.18008423053"},{"id":"001423","name":"銘基書院, 櫻桃街","lat":"22.318582002091","long":"114.16438793053"},{"id":"002878","name":"帝柏海灣, 櫻桃街","lat":"22.317851152091","long":"114.16189949053"},{"id":"003511","name":"奧運站, 深旺道","lat":"22.318440772091","long":"114.16036899053"},{"id":"003512","name":"君匯港, 深旺道","lat":"22.321902502091","long":"114.15970244053"},{"id":"003138","name":"長青邨青桃樓, 青衣路","lat":"22.345164902091","long":"114.10983153053"},{"id":"003120","name":"美景花園, 青康路","lat":"22.344847852091","long":"114.10773833053"},{"id":"003121","name":"長青邨, 青康路","lat":"22.348183272091","long":"114.10580045053"},{"id":"003122","name":"青盛苑, 青康路","lat":"22.348928592091","long":"114.10311255053"},{"id":"003123","name":"長康邨康順樓, 涌美路","lat":"22.350061452091","long":"114.10054431053"},{"id":"003124","name":"職安健學院, 涌美路","lat":"22.350950522091","long":"114.10291233053"},{"id":"003129","name":"長康邨康富樓, 涌美路","lat":"22.350509812091","long":"114.10596592053"},{"id":"003125","name":"青衣警署, 青衣鄉事會路","lat":"22.351904242091","long":"114.10740101053"},{"id":"003126","name":"綠悠雅苑, 楓樹窩路","lat":"22.352445792091","long":"114.10504684053"},{"id":"003127","name":"青衣邨宜業樓, 楓樹窩路","lat":"22.354145492091","long":"114.10222114053"},{"id":"003128","name":"楓樹窩體育館, 楓樹窩路","lat":"22.355749782091","long":"114.10210712053"},{"id":"002006","name":"長亨邨亨翠樓, 青衣西路","lat":"22.353272642091","long":"114.09885265053"},{"id":"003317","name":"曉峰園, 寮肚路","lat":"22.353950912091","long":"114.09746752053"},{"id":"003318","name":"長亨邨停車場, 寮肚路","lat":"22.356063042091","long":"114.09739830053"},{"id":"003319","name":"長宏邨","lat":"22.357352502091","long":"114.09614481053"},{"id":"003108","name":"長安邨","lat":"22.361614492091","long":"114.10334104053"}],"routeId":"148R","description":"正常班次"}]