[{"company":"nwfb","route":"15C","routeType":null,"dir":"I","orig":"花園道 (山頂纜車總站)","dest":"中環 (天星碼頭)","stopList":[{"id":"002761","name":"花園道山頂纜車站","lat":"22.277791942091","long":"114.15959654053"},{"id":"001106","name":"畢打街","lat":"22.281823852091","long":"114.15738082053"},{"id":"001143","name":"國際金融中心二期, 民耀街","lat":"22.284964992091","long":"114.15981958053"},{"id":"003339","name":"中環 (天星碼頭)","lat":"22.286125172091","long":"114.16143998053"}],"routeId":"15C"},{"company":"nwfb","route":"15C","routeType":null,"dir":"O","orig":"中環 (天星碼頭)","dest":"花園道 (山頂纜車總站)","stopList":[{"id":"003339","name":"中環 (天星碼頭)","lat":"22.286125172091","long":"114.16143998053"},{"id":"001031","name":"大會堂, 干諾道中","lat":"22.281868122091","long":"114.16153245053"},{"id":"002761","name":"花園道山頂纜車站","lat":"22.277791942091","long":"114.15959654053"}],"routeId":"15C"}]