[{"company":"gmb","route":"16A","routeType":1,"orig":"柴灣站","dest":"舂坎角(慈氏護養院)","stopList":[{"id":1,"name":"港鐵柴灣站巴士總站","lat":22.265241242808457,"long":22.265241242808457},{"id":2,"name":"環翠道東","lat":22.262117059014184,"long":22.262117059014184},{"id":3,"name":"歌連臣角道","lat":22.258604744403144,"long":22.258604744403144},{"id":4,"name":"大潭峽","lat":22.257115417853896,"long":22.257115417853896},{"id":5,"name":"石澳道","lat":22.256818454601802,"long":22.256818454601802},{"id":6,"name":"大潭道, 大潭水塘大霸北面","lat":22.24621878746544,"long":22.24621878746544},{"id":7,"name":"大潭道, 近大潭水塘道","lat":22.23980695397853,"long":22.23980695397853},{"id":8,"name":"大潭道, 紅山半島外","lat":22.235525977147653,"long":22.235525977147653},{"id":9,"name":"大潭道","lat":22.22849247109166,"long":22.22849247109166},{"id":10,"name":"赤柱灘道大潭村外","lat":22.219697652629254,"long":22.219697652629254},{"id":11,"name":"赤柱廣場（馬坑）","lat":22.22009428214013,"long":22.22009428214013},{"id":12,"name":"環角道, 龍欣苑龍駿閣外","lat":22.222188414165704,"long":22.222188414165704},{"id":13,"name":"環角道，馬坑邨觀馬樓對出","lat":22.220497560297808,"long":22.220497560297808},{"id":14,"name":"舂磡角道, 海暉花園外","lat":22.216141164838984,"long":22.216141164838984},{"id":15,"name":"舂磡角道, 賽馬會慈氏護養院","lat":22.211816609123183,"long":22.211816609123183}],"routeId":2002287,"description":"正常班次"},{"company":"gmb","route":"16A","routeType":2,"orig":"舂坎角(慈氏護養院)","dest":"柴灣站","stopList":[{"id":1,"name":"舂磡角道, 賽馬會慈氏護養院","lat":22.211816609123183,"long":22.211816609123183},{"id":2,"name":"舂磡角道, 海暉花園外","lat":22.21629470371054,"long":22.21629470371054},{"id":3,"name":"環角道，馬坑邨觀馬樓","lat":22.220408171703784,"long":22.220408171703784},{"id":4,"name":"環角道, 龍欣苑龍駿閣對出","lat":22.22229525215026,"long":22.22229525215026},{"id":5,"name":"赤柱廣場（馬坑）","lat":22.22009428214013,"long":22.22009428214013},{"id":6,"name":"赤柱灘道大潭村外","lat":22.219697652629254,"long":22.219697652629254},{"id":7,"name":"赤柱村道","lat":22.22404139362878,"long":22.22404139362878},{"id":8,"name":"大潭道","lat":22.228600861362377,"long":22.228600861362377},{"id":9,"name":"大潭道, 紅山半島對面","lat":22.235607319256548,"long":22.235607319256548},{"id":10,"name":"大潭道, 大潭水塘道","lat":22.240095967647203,"long":22.240095967647203},{"id":11,"name":"大潭道, 大潭水塘大霸北面","lat":22.246435547459082,"long":22.246435547459082},{"id":12,"name":"大潭峽","lat":22.25764968540803,"long":22.25764968540803},{"id":13,"name":"山翠苑","lat":22.269378794094358,"long":22.269378794094358},{"id":14,"name":"柴灣道, 循道衛理聯合教會興華村服務中心對面","lat":22.26812331487225,"long":22.26812331487225},{"id":15,"name":"港鐵柴灣站巴士總站","lat":22.265241242808457,"long":22.265241242808457}],"routeId":2002287,"description":"正常班次"},{"company":"gmb","route":"16A","routeType":1,"orig":"豐盛街","dest":"坪石邨(循環線)","stopList":[{"id":1,"name":"豐盛街, 豐盛街紀律部隊宿舍1座外","lat":22.338369235904015,"long":22.338369235904015},{"id":2,"name":"豐盛街, 曉暉花園1座外","lat":22.337424267352493,"long":22.337424267352493},{"id":3,"name":"清水灣道, 彩雲商場","lat":22.333474336765807,"long":22.333474336765807},{"id":4,"name":"清水灣道坪石邨紅石樓外","lat":22.333879895400624,"long":22.333879895400624},{"id":5,"name":"清水灣道, 彩雲商場","lat":22.33374519476139,"long":22.33374519476139},{"id":6,"name":"豐盛街, 豐盛街紀律部隊宿舍1座外","lat":22.338412922516124,"long":22.338412922516124}],"routeId":2004630,"description":"特別班次"}]