[{"company":"kmb","route":"171","routeType":"1","dir":"O","orig":"荔枝角","dest":"海怡半島","stopList":[{"id":"636F6AAF3B891E82","name":"荔枝角巴士總站","lat":"22.341579","long":"114.136687"},{"id":"79BB89DA868D93CF","name":"荔灣道","lat":"22.339994","long":"114.139622"},{"id":"BE47845FF3E717FC","name":"蘭秀道","lat":"22.338462","long":"114.140765"},{"id":"F01F8CF411A34AA7","name":"荔枝角站","lat":"22.337559","long":"114.148620"},{"id":"AE9F399F5ACF4837","name":"昌華街","lat":"22.338579","long":"114.152137"},{"id":"9DA9C859E574B8B4","name":"長沙灣站","lat":"22.336841","long":"114.154597"},{"id":"A701BCC43DF54B6B","name":"長沙灣東京街","lat":"22.335199","long":"114.156697"},{"id":"FC28F96F0BAF8FF7","name":"深水埗欽州街","lat":"22.332413","long":"114.160366"},{"id":"1E29A8A8D3F6BABB","name":"深水埗北河街","lat":"22.330875","long":"114.162332"},{"id":"E553B839AD6A8C3D","name":"深水埗楓樹街","lat":"22.328312","long":"114.165629"},{"id":"889F84EBA6D9571A","name":"太子站 (S2)","lat":"22.325717","long":"114.168181"},{"id":"6FFA120DD2FA4790","name":"旺角水渠道 (S7)","lat":"22.323517","long":"114.168615"},{"id":"32491C3A5645AD42","name":"旺角奶路臣街 (S17)","lat":"22.318150","long":"114.169678"},{"id":"C0AA7F3501EFA657","name":"旺角登打士街 (S25)","lat":"22.314939","long":"114.170396"},{"id":"337C68B5F413E04E","name":"油麻地文明里 (S32)","lat":"22.312166","long":"114.170935"},{"id":"64E7A52D975DF3FF","name":"勞資審裁處","lat":"22.308172","long":"114.172572"},{"id":"1DD522300A4B9406","name":"香港理工大學第八期","lat":"22.306393","long":"114.180068"},{"id":"6DD60A482B4CDAF6","name":"紅磡海底隧道收費廣場","lat":"22.302870","long":"114.180752"},{"id":"719B6A48C203AFBA","name":"香港仔隧道","lat":"22.249737","long":"114.175302"},{"id":"4BF5A563B95D2F42","name":"黃竹坑遊樂場","lat":"22.250307","long":"114.170477"},{"id":"9AD628EDE1178D24","name":"黃竹坑業興街","lat":"22.249172","long":"114.167885"},{"id":"3147FEC6D6DC535A","name":"勝利工廠大廈","lat":"22.248388","long":"114.162899"},{"id":"4830E097480D3AD6","name":"香港真光書院","lat":"22.241765","long":"114.157937"},{"id":"EE1C91F3EDCEBB7E","name":"東興樓","lat":"22.240597","long":"114.155756"},{"id":"277B784B9369F9E1","name":"利東街市","lat":"22.241668","long":"114.154800"},{"id":"85363AEF68CB6277","name":"鴨脷洲徑","lat":"22.243378","long":"114.156939"},{"id":"5A7CD7DCB08F92C2","name":"利枝道","lat":"22.243062","long":"114.155087"},{"id":"ED29F1957E0D38EC","name":"御庭園","lat":"22.244029","long":"114.149803"},{"id":"A082B0B376063B20","name":"怡韻閣","lat":"22.243103","long":"114.147506"},{"id":"579FD884D6371179","name":"海韻閣","lat":"22.244474","long":"114.146993"},{"id":"C95F46AD9BB057BC","name":"海怡半島巴士總站","lat":"22.242605","long":"114.149080"}],"routeId":"171","description":"正常班次"},{"company":"kmb","route":"171","routeType":"2","dir":"O","orig":"荔枝角","dest":"海怡半島","stopList":[{"id":"636F6AAF3B891E82","name":"荔枝角巴士總站","lat":"22.341579","long":"114.136687"},{"id":"79BB89DA868D93CF","name":"荔灣道","lat":"22.339994","long":"114.139622"},{"id":"BE47845FF3E717FC","name":"蘭秀道","lat":"22.338462","long":"114.140765"},{"id":"F01F8CF411A34AA7","name":"荔枝角站","lat":"22.337559","long":"114.148620"},{"id":"AE9F399F5ACF4837","name":"昌華街","lat":"22.338579","long":"114.152137"},{"id":"9DA9C859E574B8B4","name":"長沙灣站","lat":"22.336841","long":"114.154597"},{"id":"A701BCC43DF54B6B","name":"長沙灣東京街","lat":"22.335199","long":"114.156697"},{"id":"FC28F96F0BAF8FF7","name":"深水埗欽州街","lat":"22.332413","long":"114.160366"},{"id":"1E29A8A8D3F6BABB","name":"深水埗北河街","lat":"22.330875","long":"114.162332"},{"id":"E553B839AD6A8C3D","name":"深水埗楓樹街","lat":"22.328312","long":"114.165629"},{"id":"889F84EBA6D9571A","name":"太子站 (S2)","lat":"22.325717","long":"114.168181"},{"id":"6FFA120DD2FA4790","name":"旺角水渠道 (S7)","lat":"22.323517","long":"114.168615"},{"id":"32491C3A5645AD42","name":"旺角奶路臣街 (S17)","lat":"22.318150","long":"114.169678"},{"id":"C0AA7F3501EFA657","name":"旺角登打士街 (S25)","lat":"22.314939","long":"114.170396"},{"id":"337C68B5F413E04E","name":"油麻地文明里 (S32)","lat":"22.312166","long":"114.170935"},{"id":"64E7A52D975DF3FF","name":"勞資審裁處","lat":"22.308172","long":"114.172572"},{"id":"1DD522300A4B9406","name":"香港理工大學第八期","lat":"22.306393","long":"114.180068"},{"id":"6DD60A482B4CDAF6","name":"紅磡海底隧道收費廣場","lat":"22.302870","long":"114.180752"},{"id":"719B6A48C203AFBA","name":"香港仔隧道","lat":"22.249737","long":"114.175302"},{"id":"56D43C634272F125","name":"海洋公園","lat":"22.246718","long":"114.173849"},{"id":"4BF5A563B95D2F42","name":"黃竹坑遊樂場","lat":"22.250307","long":"114.170477"},{"id":"9AD628EDE1178D24","name":"黃竹坑業興街","lat":"22.249172","long":"114.167885"},{"id":"3147FEC6D6DC535A","name":"勝利工廠大廈","lat":"22.248388","long":"114.162899"},{"id":"4830E097480D3AD6","name":"香港真光書院","lat":"22.241765","long":"114.157937"},{"id":"EE1C91F3EDCEBB7E","name":"東興樓","lat":"22.240597","long":"114.155756"},{"id":"277B784B9369F9E1","name":"利東街市","lat":"22.241668","long":"114.154800"},{"id":"85363AEF68CB6277","name":"鴨脷洲徑","lat":"22.243378","long":"114.156939"},{"id":"5A7CD7DCB08F92C2","name":"利枝道","lat":"22.243062","long":"114.155087"},{"id":"ED29F1957E0D38EC","name":"御庭園","lat":"22.244029","long":"114.149803"},{"id":"A082B0B376063B20","name":"怡韻閣","lat":"22.243103","long":"114.147506"},{"id":"579FD884D6371179","name":"海韻閣","lat":"22.244474","long":"114.146993"},{"id":"C95F46AD9BB057BC","name":"海怡半島巴士總站","lat":"22.242605","long":"114.149080"}],"routeId":"171","description":"特別班次"},{"company":"kmb","route":"171","routeType":"5","dir":"O","orig":"荔枝角","dest":"利東邨","stopList":[{"id":"636F6AAF3B891E82","name":"荔枝角巴士總站","lat":"22.341579","long":"114.136687"},{"id":"79BB89DA868D93CF","name":"荔灣道","lat":"22.339994","long":"114.139622"},{"id":"BE47845FF3E717FC","name":"蘭秀道","lat":"22.338462","long":"114.140765"},{"id":"F01F8CF411A34AA7","name":"荔枝角站","lat":"22.337559","long":"114.148620"},{"id":"AE9F399F5ACF4837","name":"昌華街","lat":"22.338579","long":"114.152137"},{"id":"9DA9C859E574B8B4","name":"長沙灣站","lat":"22.336841","long":"114.154597"},{"id":"A701BCC43DF54B6B","name":"長沙灣東京街","lat":"22.335199","long":"114.156697"},{"id":"FC28F96F0BAF8FF7","name":"深水埗欽州街","lat":"22.332413","long":"114.160366"},{"id":"1E29A8A8D3F6BABB","name":"深水埗北河街","lat":"22.330875","long":"114.162332"},{"id":"E553B839AD6A8C3D","name":"深水埗楓樹街","lat":"22.328312","long":"114.165629"},{"id":"889F84EBA6D9571A","name":"太子站 (S2)","lat":"22.325717","long":"114.168181"},{"id":"6FFA120DD2FA4790","name":"旺角水渠道 (S7)","lat":"22.323517","long":"114.168615"},{"id":"32491C3A5645AD42","name":"旺角奶路臣街 (S17)","lat":"22.318150","long":"114.169678"},{"id":"C0AA7F3501EFA657","name":"旺角登打士街 (S25)","lat":"22.314939","long":"114.170396"},{"id":"337C68B5F413E04E","name":"油麻地文明里 (S32)","lat":"22.312166","long":"114.170935"},{"id":"64E7A52D975DF3FF","name":"勞資審裁處","lat":"22.308172","long":"114.172572"},{"id":"1DD522300A4B9406","name":"香港理工大學第八期","lat":"22.306393","long":"114.180068"},{"id":"6DD60A482B4CDAF6","name":"紅磡海底隧道收費廣場","lat":"22.302870","long":"114.180752"},{"id":"719B6A48C203AFBA","name":"香港仔隧道","lat":"22.249737","long":"114.175302"},{"id":"4BF5A563B95D2F42","name":"黃竹坑遊樂場","lat":"22.250307","long":"114.170477"},{"id":"9AD628EDE1178D24","name":"黃竹坑業興街","lat":"22.249172","long":"114.167885"},{"id":"3147FEC6D6DC535A","name":"勝利工廠大廈","lat":"22.248388","long":"114.162899"},{"id":"4830E097480D3AD6","name":"香港真光書院","lat":"22.241765","long":"114.157937"},{"id":"EE1C91F3EDCEBB7E","name":"東興樓","lat":"22.240597","long":"114.155756"}],"routeId":"171","description":"特別班次"},{"company":"kmb","route":"171","routeType":"6","dir":"O","orig":"荔枝角","dest":"海怡半島","stopList":[{"id":"636F6AAF3B891E82","name":"荔枝角巴士總站","lat":"22.341579","long":"114.136687"},{"id":"79BB89DA868D93CF","name":"荔灣道","lat":"22.339994","long":"114.139622"},{"id":"BE47845FF3E717FC","name":"蘭秀道","lat":"22.338462","long":"114.140765"},{"id":"F01F8CF411A34AA7","name":"荔枝角站","lat":"22.337559","long":"114.148620"},{"id":"AE9F399F5ACF4837","name":"昌華街","lat":"22.338579","long":"114.152137"},{"id":"9DA9C859E574B8B4","name":"長沙灣站","lat":"22.336841","long":"114.154597"},{"id":"A701BCC43DF54B6B","name":"長沙灣東京街","lat":"22.335199","long":"114.156697"},{"id":"FC28F96F0BAF8FF7","name":"深水埗欽州街","lat":"22.332413","long":"114.160366"},{"id":"1E29A8A8D3F6BABB","name":"深水埗北河街","lat":"22.330875","long":"114.162332"},{"id":"E553B839AD6A8C3D","name":"深水埗楓樹街","lat":"22.328312","long":"114.165629"},{"id":"889F84EBA6D9571A","name":"太子站 (S2)","lat":"22.325717","long":"114.168181"},{"id":"6FFA120DD2FA4790","name":"旺角水渠道 (S7)","lat":"22.323517","long":"114.168615"},{"id":"32491C3A5645AD42","name":"旺角奶路臣街 (S17)","lat":"22.318150","long":"114.169678"},{"id":"C0AA7F3501EFA657","name":"旺角登打士街 (S25)","lat":"22.314939","long":"114.170396"},{"id":"337C68B5F413E04E","name":"油麻地文明里 (S32)","lat":"22.312166","long":"114.170935"},{"id":"64E7A52D975DF3FF","name":"勞資審裁處","lat":"22.308172","long":"114.172572"},{"id":"1DD522300A4B9406","name":"香港理工大學第八期","lat":"22.306393","long":"114.180068"},{"id":"6DD60A482B4CDAF6","name":"紅磡海底隧道收費廣場","lat":"22.302870","long":"114.180752"},{"id":"719B6A48C203AFBA","name":"香港仔隧道","lat":"22.249737","long":"114.175302"},{"id":"4BF5A563B95D2F42","name":"黃竹坑遊樂場","lat":"22.250307","long":"114.170477"},{"id":"9AD628EDE1178D24","name":"黃竹坑業興街","lat":"22.249172","long":"114.167885"},{"id":"3147FEC6D6DC535A","name":"勝利工廠大廈","lat":"22.248388","long":"114.162899"},{"id":"85363AEF68CB6277","name":"鴨脷洲徑","lat":"22.243378","long":"114.156939"},{"id":"5A7CD7DCB08F92C2","name":"利枝道","lat":"22.243062","long":"114.155087"},{"id":"ED29F1957E0D38EC","name":"御庭園","lat":"22.244029","long":"114.149803"},{"id":"A082B0B376063B20","name":"怡韻閣","lat":"22.243103","long":"114.147506"},{"id":"579FD884D6371179","name":"海韻閣","lat":"22.244474","long":"114.146993"},{"id":"C95F46AD9BB057BC","name":"海怡半島巴士總站","lat":"22.242605","long":"114.149080"}],"routeId":"171","description":"特別班次"},{"company":"kmb","route":"171","routeType":"7","dir":"O","orig":"荔枝角","dest":"海怡半島","stopList":[{"id":"636F6AAF3B891E82","name":"荔枝角巴士總站","lat":"22.341579","long":"114.136687"},{"id":"79BB89DA868D93CF","name":"荔灣道","lat":"22.339994","long":"114.139622"},{"id":"BE47845FF3E717FC","name":"蘭秀道","lat":"22.338462","long":"114.140765"},{"id":"F01F8CF411A34AA7","name":"荔枝角站","lat":"22.337559","long":"114.148620"},{"id":"AE9F399F5ACF4837","name":"昌華街","lat":"22.338579","long":"114.152137"},{"id":"9DA9C859E574B8B4","name":"長沙灣站","lat":"22.336841","long":"114.154597"},{"id":"A701BCC43DF54B6B","name":"長沙灣東京街","lat":"22.335199","long":"114.156697"},{"id":"FC28F96F0BAF8FF7","name":"深水埗欽州街","lat":"22.332413","long":"114.160366"},{"id":"1E29A8A8D3F6BABB","name":"深水埗北河街","lat":"22.330875","long":"114.162332"},{"id":"E553B839AD6A8C3D","name":"深水埗楓樹街","lat":"22.328312","long":"114.165629"},{"id":"889F84EBA6D9571A","name":"太子站 (S2)","lat":"22.325717","long":"114.168181"},{"id":"6FFA120DD2FA4790","name":"旺角水渠道 (S7)","lat":"22.323517","long":"114.168615"},{"id":"32491C3A5645AD42","name":"旺角奶路臣街 (S17)","lat":"22.318150","long":"114.169678"},{"id":"C0AA7F3501EFA657","name":"旺角登打士街 (S25)","lat":"22.314939","long":"114.170396"},{"id":"337C68B5F413E04E","name":"油麻地文明里 (S32)","lat":"22.312166","long":"114.170935"},{"id":"64E7A52D975DF3FF","name":"勞資審裁處","lat":"22.308172","long":"114.172572"},{"id":"1DD522300A4B9406","name":"香港理工大學第八期","lat":"22.306393","long":"114.180068"},{"id":"6DD60A482B4CDAF6","name":"紅磡海底隧道收費廣場","lat":"22.302870","long":"114.180752"},{"id":"719B6A48C203AFBA","name":"香港仔隧道","lat":"22.249737","long":"114.175302"},{"id":"4BF5A563B95D2F42","name":"黃竹坑遊樂場","lat":"22.250307","long":"114.170477"},{"id":"9AD628EDE1178D24","name":"黃竹坑業興街","lat":"22.249172","long":"114.167885"},{"id":"3147FEC6D6DC535A","name":"勝利工廠大廈","lat":"22.248388","long":"114.162899"},{"id":"4830E097480D3AD6","name":"香港真光書院","lat":"22.241765","long":"114.157937"},{"id":"EE1C91F3EDCEBB7E","name":"東興樓","lat":"22.240597","long":"114.155756"},{"id":"277B784B9369F9E1","name":"利東街市","lat":"22.241668","long":"114.154800"},{"id":"85363AEF68CB6277","name":"鴨脷洲徑","lat":"22.243378","long":"114.156939"},{"id":"5A7CD7DCB08F92C2","name":"利枝道","lat":"22.243062","long":"114.155087"},{"id":"ED29F1957E0D38EC","name":"御庭園","lat":"22.244029","long":"114.149803"},{"id":"C95F46AD9BB057BC","name":"海怡半島巴士總站","lat":"22.242605","long":"114.149080"}],"routeId":"171","description":"特別班次"},{"company":"kmb","route":"171","routeType":"1","dir":"I","orig":"海怡半島","dest":"荔枝角","stopList":[{"id":"C95F46AD9BB057BC","name":"海怡半島巴士總站","lat":"22.242605","long":"114.149080"},{"id":"96BA48FFCBDB7791","name":"美暉閣","lat":"22.243021","long":"114.147593"},{"id":"2208DE69AD7B38DA","name":"海韻閣","lat":"22.244477","long":"114.146951"},{"id":"C355E5F825B9864F","name":"利澤樓","lat":"22.244247","long":"114.149802"},{"id":"38B4D64E5D9DA9AB","name":"利枝道","lat":"22.243189","long":"114.155145"},{"id":"7C27E54D8AEC683A","name":"鴨脷洲徑","lat":"22.243649","long":"114.156784"},{"id":"659365A8AB2B98E9","name":"利東邨東興樓","lat":"22.240598","long":"114.155559"},{"id":"3227505D6CDA32C9","name":"利東街市","lat":"22.241612","long":"114.154802"},{"id":"7906D320A27CAD88","name":"漁安苑","lat":"22.243011","long":"114.157825"},{"id":"EC839AE65935149B","name":"香港仔工業學校","lat":"22.248699","long":"114.162511"},{"id":"AE4E8F82AD65348C","name":"黃竹坑業興街","lat":"22.249669","long":"114.168177"},{"id":"225E8FAE869B3308","name":"香港仔隧道","lat":"22.250048","long":"114.176065"},{"id":"4A626ACD36F8ED7A","name":"堅拿道西","lat":"22.277431","long":"114.180935"},{"id":"153D32217234A0F0","name":"紅磡海底隧道收費廣場","lat":"22.302576","long":"114.179914"},{"id":"893BBB901005C3E6","name":"拔萃女書院","lat":"22.307468","long":"114.173055"},{"id":"BBE77B90CE43AEFA","name":"油麻地眾坊街 (N39)","lat":"22.310674","long":"114.170957"},{"id":"246B98B8B9F002F0","name":"旺角登打士街 (N50)","lat":"22.314943","long":"114.170107"},{"id":"3B7368AAB82CC612","name":"旺角山東街 (N58)","lat":"22.316986","long":"114.169714"},{"id":"730AB612DCDF58C8","name":"旺角鴉蘭街 (N74)","lat":"22.323288","long":"114.168404"},{"id":"1A85A6C132C4197F","name":"深水埗楓樹街","lat":"22.327897","long":"114.165700"},{"id":"C3FD63E226246052","name":"深水埗北河街","lat":"22.330756","long":"114.162065"},{"id":"098AF67CBBB9FBA9","name":"怡閣苑","lat":"22.333466","long":"114.158514"},{"id":"0BADB28A19C2E0BE","name":"貿易廣場","lat":"22.336740","long":"114.154311"},{"id":"A1AA846971415968","name":"長沙灣徑","lat":"22.338091","long":"114.150935"},{"id":"6762DEA1B89E6354","name":"長沙灣長荔街","lat":"22.336786","long":"114.147023"},{"id":"70349D91EC82AFE1","name":"美孚站 (B4)","lat":"22.336449","long":"114.141577"},{"id":"E35B5F1B80E085E6","name":"蘭秀道","lat":"22.338565","long":"114.140480"},{"id":"EBEF10F95443B217","name":"荔灣道","lat":"22.339842","long":"114.139735"},{"id":"636F6AAF3B891E82","name":"荔枝角巴士總站","lat":"22.341579","long":"114.136687"}],"routeId":"171","description":"正常班次"},{"company":"kmb","route":"171","routeType":"2","dir":"I","orig":"海怡半島","dest":"荔枝角","stopList":[{"id":"C95F46AD9BB057BC","name":"海怡半島巴士總站","lat":"22.242605","long":"114.149080"},{"id":"96BA48FFCBDB7791","name":"美暉閣","lat":"22.243021","long":"114.147593"},{"id":"2208DE69AD7B38DA","name":"海韻閣","lat":"22.244477","long":"114.146951"},{"id":"C355E5F825B9864F","name":"利澤樓","lat":"22.244247","long":"114.149802"},{"id":"38B4D64E5D9DA9AB","name":"利枝道","lat":"22.243189","long":"114.155145"},{"id":"7C27E54D8AEC683A","name":"鴨脷洲徑","lat":"22.243649","long":"114.156784"},{"id":"659365A8AB2B98E9","name":"利東邨東興樓","lat":"22.240598","long":"114.155559"},{"id":"3227505D6CDA32C9","name":"利東街市","lat":"22.241612","long":"114.154802"},{"id":"7906D320A27CAD88","name":"漁安苑","lat":"22.243011","long":"114.157825"},{"id":"EC839AE65935149B","name":"香港仔工業學校","lat":"22.248699","long":"114.162511"},{"id":"AE4E8F82AD65348C","name":"黃竹坑業興街","lat":"22.249669","long":"114.168177"},{"id":"5AC3E62D33B2D85D","name":"海洋公園","lat":"22.246718","long":"114.173849"},{"id":"225E8FAE869B3308","name":"香港仔隧道","lat":"22.250048","long":"114.176065"},{"id":"4A626ACD36F8ED7A","name":"堅拿道西","lat":"22.277431","long":"114.180935"},{"id":"153D32217234A0F0","name":"紅磡海底隧道收費廣場","lat":"22.302576","long":"114.179914"},{"id":"893BBB901005C3E6","name":"拔萃女書院","lat":"22.307468","long":"114.173055"},{"id":"BBE77B90CE43AEFA","name":"油麻地眾坊街 (N39)","lat":"22.310674","long":"114.170957"},{"id":"246B98B8B9F002F0","name":"旺角登打士街 (N50)","lat":"22.314943","long":"114.170107"},{"id":"3B7368AAB82CC612","name":"旺角山東街 (N58)","lat":"22.316986","long":"114.169714"},{"id":"730AB612DCDF58C8","name":"旺角鴉蘭街 (N74)","lat":"22.323288","long":"114.168404"},{"id":"1A85A6C132C4197F","name":"深水埗楓樹街","lat":"22.327897","long":"114.165700"},{"id":"C3FD63E226246052","name":"深水埗北河街","lat":"22.330756","long":"114.162065"},{"id":"098AF67CBBB9FBA9","name":"怡閣苑","lat":"22.333466","long":"114.158514"},{"id":"0BADB28A19C2E0BE","name":"貿易廣場","lat":"22.336740","long":"114.154311"},{"id":"A1AA846971415968","name":"長沙灣徑","lat":"22.338091","long":"114.150935"},{"id":"6762DEA1B89E6354","name":"長沙灣長荔街","lat":"22.336786","long":"114.147023"},{"id":"70349D91EC82AFE1","name":"美孚站 (B4)","lat":"22.336449","long":"114.141577"},{"id":"E35B5F1B80E085E6","name":"蘭秀道","lat":"22.338565","long":"114.140480"},{"id":"EBEF10F95443B217","name":"荔灣道","lat":"22.339842","long":"114.139735"},{"id":"636F6AAF3B891E82","name":"荔枝角巴士總站","lat":"22.341579","long":"114.136687"}],"routeId":"171","description":"特別班次"},{"company":"kmb","route":"171","routeType":"9","dir":"I","orig":"海怡半島","dest":"荔枝角","stopList":[{"id":"C95F46AD9BB057BC","name":"海怡半島巴士總站","lat":"22.242605","long":"114.149080"},{"id":"C355E5F825B9864F","name":"利澤樓","lat":"22.244247","long":"114.149802"},{"id":"38B4D64E5D9DA9AB","name":"利枝道","lat":"22.243189","long":"114.155145"},{"id":"7C27E54D8AEC683A","name":"鴨脷洲徑","lat":"22.243649","long":"114.156784"},{"id":"659365A8AB2B98E9","name":"利東邨東興樓","lat":"22.240598","long":"114.155559"},{"id":"3227505D6CDA32C9","name":"利東街市","lat":"22.241612","long":"114.154802"},{"id":"7906D320A27CAD88","name":"漁安苑","lat":"22.243011","long":"114.157825"},{"id":"EC839AE65935149B","name":"香港仔工業學校","lat":"22.248699","long":"114.162511"},{"id":"AE4E8F82AD65348C","name":"黃竹坑業興街","lat":"22.249669","long":"114.168177"},{"id":"225E8FAE869B3308","name":"香港仔隧道","lat":"22.250048","long":"114.176065"},{"id":"4A626ACD36F8ED7A","name":"堅拿道西","lat":"22.277431","long":"114.180935"},{"id":"153D32217234A0F0","name":"紅磡海底隧道收費廣場","lat":"22.302576","long":"114.179914"},{"id":"893BBB901005C3E6","name":"拔萃女書院","lat":"22.307468","long":"114.173055"},{"id":"BBE77B90CE43AEFA","name":"油麻地眾坊街 (N39)","lat":"22.310674","long":"114.170957"},{"id":"246B98B8B9F002F0","name":"旺角登打士街 (N50)","lat":"22.314943","long":"114.170107"},{"id":"3B7368AAB82CC612","name":"旺角山東街 (N58)","lat":"22.316986","long":"114.169714"},{"id":"730AB612DCDF58C8","name":"旺角鴉蘭街 (N74)","lat":"22.323288","long":"114.168404"},{"id":"1A85A6C132C4197F","name":"深水埗楓樹街","lat":"22.327897","long":"114.165700"},{"id":"C3FD63E226246052","name":"深水埗北河街","lat":"22.330756","long":"114.162065"},{"id":"098AF67CBBB9FBA9","name":"怡閣苑","lat":"22.333466","long":"114.158514"},{"id":"0BADB28A19C2E0BE","name":"貿易廣場","lat":"22.336740","long":"114.154311"},{"id":"A1AA846971415968","name":"長沙灣徑","lat":"22.338091","long":"114.150935"},{"id":"6762DEA1B89E6354","name":"長沙灣長荔街","lat":"22.336786","long":"114.147023"},{"id":"70349D91EC82AFE1","name":"美孚站 (B4)","lat":"22.336449","long":"114.141577"},{"id":"E35B5F1B80E085E6","name":"蘭秀道","lat":"22.338565","long":"114.140480"},{"id":"EBEF10F95443B217","name":"荔灣道","lat":"22.339842","long":"114.139735"},{"id":"636F6AAF3B891E82","name":"荔枝角巴士總站","lat":"22.341579","long":"114.136687"}],"routeId":"171","description":"特別班次"},{"company":"ctb","route":"171","routeType":null,"dir":"I","orig":"荔枝角","dest":"海怡半島","stopList":[{"id":"002847","name":"荔枝角","lat":"22.341509492091","long":"114.13715589053"},{"id":"003270","name":"荔灣道, 美荔道","lat":"22.339770672091","long":"114.13993243053"},{"id":"002848","name":"蘭秀道, 美荔道","lat":"22.338454852091","long":"114.14070431053"},{"id":"001436","name":"荔枝角站, 長沙灣道","lat":"22.337482972091","long":"114.14837354053"},{"id":"001437","name":"昌華街, 長沙灣道","lat":"22.338601292091","long":"114.15198567053"},{"id":"001440","name":"長沙灣站, 長沙灣道","lat":"22.336700112091","long":"114.15486415053"},{"id":"001441","name":"東京街, 長沙灣道","lat":"22.335144032091","long":"114.15680913053"},{"id":"001443","name":"欽州街, 長沙灣道","lat":"22.332255142091","long":"114.16045790053"},{"id":"001444","name":"北河街, 長沙灣道","lat":"22.330910012091","long":"114.16219576053"},{"id":"001447","name":"楓樹街, 長沙灣道","lat":"22.328333182091","long":"114.16552917053"},{"id":"001556","name":"太子站, 彌敦道","lat":"22.325863322091","long":"114.16808965053"},{"id":"001557","name":"聯合廣場, 彌敦道","lat":"22.323454062091","long":"114.16858963053"},{"id":"001559","name":"銀行中心, 彌敦道","lat":"22.318424162091","long":"114.16962058053"},{"id":"001562","name":"登打士街, 彌敦道","lat":"22.314748642091","long":"114.17037382053"},{"id":"001564","name":"文明里, 彌敦道","lat":"22.312210192091","long":"114.17088450053"},{"id":"001471","name":"勞資審裁處, 加士居道","lat":"22.308028422091","long":"114.17252808053"},{"id":"001411","name":"香港理工大學第八期, 漆咸道北","lat":"22.306388992091","long":"114.17999535053"},{"id":"001537","name":"海底隧道收費廣場","lat":"22.302678002091","long":"114.18065137053"},{"id":"002348","name":"香港仔隧道收費廣場","lat":"22.249770482091","long":"114.17533612053"},{"id":"002225","name":"海洋公園","lat":"22.247576642091","long":"114.17391579053"},{"id":"002355","name":"黃竹坑遊樂場, 黃竹坑道","lat":"22.250122902091","long":"114.16985106053"},{"id":"002356","name":"業興街, 黃竹坑道","lat":"22.249175622091","long":"114.16779618053"},{"id":"002358","name":"勝利工廠大廈, 黃竹坑道","lat":"22.248392422091","long":"114.16314899053"},{"id":"002213","name":"香港真光書院, 利東邨道","lat":"22.241680522091","long":"114.15792123053"},{"id":"002210","name":"利東邨東興樓, 利東邨道","lat":"22.240572052091","long":"114.15491479053"},{"id":"002211","name":"利東街市, 利東邨道","lat":"22.241479512091","long":"114.15483183053"},{"id":"002167","name":"鴨脷洲徑, 鴨脷洲橋道","lat":"22.243437112091","long":"114.15652985053"},{"id":"002168","name":"利枝道, 鴨脷洲橋道","lat":"22.243012942091","long":"114.15500259053"},{"id":"002169","name":"御庭園, 鴨脷洲橋道","lat":"22.244095462091","long":"114.14969945053"},{"id":"002936","name":"海怡半島怡韻閣, 海怡路","lat":"22.243391432091","long":"114.14632115053"},{"id":"002263","name":"海怡半島海韻閣, 海怡路","lat":"22.244439312091","long":"114.14732855053"},{"id":"002364","name":"海怡半島","lat":"22.242733542091","long":"114.14933054053"}],"routeId":"171","description":"正常班次"},{"company":"ctb","route":"171","routeType":null,"dir":"O","orig":"海怡半島","dest":"荔枝角","stopList":[{"id":"002364","name":"海怡半島","lat":"22.242733542091","long":"114.14933054053"},{"id":"002262","name":"海怡半島美暉閣, 海怡路","lat":"22.243157002091","long":"114.14715151053"},{"id":"002263","name":"海怡半島海韻閣, 海怡路","lat":"22.244439312091","long":"114.14732855053"},{"id":"002170","name":"鴨脷洲邨利澤樓, 鴨脷洲橋道","lat":"22.244216852091","long":"114.14986319053"},{"id":"002172","name":"利枝道, 鴨脷洲橋道","lat":"22.243305822091","long":"114.15525315053"},{"id":"002173","name":"鴨脷洲徑, 鴨脷洲橋道","lat":"22.243626692091","long":"114.15653776053"},{"id":"002210","name":"利東邨東興樓, 利東邨道","lat":"22.240572052091","long":"114.15491479053"},{"id":"002211","name":"利東街市, 利東邨道","lat":"22.241479512091","long":"114.15483183053"},{"id":"002212","name":"漁安苑, 利東邨道","lat":"22.243031932091","long":"114.15782740053"},{"id":"002343","name":"香港仔工業學校, 黃竹坑道","lat":"22.248699582091","long":"114.16253441053"},{"id":"002383","name":"業興街, 黃竹坑道","lat":"22.249540662091","long":"114.16811154053"},{"id":"002225","name":"海洋公園","lat":"22.247576642091","long":"114.17391579053"},{"id":"002347","name":"香港仔隧道收費廣場","lat":"22.249960892091","long":"114.17585543053"},{"id":"002405","name":"堅拿道西","lat":"22.277412402091","long":"114.18097147053"},{"id":"001475","name":"海底隧道收費廣場","lat":"22.302817792091","long":"114.18008423053"},{"id":"001769","name":"拔萃女書院, 加士居道","lat":"22.307534682091","long":"114.17292169053"},{"id":"001547","name":"眾坊街, 彌敦道","lat":"22.310731692091","long":"114.17098889053"},{"id":"001548","name":"登打士街, 彌敦道","lat":"22.314815892091","long":"114.17018718053"},{"id":"001552","name":"山東街, 彌敦道","lat":"22.316744762091","long":"114.16978326053"},{"id":"001801","name":"鴉蘭街, 彌敦道","lat":"22.323441122091","long":"114.16840353053"},{"id":"001426","name":"楓樹街, 長沙灣道","lat":"22.328057822091","long":"114.16552576053"},{"id":"001429","name":"北河街, 長沙灣道","lat":"22.330763912091","long":"114.16206981053"},{"id":"001430","name":"怡閣苑, 長沙灣道","lat":"22.333565102091","long":"114.15843488053"},{"id":"001687","name":"貿易廣場, 長沙灣道","lat":"22.336862472091","long":"114.15420404053"},{"id":"002885","name":"長沙灣徑, 長沙灣道","lat":"22.338083142091","long":"114.15072445053"},{"id":"001434","name":"長荔街, 長沙灣道","lat":"22.336849532091","long":"114.14717828053"},{"id":"001517","name":"美孚, 荔枝角道","lat":"22.336503572091","long":"114.14114285053"},{"id":"002852","name":"蘭秀道, 美荔道","lat":"22.338600192091","long":"114.14054234053"},{"id":"002853","name":"荔灣道, 美荔道","lat":"22.339780522091","long":"114.13968433053"},{"id":"002847","name":"荔枝角","lat":"22.341509492091","long":"114.13715589053"}],"routeId":"171","description":"正常班次"}]