[{"company":"gmb","route":"17M","routeType":1,"orig":"太子站","dest":"九龍醫院","stopList":[{"id":20014246,"name":"西洋菜南街, 太子站","lat":22.323803487143728,"long":22.323803487143728},{"id":20014780,"name":"亞皆老街113號","lat":22.320114173142123,"long":22.320114173142123},{"id":20014781,"name":"亞皆老街, 近九龍胸肺科診所","lat":22.322009718320658,"long":22.322009718320658},{"id":20014782,"name":"九龍醫院正座","lat":22.32369236849014,"long":22.32369236849014},{"id":20014783,"name":"醫院管理局資訊科技大樓","lat":22.32350022144954,"long":22.32350022144954},{"id":20014784,"name":"九龍醫院康復大樓","lat":22.32474091225462,"long":22.32474091225462},{"id":20014198,"name":"太子道西, 近聖德肋撒醫院東座","lat":22.32676246547039,"long":22.32676246547039},{"id":20014785,"name":"太子道西, 近愛華閣（二期）","lat":22.32677546409933,"long":22.32677546409933},{"id":20014786,"name":"太子道西, 近伯爵街","lat":22.32605389150691,"long":22.32605389150691},{"id":20014787,"name":"太子道西, 近窩打老道","lat":22.325540442408027,"long":22.325540442408027},{"id":20014788,"name":"太子道西, 近恒泰大樓","lat":22.32494333824787,"long":22.32494333824787},{"id":20014246,"name":"西洋菜南街,近長寧大廈","lat":22.323803487143728,"long":22.323803487143728}],"routeId":2006677,"description":"正常班次"},{"company":"gmb","route":"17M","routeType":1,"orig":"九龍醫院","dest":"通菜街","stopList":[{"id":20014782,"name":"九龍醫院正座","lat":22.32369236849014,"long":22.32369236849014},{"id":20014783,"name":"醫院管理局資訊科技大樓","lat":22.32350022144954,"long":22.32350022144954},{"id":20014784,"name":"九龍醫院康復大樓","lat":22.32474091225462,"long":22.32474091225462},{"id":20014198,"name":"太子道西, 近聖德肋撒醫院東座","lat":22.32676246547039,"long":22.32676246547039},{"id":20014785,"name":"太子道西, 近愛華閣（二期）","lat":22.32677546409933,"long":22.32677546409933},{"id":20014786,"name":"太子道西, 近伯爵街","lat":22.32605389150691,"long":22.32605389150691},{"id":20014787,"name":"太子道西, 近窩打老道","lat":22.325540442408027,"long":22.325540442408027},{"id":20014788,"name":"太子道西, 近恒泰大樓","lat":22.32494333824787,"long":22.32494333824787},{"id":20000546,"name":"通菜街, 旺角警署外","lat":22.324673792247307,"long":22.324673792247307}],"routeId":2006679,"description":"特別班次"},{"company":"gmb","route":"17M","routeType":1,"orig":"寶琳站","dest":"翠林","stopList":[{"id":20001174,"name":"貿業路, 近寶琳站","lat":22.322766541614236,"long":22.322766541614236},{"id":20001175,"name":"寶豐路, 寶琳邨外","lat":22.324482650056822,"long":22.324482650056822},{"id":20001150,"name":"寶琳北路, 樂善堂劉德小學外","lat":22.32700249641062,"long":22.32700249641062},{"id":20014766,"name":"翠琳巴士總站","lat":22.322936619589193,"long":22.322936619589193}],"routeId":2006675,"description":"正常班次"},{"company":"gmb","route":"17M","routeType":2,"orig":"翠林","dest":"寶琳站","stopList":[{"id":20014766,"name":"翠琳巴士總站","lat":22.322936619589193,"long":22.322936619589193},{"id":20001169,"name":"寶琳北路, 寶琳邨寶仁樓對面","lat":22.32648076509209,"long":22.32648076509209},{"id":20005032,"name":"寶豐路, 新都城二期外","lat":22.324283938958235,"long":22.324283938958235},{"id":20001174,"name":"貿業路, 近寶琳站","lat":22.322766541614236,"long":22.322766541614236}],"routeId":2006675,"description":"正常班次"},{"company":"gmb","route":"17M","routeType":1,"orig":"翠林","dest":"寶琳站(經康寶路)","stopList":[{"id":20014766,"name":"翠琳巴士總站","lat":22.322936619589193,"long":22.322936619589193},{"id":20014774,"name":"寶豐路,近旭輝臺第一座","lat":22.32305465796332,"long":22.32305465796332},{"id":20001174,"name":"貿業路, 近寶琳站","lat":22.322766541614236,"long":22.322766541614236}],"routeId":2006676,"description":"早上特別班次(經寶康路)"}]