[{"company":"nwfb","route":"18X","routeType":null,"dir":"I","orig":"堅尼地城 (卑路乍灣)","dest":"筲箕灣","stopList":[{"id":"001177","name":"卑路乍灣","lat":"22.284611882091","long":"114.12845352053"},{"id":"001005","name":"聯邦新樓, 卑路乍街","lat":"22.282463392091","long":"114.12760792053"},{"id":"001022","name":"爹核士街, 吉席街","lat":"22.283220932091","long":"114.12755609053"},{"id":"001081","name":"西祥街, 堅彌地城海旁","lat":"22.284984992091","long":"114.13095631053"},{"id":"001079","name":"歌連臣街, 堅彌地城海旁","lat":"22.286364162091","long":"114.13202184053"},{"id":"001059","name":"堅尼地城游泳池休憩處, 德輔道西","lat":"22.287202282091","long":"114.13257171053"},{"id":"001060","name":"山道, 德輔道西","lat":"22.287192342091","long":"114.13433789053"},{"id":"001061","name":"嘉安街, 德輔道西","lat":"22.287117792091","long":"114.13734316053"},{"id":"002678","name":"中山紀念公園, 干諾道西","lat":"22.289040662091","long":"114.14434647053"},{"id":"001027","name":"中環 (港澳碼頭)","lat":"22.288274152091","long":"114.15042248053"},{"id":"001256","name":"琴行街, 渣華道","lat":"22.292465872091","long":"114.20073702053"},{"id":"001257","name":"電照街, 渣華道","lat":"22.292829302091","long":"114.20250688053"},{"id":"001265","name":"健康村, 英皇道","lat":"22.292089592091","long":"114.20652344053"},{"id":"002677","name":"模範邨, 英皇道","lat":"22.291670382091","long":"114.20785144053"},{"id":"001267","name":"北角官立小學, 英皇道","lat":"22.288825782091","long":"114.20986716053"},{"id":"001268","name":"新威園, 英皇道","lat":"22.285544382091","long":"114.21133814053"},{"id":"001269","name":"惠安苑, 英皇道","lat":"22.284763112091","long":"114.21319278053"},{"id":"001270","name":"太古城中心, 英皇道","lat":"22.285287892091","long":"114.21758355053"},{"id":"001296","name":"太安樓, 筲箕灣道","lat":"22.282504342091","long":"114.22170603053"},{"id":"001297","name":"海晏街, 筲箕灣道","lat":"22.280776032091","long":"114.22363882053"},{"id":"001298","name":"愛秩序灣道, 筲箕灣道","lat":"22.280349712091","long":"114.22504094053"},{"id":"001380","name":"南康街, 筲箕灣道","lat":"22.278882572091","long":"114.22627158053"},{"id":"001207","name":"筲箕灣","lat":"22.278421122091","long":"114.22833128053"}],"routeId":"18X"},{"company":"nwfb","route":"18X","routeType":null,"dir":"O","orig":"筲箕灣","dest":"堅尼地城 (卑路乍灣)","stopList":[{"id":"001294","name":"柴灣站","lat":"22.264789772091","long":"114.23706735053"},{"id":"001292","name":"利眾街","lat":"22.265718062091","long":"114.23593399053"},{"id":"002582","name":"康翠臺, 康民街","lat":"22.266460292091","long":"114.23499120053"},{"id":"001253","name":"康民工業中心, 康民街","lat":"22.264902502091","long":"114.23450655053"},{"id":"001229","name":"天主教海星堂, 柴灣道","lat":"22.265027152091","long":"114.23373522053"},{"id":"001230","name":"興民邨, 柴灣道","lat":"22.267894132091","long":"114.23341093053"},{"id":"001231","name":"山翠苑, 柴灣道","lat":"22.269331482091","long":"114.23354147053"},{"id":"001232","name":"筲箕灣東官立中學, 柴灣道","lat":"22.272471812091","long":"114.23263770053"},{"id":"001233","name":"阿公岩道, 柴灣道","lat":"22.274719782091","long":"114.23085406053"},{"id":"001207","name":"筲箕灣","lat":"22.278421122091","long":"114.22833128053"},{"id":"001301","name":"新成街, 筲箕灣道","lat":"22.278724872091","long":"114.22622512053"},{"id":"001302","name":"海晏街, 筲箕灣道","lat":"22.280716692091","long":"114.22345551053"},{"id":"001303","name":"西灣河文娛中心, 筲箕灣道","lat":"22.281794772091","long":"114.22202073053"},{"id":"001304","name":"太祥街, 筲箕灣道","lat":"22.283579282091","long":"114.22061919053"},{"id":"001288","name":"康怡廣場, 康山道","lat":"22.284499762091","long":"114.21671745053"},{"id":"001271","name":"寶峰園, 英皇道","lat":"22.284594642091","long":"114.21416959053"},{"id":"001272","name":"鰂魚涌街, 英皇道","lat":"22.284722942091","long":"114.21210328053"},{"id":"001273","name":"太古坊, 英皇道","lat":"22.286667942091","long":"114.21039739053"},{"id":"001274","name":"民新街, 英皇道","lat":"22.289926312091","long":"114.20930325053"},{"id":"001275","name":"模範邨, 英皇道","lat":"22.291544482091","long":"114.20766679053"},{"id":"001276","name":"健康村, 英皇道","lat":"22.291912702091","long":"114.20634072053"},{"id":"001277","name":"健威花園, 英皇道","lat":"22.291810122091","long":"114.20389006053"},{"id":"001279","name":"琴行街, 英皇道","lat":"22.291204122091","long":"114.20095851053"},{"id":"001033","name":"皇后像廣場, 干諾道中","lat":"22.281992192091","long":"114.16003822053"},{"id":"001034","name":"砵典乍街, 干諾道中","lat":"22.283587582091","long":"114.15730419053"},{"id":"001191","name":"高樂花園, 干諾道西","lat":"22.288542812091","long":"114.14171663053"},{"id":"001070","name":"山道, 德輔道西","lat":"22.286627542091","long":"114.13607459053"},{"id":"001082","name":"堅尼地城游泳池, 堅彌地城海旁","lat":"22.285484642091","long":"114.13174773053"},{"id":"001083","name":"山市街, 堅彌地城海旁","lat":"22.284330652091","long":"114.13037010053"},{"id":"001004","name":"北街, 卑路乍街","lat":"22.282646942091","long":"114.12866820053"},{"id":"002590","name":"加多近街","lat":"22.282790252091","long":"114.12590822053"},{"id":"001177","name":"卑路乍灣","lat":"22.284611882091","long":"114.12845352053"}],"routeId":"18X"}]