[{"company":"gmb","route":"20S","routeType":1,"orig":"馬窩","dest":"大埔墟(循環線)","stopList":[{"id":20002565,"name":"馬窩路, 新峰花園","lat":22.442439387481535,"long":114.1604456305504},{"id":20017950,"name":"馬窩路南行新峰花園一期車輛出入口前(過路處後)","lat":22.44189399883673,"long":114.16080297518445},{"id":20017951,"name":"馬窩路南行新峰花園二期車輛出入口前(過路處後)","lat":22.44163005264501,"long":114.16257199940907},{"id":20001193,"name":"大埔墟站專線小巴總站","lat":22.443813517615947,"long":114.17042390057993},{"id":20013330,"name":"運頭街, 大埔墟街市","lat":22.446775111922356,"long":114.16809029750462},{"id":20017952,"name":"馬窩路北行新峰花園二期對面(燈柱編號 EA7771前)","lat":22.441515140900165,"long":114.1625396012958},{"id":20002565,"name":"馬窩路, 新峰花園","lat":22.442439387481535,"long":114.1604456305504}],"routeId":2001460,"description":"額外班次"}]