[{"company":"kmb","route":"21","routeType":"1","dir":"O","orig":"彩雲","dest":"紅磡站","stopList":[{"id":"177A516A81E9DEA5","name":"彩雲總站","lat":"22.333378","long":"114.214884"},{"id":"93E0033436973DA7","name":"彩虹站","lat":"22.334161","long":"114.210132"},{"id":"F6512E7C4A6D5C2E","name":"丹鳳樓","lat":"22.335233","long":"114.207616"},{"id":"92540DF9CB08304C","name":"錦雲樓","lat":"22.337344","long":"114.204749"},{"id":"E41318CD5899D680","name":"新蒲崗四美街","lat":"22.337821","long":"114.201827"},{"id":"23362ED34834C5F0","name":"黃大仙警署","lat":"22.338933","long":"114.197161"},{"id":"319CA16456A9010D","name":"新蒲崗寧遠街","lat":"22.333911","long":"114.195054"},{"id":"2A01E3163DF9A954","name":"宋皇臺公園","lat":"22.326393","long":"114.189921"},{"id":"F6E296480D3481A2","name":"宋皇臺道","lat":"22.323933","long":"114.188588"},{"id":"25455FDE268CF605","name":"北帝街","lat":"22.323055","long":"114.189914"},{"id":"C1AFF00AC64F457A","name":"香港盲人輔導會","lat":"22.321487","long":"114.193520"},{"id":"5396072459507B7F","name":"翔龍灣","lat":"22.319619","long":"114.192985"},{"id":"D46ED62A04D37ECE","name":"貴州街","lat":"22.318125","long":"114.191562"},{"id":"68A8F08ABC5C90F0","name":"落山道","lat":"22.316874","long":"114.190332"},{"id":"AFEFDF25A955C72C","name":"鴻福街","lat":"22.314625","long":"114.188176"},{"id":"906508C26C6B89EC","name":"紅磡庇利街","lat":"22.311425","long":"114.187735"},{"id":"8D5FB973BE9429B4","name":"紅磡民裕街","lat":"22.308415","long":"114.187741"},{"id":"AD803E8A0ED6C3B9","name":"寶其利街","lat":"22.307149","long":"114.185112"},{"id":"98F5ACF0CF540E7C","name":"機利士南路","lat":"22.306475","long":"114.184129"},{"id":"9D80403C90EDFBAD","name":"紅磡站總站","lat":"22.303830","long":"114.181998"}],"routeId":"21","description":"特別班次"},{"company":"kmb","route":"21","routeType":"1","dir":"I","orig":"紅磡站","dest":"彩雲","stopList":[{"id":"9D80403C90EDFBAD","name":"紅磡站總站","lat":"22.303830","long":"114.181998"},{"id":"EE5D9C9A5622C786","name":"紅荔道","lat":"22.304488","long":"114.185321"},{"id":"AC48794DF1F3332C","name":"機利士南路","lat":"22.307406","long":"114.184489"},{"id":"61C5F8F2F38B2BE3","name":"紅磡家維邨","lat":"22.307869","long":"114.187275"},{"id":"B9CC4872480304AA","name":"北拱街","lat":"22.311398","long":"114.187550"},{"id":"E80A3E968CCEEFF7","name":"石塘街","lat":"22.313788","long":"114.187494"},{"id":"4960882151DB05E0","name":"浙江街","lat":"22.316089","long":"114.189221"},{"id":"590E23621FD23B6C","name":"上鄉道","lat":"22.317557","long":"114.190641"},{"id":"F4B357B11344180D","name":"中華煤氣公司","lat":"22.320656","long":"114.192572"},{"id":"5C6534DD562AEF61","name":"欣榮花園","lat":"22.322112","long":"114.189244"},{"id":"7DF81D14A8CE574E","name":"馬頭角道","lat":"22.323453","long":"114.188005"},{"id":"3FB80081AB2FF6FB","name":"亞皆老街球場","lat":"22.326257","long":"114.189390"},{"id":"448C1B8AECA89A6E","name":"富豪東方酒店","lat":"22.328375","long":"114.191799"},{"id":"661FEE32A0D73EB0","name":"王仲銘中學","lat":"22.333958","long":"114.194661"},{"id":"2196A42A8F733DB5","name":"啟德花園","lat":"22.337218","long":"114.195091"},{"id":"E7A17EFD6E7435AF","name":"黃大仙警署","lat":"22.339114","long":"114.197038"},{"id":"49FAC55AF9CB8272","name":"新蒲崗大有街","lat":"22.338955","long":"114.200144"},{"id":"87825C8E4FE99CD8","name":"碧海樓","lat":"22.335857","long":"114.204713"},{"id":"5CD4C77378D3A4AE","name":"牛池灣街市","lat":"22.334351","long":"114.209490"},{"id":"942E95B4336BDFA7","name":"白虹樓","lat":"22.332599","long":"114.215269"},{"id":"33BA3785390F1457","name":"觀日樓","lat":"22.333521","long":"114.216390"},{"id":"177A516A81E9DEA5","name":"彩雲總站","lat":"22.333378","long":"114.214884"}],"routeId":"21","description":"特別班次"},{"company":"nlb","route":"21","routeType":null,"dir":null,"orig":"大澳","dest":"昂坪","stopList":[{"id":"221","name":"大澳","lat":"22.25278300","long":"113.86216000","street":"大澳道","fare":"7.2","fareHoliday":"16.1"},{"id":"222","name":"龍田邨","lat":"22.25252100","long":"113.86500500","street":"大澳道","fare":"7.2","fareHoliday":"16.1"},{"id":"224","name":"坑尾","lat":"22.25083200","long":"113.86930600","street":"大澳道","fare":"7.2","fareHoliday":"16.1"},{"id":"225","name":"靈隱寺","lat":"22.24428700","long":"113.87510700","street":"大澳道","fare":"7.2","fareHoliday":"16.1"},{"id":"226","name":"新鳳村","lat":"22.24390000","long":"113.87700600","street":"大澳道","fare":"7.2","fareHoliday":"16.1"},{"id":"227","name":"羌山管理站","lat":"22.24218200","long":"113.87905100","street":"大澳道","fare":"7.2","fareHoliday":"16.1"},{"id":"228","name":"龍仔","lat":"22.24137000","long":"113.88139200","street":"大澳道","fare":"7.2","fareHoliday":"16.1"},{"id":"229","name":"成輝果園","lat":"22.24400100","long":"113.88399500","street":"姜山道","fare":"7.2","fareHoliday":"16.1"},{"id":"230","name":"三緣精舍","lat":"22.24671100","long":"113.88596800","street":"姜山道","fare":"7.2","fareHoliday":"16.1"},{"id":"232","name":"法華苑","lat":"22.24622100","long":"113.88887200","street":"姜山道","fare":"7.2","fareHoliday":"16.1"},{"id":"233","name":"深屈道","lat":"22.24459200","long":"113.89187900","street":"深屈道","fare":"5.1","fareHoliday":"10.5"},{"id":"59","name":"山海亭","lat":"22.24947700","long":"113.89305300","street":"深屈道","fare":"5.1","fareHoliday":"10.5"},{"id":"60","name":"昂坪市集","lat":"22.25546100","long":"113.90398100","street":"昂坪道","fare":"5.1","fareHoliday":"10.5"},{"id":"62","name":"昂坪","lat":"22.25561200","long":"113.90286200","street":"寶昂路","fare":"0.0","fareHoliday":"0.0"}],"routeId":"20","description":"正常班次"},{"company":"nlb","route":"21","routeType":null,"dir":null,"orig":"昂坪","dest":"大澳","stopList":[{"id":"270","name":"昂坪","lat":"22.25561200","long":"113.90286200","street":"寶昂路","fare":"7.2","fareHoliday":"16.1"},{"id":"271","name":"山海亭","lat":"22.24931300","long":"113.89284000","street":"深屈道","fare":"7.2","fareHoliday":"16.1"},{"id":"43","name":"深屈道口","lat":"22.24503800","long":"113.89223700","street":"姜山道","fare":"2.6","fareHoliday":"5.5"},{"id":"44","name":"法華苑","lat":"22.24612200","long":"113.88904200","street":"姜山道","fare":"2.6","fareHoliday":"5.5"},{"id":"45","name":"三緣精舍","lat":"22.24643500","long":"113.88624200","street":"姜山道","fare":"2.6","fareHoliday":"5.5"},{"id":"46","name":"成輝果園","lat":"22.24382000","long":"113.88420900","street":"姜山道","fare":"2.6","fareHoliday":"5.5"},{"id":"47","name":"觀音寺","lat":"22.24225600","long":"113.88299100","street":"姜山道","fare":"2.6","fareHoliday":"5.5"},{"id":"48","name":"龍仔","lat":"22.24081600","long":"113.88102200","street":"大澳道","fare":"2.6","fareHoliday":"5.5"},{"id":"49","name":"羌山管理站","lat":"22.24203200","long":"113.87882300","street":"大澳道","fare":"2.6","fareHoliday":"5.5"},{"id":"84","name":"新鳳村","lat":"22.24357100","long":"113.87697200","street":"大澳道","fare":"2.6","fareHoliday":"5.5"},{"id":"51","name":"靈隱寺","lat":"22.24401800","long":"113.87500900","street":"大澳道","fare":"2.6","fareHoliday":"5.5"},{"id":"52","name":"坑尾","lat":"22.25065600","long":"113.86906200","street":"大澳道","fare":"2.6","fareHoliday":"5.5"},{"id":"53","name":"佛教筏可紀念中學","lat":"22.25203300","long":"113.86698800","street":"大澳道","fare":"2.6","fareHoliday":"5.5"},{"id":"54","name":"龍田邨","lat":"22.25232600","long":"113.86497600","street":"大澳道","fare":"2.6","fareHoliday":"5.5"},{"id":"55","name":"大澳","lat":"22.25278300","long":"113.86216000","street":"大澳道","fare":"0.0","fareHoliday":"0.0"}],"routeId":"19","description":"正常班次"}]