[{"company":"kmb","route":"211A","routeType":"1","dir":"O","orig":"樂富","dest":"翠竹花園(循環線)","stopList":[{"id":"32450B36AD15FDE7","name":"樂富總站","lat":"22.339071","long":"114.187752"},{"id":"6E410E80F8C9915B","name":"天虹小學","lat":"22.345294","long":"114.189927"},{"id":"86C825C27CF54222","name":"鵬程苑","lat":"22.345996","long":"114.190010"},{"id":"13C8F0634E96FD3B","name":"翠竹商場","lat":"22.345698","long":"114.188732"},{"id":"E722FC3E26BE38D1","name":"翠竹花園五座","lat":"22.345836","long":"114.186834"},{"id":"000DF0B79CF28326","name":"翠竹花園","lat":"22.346500","long":"114.187167"},{"id":"76AB9046AC5C4DFF","name":"翠竹花園四座","lat":"22.345800","long":"114.187461"},{"id":"73829A47B6E78E5B","name":"翠竹花園一座","lat":"22.345804","long":"114.188908"},{"id":"E2E25068F99CF92B","name":"鵬程苑","lat":"22.346330","long":"114.190701"},{"id":"1A3478416DABC289","name":"天虹小學","lat":"22.345066","long":"114.189714"},{"id":"32450B36AD15FDE7","name":"樂富總站","lat":"22.339071","long":"114.187752"}],"routeId":"211A","description":"正常班次"}]