[{"company":"ctb","route":"22M","routeType":null,"dir":"I","orig":"土瓜灣","dest":"啟德郵輪碼頭","stopList":[{"id":"003505","name":"沐虹街, 承啟道","lat":"22.332201092091","long":"114.20465053053"},{"id":"001576","name":"譽港灣, 太子道東","lat":"22.332077002091","long":"114.19680000053"},{"id":"001577","name":"富豪東方酒店, 太子道東","lat":"22.327146622091","long":"114.19053280053"},{"id":"002981","name":"宋皇臺道, 馬頭涌道","lat":"22.324129252091","long":"114.18864144053"},{"id":"003030","name":"馬頭角道, 馬頭涌道","lat":"22.322379282091","long":"114.18776440053"},{"id":"001814","name":"馬坑涌道, 馬頭圍道","lat":"22.319286742091","long":"114.18764699053"},{"id":"001538","name":"土瓜灣街市, 馬頭圍道","lat":"22.317651292091","long":"114.18770359053"},{"id":"002986","name":"浙江街, 土瓜灣道","lat":"22.316112382091","long":"114.18932158053"},{"id":"003326","name":"上鄉道, 土瓜灣道","lat":"22.317352642091","long":"114.19050002053"},{"id":"003580","name":"美華工業中心, 土瓜灣道","lat":"22.318981002091","long":"114.19201691053"},{"id":"003708","name":"沐泰街, 承啟道","lat":"22.324878602091","long":"114.19971627053"},{"id":"003612","name":"機電工程署總部, 承啟道","lat":"22.326253402091","long":"114.20237693053"},{"id":"003587","name":"啟德站, 沐安街","lat":"22.329819922091","long":"114.20109553053"},{"id":"003369","name":"德朗邨, 承啟道","lat":"22.330536462091","long":"114.20469159053"},{"id":"001610","name":"麗晶花園第 8 座, 宏照道","lat":"22.331369192091","long":"114.20583246053"},{"id":"001611","name":"啟業邨, 宏照道","lat":"22.328732482091","long":"114.20838013053"},{"id":"001612","name":"九龍灣運動場, 宏照道","lat":"22.326745562091","long":"114.20857502053"},{"id":"001773","name":"臨華街, 宏照道","lat":"22.323544232091","long":"114.20888965053"},{"id":"003534","name":"香港兒童醫院, 承昌道","lat":"22.315790512091","long":"114.20957230053"},{"id":"003535","name":"承豐道","lat":"22.311841072091","long":"114.20791141053"}],"routeId":"22M","description":"正常班次"},{"company":"ctb","route":"22M","routeType":null,"dir":"O","orig":"啟德郵輪碼頭","dest":"土瓜灣","stopList":[{"id":"003520","name":"承豐道","lat":"22.311739462091","long":"114.20778315053"},{"id":"003521","name":"香港兒童醫院, 承昌道","lat":"22.315803942091","long":"114.20988562053"},{"id":"001649","name":"常悅道, 宏照道","lat":"22.321241952091","long":"114.20897841053"},{"id":"001607","name":"臨華街, 宏照道","lat":"22.322591022091","long":"114.20883070053"},{"id":"001608","name":"九龍灣運動場, 宏照道","lat":"22.326599152091","long":"114.20842271053"},{"id":"001645","name":"麗晶花園第 18 座, 宏照道","lat":"22.329777772091","long":"114.20810420053"},{"id":"001609","name":"麗晶花園第 13 座, 宏照道","lat":"22.330826612091","long":"114.20684023053"},{"id":"003537","name":"德朗邨, 承啟道","lat":"22.329424582091","long":"114.20487963053"},{"id":"003587","name":"啟德站, 沐安街","lat":"22.329819922091","long":"114.20109553053"},{"id":"003369","name":"德朗邨, 承啟道","lat":"22.330536462091","long":"114.20469159053"},{"id":"003505","name":"沐虹街, 承啟道","lat":"22.332201092091","long":"114.20465053053"},{"id":"001576","name":"譽港灣, 太子道東","lat":"22.332077002091","long":"114.19680000053"},{"id":"001577","name":"富豪東方酒店, 太子道東","lat":"22.327146622091","long":"114.19053280053"},{"id":"002981","name":"宋皇臺道, 馬頭涌道","lat":"22.324129252091","long":"114.18864144053"},{"id":"003030","name":"馬頭角道, 馬頭涌道","lat":"22.322379282091","long":"114.18776440053"},{"id":"001814","name":"馬坑涌道, 馬頭圍道","lat":"22.319286742091","long":"114.18764699053"},{"id":"001538","name":"土瓜灣街市, 馬頭圍道","lat":"22.317651292091","long":"114.18770359053"},{"id":"002986","name":"浙江街, 土瓜灣道","lat":"22.316112382091","long":"114.18932158053"},{"id":"003326","name":"上鄉道, 土瓜灣道","lat":"22.317352642091","long":"114.19050002053"},{"id":"003580","name":"美華工業中心, 土瓜灣道","lat":"22.318981002091","long":"114.19201691053"}],"routeId":"22M","description":"正常班次"},{"company":"gmb","route":"22M","routeType":1,"orig":"樂華邨","dest":"觀塘站","stopList":[{"id":20013825,"name":"樂華小巴總站","lat":22.320471497674955,"long":114.21973769289401},{"id":20013826,"name":"振華道, 近樂華南邨","lat":22.320965639421765,"long":114.2225857240618},{"id":20013827,"name":"康寧道遊樂場","lat":22.319647615754853,"long":114.22354174952899},{"id":20013828,"name":"康寧道門牌 60 號外","lat":22.315601612109194,"long":114.22362001377095},{"id":20012060,"name":"裕民坊公共運輸交匯處","lat":22.314392642486943,"long":114.22509165138766},{"id":20000935,"name":"振華道, 樂華邨社區中心外","lat":22.32078435703691,"long":114.22257051065615},{"id":20013825,"name":"樂華小巴總站","lat":22.320471497674955,"long":114.21973769289401}],"routeId":2005781,"description":"正常班次 (循環線)"},{"company":"gmb","route":"22M","routeType":1,"orig":"樂華邨","dest":"裕民坊公共運輸交匯處","stopList":[{"id":20013829,"name":"樂華小巴總站","lat":22.320471497674955,"long":114.21973769289401},{"id":20013826,"name":"振華道, 近樂華南邨","lat":22.320965639421765,"long":114.2225857240618},{"id":20013827,"name":"康寧道遊樂場","lat":22.319647615754853,"long":114.22354174952899},{"id":20013828,"name":"康寧道門牌 60 號外","lat":22.315601612109194,"long":114.22362001377095},{"id":20017290,"name":"裕民坊公共運輸交匯處","lat":22.31427055230505,"long":114.22458586916267}],"routeId":2009048,"description":"正常班次"},{"company":"gmb","route":"22M","routeType":2,"orig":"裕民坊公共運輸交匯處","dest":"樂華邨","stopList":[{"id":20017290,"name":"裕民坊公共運輸交匯處","lat":22.31427055230505,"long":114.22458586916267},{"id":20000935,"name":"振華道, 樂華邨社區中心外","lat":22.32078435703691,"long":114.22257051065615},{"id":20013825,"name":"樂華小巴總站","lat":22.320471497674955,"long":114.21973769289401}],"routeId":2009048,"description":"正常班次"}]