[{"company":"kmb","route":"234B","routeType":"1","dir":"O","orig":"荃灣西站","dest":"深井(浪翠園)","stopList":[{"id":"966267086A03D688","name":"荃灣西站巴士總站","lat":"22.368210","long":"114.110466"},{"id":"060A70079F196C7C","name":"荃灣大河道","lat":"22.371519","long":"114.114991"},{"id":"003D1263A14908F6","name":"荃灣富華街","lat":"22.373543","long":"114.115723"},{"id":"BFA3460955AC820C","name":"荃景圍天橋","lat":"22.375396","long":"114.108571"},{"id":"5FB1FCAF80F3D97D","name":"荃灣柴灣角街","lat":"22.374766","long":"114.105738"},{"id":"9CD69A8A588B2F8D","name":"麗城花園第三期","lat":"22.371156","long":"114.102375"},{"id":"613A21BCEF50485D","name":"灣景花園","lat":"22.369482","long":"114.100274"},{"id":"122BF72E5DBAEFC0","name":"翠景臺","lat":"22.368271","long":"114.097510"},{"id":"C3009421E5B89EB0","name":"油柑頭","lat":"22.368158","long":"114.093487"},{"id":"222694615BD60A65","name":"近水灣","lat":"22.367554","long":"114.088408"},{"id":"E182FE2A3C62252F","name":"南山游泳會","lat":"22.368146","long":"114.084788"},{"id":"AEA60911096D770F","name":"汀九","lat":"22.370222","long":"114.079601"},{"id":"BC68B9C32B4267AB","name":"麗都灣","lat":"22.368283","long":"114.075610"},{"id":"62AA23787294A36E","name":"海美灣","lat":"22.364430","long":"114.069942"},{"id":"7550FEE23DA5615D","name":"深井深慈街","lat":"22.366847","long":"114.063327"},{"id":"B47C12A965D7B481","name":"碧堤半島","lat":"22.367546","long":"114.061441"},{"id":"5564CE644A0D7DBE","name":"深井村","lat":"22.366953","long":"114.059303"},{"id":"1E4E9FB5763C3436","name":"馬灣碼頭","lat":"22.365339","long":"114.056712"},{"id":"305F5FBA023A7EE2","name":"浪翠園第三期","lat":"22.365325","long":"114.054745"},{"id":"FBC1C97A0A3D671C","name":"浪翠園第二期","lat":"22.365482","long":"114.055935"},{"id":"0C4F5FC61E73367C","name":"浪翠園巴士總站","lat":"22.366120","long":"114.057157"}],"routeId":"234B","description":"正常班次"},{"company":"kmb","route":"234B","routeType":"1","dir":"I","orig":"深井(浪翠園)","dest":"荃灣西站","stopList":[{"id":"0C4F5FC61E73367C","name":"浪翠園巴士總站","lat":"22.366120","long":"114.057157"},{"id":"4A68B87D533BA937","name":"浪翠園第二期","lat":"22.365714","long":"114.056336"},{"id":"F4FF1AAF9A7EB07A","name":"浪翠園第三期","lat":"22.364762","long":"114.054881"},{"id":"8AFF8B43EC3E547F","name":"馬灣碼頭","lat":"22.365504","long":"114.056578"},{"id":"83C4F756489484B5","name":"深井村","lat":"22.367229","long":"114.059089"},{"id":"ED9E5ACF98190E5C","name":"海韻花園","lat":"22.367721","long":"114.061674"},{"id":"D7D5410F2F97D682","name":"深井深慈街","lat":"22.367276","long":"114.062922"},{"id":"DA87D4887F5FAF62","name":"海美灣","lat":"22.364475","long":"114.069412"},{"id":"81F1ECC7278CDC18","name":"麗都灣","lat":"22.367866","long":"114.074360"},{"id":"2D36E1CF8C4FF699","name":"汀九","lat":"22.370444","long":"114.079344"},{"id":"8316A5C8798768AF","name":"南山游泳會","lat":"22.368788","long":"114.083875"},{"id":"96D0ED04D761DBE4","name":"金麗苑","lat":"22.367866","long":"114.091415"},{"id":"B069D9C12F89AAFA","name":"油柑頭","lat":"22.368222","long":"114.092191"},{"id":"E5763322877BB340","name":"翠景臺","lat":"22.368511","long":"114.096612"},{"id":"48769F0B9F6E6C1B","name":"灣景花園","lat":"22.369262","long":"114.099514"},{"id":"93F4EA3D82B33BEF","name":"麗城花園第三期","lat":"22.371767","long":"114.101011"},{"id":"3DD784D9B2C30AFC","name":"麗城花園第一期","lat":"22.373295","long":"114.103022"},{"id":"9E970734315233A2","name":"荃景圍天橋","lat":"22.375778","long":"114.107100"},{"id":"40A0B70767CA3F13","name":"愉景新城","lat":"22.374967","long":"114.113022"},{"id":"4BDF62F2A7C32429","name":"荃灣站","lat":"22.374335","long":"114.116164"},{"id":"92A8281D80524F78","name":"荃灣大河道","lat":"22.371910","long":"114.115970"},{"id":"966267086A03D688","name":"荃灣西站巴士總站","lat":"22.368210","long":"114.110466"}],"routeId":"234B","description":"正常班次"}]