[{"company":"kmb","route":"234D","routeType":"1","dir":"O","orig":"青龍頭","dest":"觀塘站","stopList":[{"id":"1064E673770C38BC","name":"豪景花園","lat":"22.360788","long":"114.042278"},{"id":"2DFE2D85D53C1114","name":"青龍頭村","lat":"22.361500","long":"114.046195"},{"id":"C4E03BB27317AF35","name":"浪翠園第四期","lat":"22.362370","long":"114.050728"},{"id":"30DD3451F8D64883","name":"浪翠園第三期","lat":"22.364022","long":"114.054374"},{"id":"8AFF8B43EC3E547F","name":"馬灣碼頭","lat":"22.365504","long":"114.056578"},{"id":"83C4F756489484B5","name":"深井村","lat":"22.367229","long":"114.059089"},{"id":"ED9E5ACF98190E5C","name":"海韻花園","lat":"22.367721","long":"114.061674"},{"id":"D7D5410F2F97D682","name":"深井深慈街","lat":"22.367276","long":"114.062922"},{"id":"DA87D4887F5FAF62","name":"海美灣","lat":"22.364475","long":"114.069412"},{"id":"81F1ECC7278CDC18","name":"麗都灣","lat":"22.367866","long":"114.074360"},{"id":"2D36E1CF8C4FF699","name":"汀九","lat":"22.370444","long":"114.079344"},{"id":"8316A5C8798768AF","name":"南山游泳會","lat":"22.368788","long":"114.083875"},{"id":"96D0ED04D761DBE4","name":"金麗苑","lat":"22.367866","long":"114.091415"},{"id":"B069D9C12F89AAFA","name":"油柑頭","lat":"22.368222","long":"114.092191"},{"id":"E5763322877BB340","name":"翠景臺","lat":"22.368511","long":"114.096612"},{"id":"48769F0B9F6E6C1B","name":"灣景花園","lat":"22.369262","long":"114.099514"},{"id":"93F4EA3D82B33BEF","name":"麗城花園第三期","lat":"22.371767","long":"114.101011"},{"id":"B8B04CD1E568B8F6","name":"麗城花園第一期","lat":"22.373334","long":"114.103062"},{"id":"95797E4D2901A516","name":"荃景圍天橋","lat":"22.375683","long":"114.106911"},{"id":"CAEEAD91F339D3DA","name":"大涌道福來邨","lat":"22.374014","long":"114.111383"},{"id":"033CB7A21D6DC60C","name":"祈德尊新邨","lat":"22.371342","long":"114.109806"},{"id":"F5A44B89EFBC0B4F","name":"畢架山花園","lat":"22.341687","long":"114.167069"},{"id":"EA3C8544DF22AC4E","name":"豐力樓","lat":"22.343157","long":"114.172716"},{"id":"96A6FE5F07BDF203","name":"黃大仙轉車站, 沙田坳道 (A1)","lat":"22.341856","long":"114.195281"},{"id":"9DE875FD17C67097","name":"鑽石山站","lat":"22.339809","long":"114.202618"},{"id":"9A0959AB68FA5E1F","name":"九龍灣臨華街","lat":"22.323512","long":"114.208973"},{"id":"94358F5481BAE505","name":"常悅道","lat":"22.321438","long":"114.207948"},{"id":"3CE7B5D1EBF9C5F7","name":"喜鵲樓","lat":"22.317181","long":"114.217644"},{"id":"CF579AAA2A4E506C","name":"牛頭角站 (V3)","lat":"22.315213","long":"114.219514"},{"id":"F2127FD781019971","name":"觀塘市中心 (T2)","lat":"22.313042","long":"114.224931"},{"id":"0FDBEBDD3724D681","name":"觀塘站","lat":"22.311929","long":"114.228455"}],"routeId":"234D","description":"正常班次"},{"company":"kmb","route":"234D","routeType":"1","dir":"I","orig":"觀塘站","dest":"青龍頭","stopList":[{"id":"0FDBEBDD3724D681","name":"觀塘站","lat":"22.311929","long":"114.228455"},{"id":"3CA81FA2944B754D","name":"觀塘駿業里 (C6)","lat":"22.312885","long":"114.224542"},{"id":"671775E6AF279B42","name":"創紀之城 (B2)","lat":"22.314310","long":"114.220732"},{"id":"D39533060940818A","name":"觀塘勵業街","lat":"22.313800","long":"114.215990"},{"id":"14894C859FDFE8C3","name":"觀塘海濱花園","lat":"22.315682","long":"114.214093"},{"id":"A21BEB6F4E6D43E6","name":"九龍灣常悅道","lat":"22.321143","long":"114.208979"},{"id":"2F1F9CF16B9E65AF","name":"九龍灣臨華街","lat":"22.322347","long":"114.208909"},{"id":"62A1C8EFAC876BDB","name":"黃大仙轉車站, 沙田坳道 (D2)","lat":"22.341470","long":"114.195370"},{"id":"29A62A8FE112766B","name":"豐力樓","lat":"22.342585","long":"114.172991"},{"id":"9751EE79B103C9B8","name":"畢架山花園","lat":"22.341649","long":"114.166733"},{"id":"9CD69A8A588B2F8D","name":"麗城花園第三期","lat":"22.371156","long":"114.102375"},{"id":"613A21BCEF50485D","name":"灣景花園","lat":"22.369482","long":"114.100274"},{"id":"122BF72E5DBAEFC0","name":"翠景臺","lat":"22.368271","long":"114.097510"},{"id":"C3009421E5B89EB0","name":"油柑頭","lat":"22.368158","long":"114.093487"},{"id":"222694615BD60A65","name":"近水灣","lat":"22.367554","long":"114.088408"},{"id":"E182FE2A3C62252F","name":"南山游泳會","lat":"22.368146","long":"114.084788"},{"id":"AEA60911096D770F","name":"汀九","lat":"22.370222","long":"114.079601"},{"id":"BC68B9C32B4267AB","name":"麗都灣","lat":"22.368283","long":"114.075610"},{"id":"62AA23787294A36E","name":"海美灣","lat":"22.364430","long":"114.069942"},{"id":"7550FEE23DA5615D","name":"深井深慈街","lat":"22.366847","long":"114.063327"},{"id":"B47C12A965D7B481","name":"碧堤半島","lat":"22.367546","long":"114.061441"},{"id":"5564CE644A0D7DBE","name":"深井村","lat":"22.366953","long":"114.059303"},{"id":"1E4E9FB5763C3436","name":"馬灣碼頭","lat":"22.365339","long":"114.056712"},{"id":"B5BB97F8CB889AB7","name":"浪翠園第三期","lat":"22.363686","long":"114.054381"},{"id":"9E4653BA0F25F731","name":"浪翠園第四期","lat":"22.362704","long":"114.051520"},{"id":"6A93E2E9F1A3F421","name":"青龍頭村","lat":"22.360935","long":"114.047472"},{"id":"3F41CA34634CC20C","name":"豪景花園","lat":"22.361452","long":"114.044662"},{"id":"2E1127BAF33B34F7","name":"豪景花園商場","lat":"22.360969","long":"114.043178"}],"routeId":"234D","description":"正常班次"}]