[{"company":"kmb","route":"234P","routeType":"1","dir":"O","orig":"荃灣(灣景花園)","dest":"尖沙咀碼頭","stopList":[{"id":"9386CDB16D533E27","name":"灣景花園總站","lat":"22.370137","long":"114.099552"},{"id":"B8B04CD1E568B8F6","name":"麗城花園第一期","lat":"22.373334","long":"114.103062"},{"id":"04A3BB80D09B6106","name":"荃景圍天橋","lat":"22.375778","long":"114.107100"},{"id":"B2C63864D1C98F56","name":"大涌道福來邨","lat":"22.374014","long":"114.111383"},{"id":"033CB7A21D6DC60C","name":"祈德尊新邨","lat":"22.371342","long":"114.109806"},{"id":"6C1C752975B8A257","name":"旺角鴉蘭街","lat":"22.323361","long":"114.167408"},{"id":"68D0BC0C7164F763","name":"旺角站 (S12)","lat":"22.319868","long":"114.169295"},{"id":"8E3A5C15E42020BB","name":"旺角豉油街 (S23)","lat":"22.316078","long":"114.170175"},{"id":"EDF107F1315D6805","name":"油麻地永星里 (S34)","lat":"22.311386","long":"114.171092"},{"id":"77BFE3A169866C7D","name":"油麻地西貢街 (S41)","lat":"22.307302","long":"114.171577"},{"id":"E10A0960D4E103B1","name":"尖沙咀德成街 (S45)","lat":"22.304279","long":"114.171799"},{"id":"EAE9158BE729E917","name":"金巴利道 (S50)","lat":"22.301046","long":"114.172057"},{"id":"452AD79BA74CF8F3","name":"尖沙咀轉車站 - 中間道 (S52)","lat":"22.295948","long":"114.172439"},{"id":"DCFF4041D0C0ACF8","name":"尖沙咀碼頭","lat":"22.293816","long":"114.168797"}],"routeId":"234P","description":"正常班次"}]