[{"company":"kmb","route":"238P","routeType":"1","dir":"O","orig":"荃灣(海濱花園)","dest":"中港碼頭","stopList":[{"id":"88E1C9BB0B80711F","name":"海濱花園總站","lat":"22.362556","long":"114.114269"},{"id":"9E9CD0E1663FFA99","name":"海灣花園","lat":"22.363938","long":"114.113519"},{"id":"170375F0819EB588","name":"荃灣龍德街","lat":"22.365043","long":"114.115322"},{"id":"6C1C752975B8A257","name":"旺角鴉蘭街","lat":"22.323361","long":"114.167408"},{"id":"68D0BC0C7164F763","name":"旺角站 (S12)","lat":"22.319868","long":"114.169295"},{"id":"7BE18698D0E8FDCE","name":"旺角豉油街 (S22)","lat":"22.316021","long":"114.170116"},{"id":"8748720365CEA134","name":"油麻地碧街 (S29)","lat":"22.313461","long":"114.170674"},{"id":"25B94D808EC232D8","name":"加士居道 (S38)","lat":"22.308921","long":"114.171408"},{"id":"E049C81469E2B3C0","name":"佐敦白加士街","lat":"22.305172","long":"114.170361"},{"id":"076E1E9D5874C41D","name":"佐敦炮台街","lat":"22.305524","long":"114.168430"},{"id":"D06E5A5B162EF1BA","name":"匯翔道","lat":"22.304716","long":"114.167704"},{"id":"9DE5D48948C534CC","name":"中港碼頭總站","lat":"22.300246","long":"114.167947"}],"routeId":"238P","description":"特別班次"}]