[{"company":"gmb","route":"23S","routeType":1,"orig":"大埔墟站專線小巴總站","dest":"打鐵屻通路","stopList":[{"id":20001193,"name":"大埔墟站專線小巴總站","lat":22.443813517615947,"long":22.443813517615947},{"id":20006554,"name":"運頭街, 運頭坊","lat":22.446792087301635,"long":22.446792087301635},{"id":20008215,"name":"達運道, 荔枝山","lat":22.438380423439114,"long":22.438380423439114},{"id":20008220,"name":"碗窰路, 沙埔仔","lat":22.436904757902468,"long":22.436904757902468},{"id":20003329,"name":"碗窰通路","lat":22.43646238268787,"long":22.43646238268787},{"id":20001212,"name":"碗窰路, 新屋家","lat":22.430276395012026,"long":22.430276395012026},{"id":20003330,"name":"打鐵屻通路","lat":22.424361355917785,"long":22.424361355917785}],"routeId":2001360,"description":"額外班次"},{"company":"gmb","route":"23S","routeType":2,"orig":"打鐵屻通路","dest":"大埔墟站專線小巴總站","stopList":[{"id":20003330,"name":"打鐵屻通路","lat":22.424361355917785,"long":22.424361355917785},{"id":20001212,"name":"新屋家","lat":22.430276395012026,"long":22.430276395012026},{"id":20003329,"name":"碗窰通路","lat":22.43646238268787,"long":22.43646238268787},{"id":20008223,"name":"碗窰路, 沙埔仔","lat":22.437067377384793,"long":22.437067377384793},{"id":20008222,"name":"達運道, 荔枝山","lat":22.438480211788324,"long":22.438480211788324},{"id":20001193,"name":"大埔墟站專線小巴總站","lat":22.443813517615947,"long":22.443813517615947},{"id":20001240,"name":"廣福道161號","lat":22.446685238790078,"long":22.446685238790078},{"id":20006554,"name":"運頭街, 運頭坊","lat":22.446792087301635,"long":22.446792087301635}],"routeId":2001360,"description":"額外班次"}]