[{"company":"gmb","route":"23S","routeType":1,"orig":"大埔墟站專線小巴總站","dest":"打鐵屻通路","stopList":[{"id":20001193,"name":"大埔墟站專線小巴總站","lat":22.443813517615947,"long":114.17042390057993},{"id":20006554,"name":"運頭街, 運頭坊","lat":22.446792087301635,"long":114.16811339033303},{"id":20008215,"name":"達運道, 荔枝山","lat":22.438380423439114,"long":114.16488334536552},{"id":20008220,"name":"碗窰路, 沙埔仔","lat":22.436904757902468,"long":114.16457623138545},{"id":20003329,"name":"碗窰通路","lat":22.43646238268787,"long":114.1645472138133},{"id":20001212,"name":"碗窰路, 新屋家","lat":22.430276395012026,"long":114.1630907095674},{"id":20003330,"name":"打鐵屻通路","lat":22.424361355917785,"long":114.16219767312903}],"routeId":2001360,"description":"額外班次"},{"company":"gmb","route":"23S","routeType":2,"orig":"打鐵屻通路","dest":"大埔墟站專線小巴總站","stopList":[{"id":20003330,"name":"打鐵屻通路","lat":22.424361355917785,"long":114.16219767312903},{"id":20001212,"name":"新屋家","lat":22.430276395012026,"long":114.1630907095674},{"id":20003329,"name":"碗窰通路","lat":22.43646238268787,"long":114.1645472138133},{"id":20008223,"name":"碗窰路, 沙埔仔","lat":22.437067377384793,"long":114.16453868150712},{"id":20008222,"name":"達運道, 荔枝山","lat":22.438480211788324,"long":114.16468620300294},{"id":20001193,"name":"大埔墟站專線小巴總站","lat":22.443813517615947,"long":114.17042390057993},{"id":20001240,"name":"廣福道161號","lat":22.446685238790078,"long":114.17142439315433},{"id":20006554,"name":"運頭街, 運頭坊","lat":22.446792087301635,"long":114.16811339033303}],"routeId":2001360,"description":"額外班次"}]