[{"company":"kmb","route":"242X","routeType":"1","dir":"O","orig":"青衣(長亨邨)","dest":"尖沙咀","stopList":[{"id":"F88EE882E4B77399","name":"長亨巴士總站","lat":"22.355525","long":"114.097634"},{"id":"517D0A232BB15633","name":"長康邨康順樓","lat":"22.349621","long":"114.099786"},{"id":"AAAF715A5DC3A7CD","name":"青盛苑","lat":"22.348996","long":"114.103615"},{"id":"3406C1A9DA760403","name":"長青巴士總站","lat":"22.348149","long":"114.106934"},{"id":"0FC2713372030A4C","name":"長青邨青槐樓","lat":"22.345602","long":"114.107910"},{"id":"B085DDE8E381E370","name":"長青邨青桃樓","lat":"22.344906","long":"114.109575"},{"id":"972145F4BB2B535F","name":"美孚轉車站 (D1)","lat":"22.337460","long":"114.140547"},{"id":"6C1C752975B8A257","name":"旺角鴉蘭街","lat":"22.323361","long":"114.167408"},{"id":"AB4C15B92D4199BB","name":"旺角奶路臣街 (S14)","lat":"22.318983","long":"114.169521"},{"id":"10754E414E9B86F4","name":"油麻地碧街 (S27)","lat":"22.314313","long":"114.170513"},{"id":"25B94D808EC232D8","name":"加士居道 (S38)","lat":"22.308921","long":"114.171408"},{"id":"A37F8CF766FCF9F3","name":"尖沙咀德成街 (S47)","lat":"22.304279","long":"114.171799"},{"id":"D6E03ECA84C07932","name":"金巴利道 (S49)","lat":"22.300942","long":"114.172087"},{"id":"45F2E2A508556D6E","name":"尖沙咀中間道 (S55)","lat":"22.295211","long":"114.172484"}],"routeId":"242X","description":"正常班次"},{"company":"kmb","route":"242X","routeType":"1","dir":"I","orig":"尖沙咀東(麼地道)","dest":"青衣(長亨邨)","stopList":[{"id":"F388A6F066DE4562","name":"尖沙咀東（麼地道）","lat":"22.296679","long":"114.175866"},{"id":"89D32777124F4039","name":"尖東站","lat":"22.294828","long":"114.174540"},{"id":"1F2E60EDB4254D30","name":"尖沙咀中間道 (N2)","lat":"22.295816","long":"114.172187"},{"id":"EA4A3876639F21B4","name":"金巴利道 (N11)","lat":"22.300253","long":"114.171866"},{"id":"B0F64FFFBECE8AA4","name":"油麻地寶靈街 (N20)","lat":"22.304565","long":"114.171583"},{"id":"5EEFE2E2583B576B","name":"九龍中央郵政局 (N37)","lat":"22.309680","long":"114.171093"},{"id":"1E0C8A961881DE1D","name":"油麻地碧街 (N45)","lat":"22.313451","long":"114.170419"},{"id":"C597F5C65774F91D","name":"旺角豉油街 (N55)","lat":"22.316500","long":"114.169813"},{"id":"5CA7841E84D52C8A","name":"旺角街市","lat":"22.318768","long":"114.166977"},{"id":"22138E6C8051FDBD","name":"銘基書院","lat":"22.318555","long":"114.164859"},{"id":"3B8B261C1DA409BD","name":"帝柏海灣","lat":"22.317868","long":"114.162187"},{"id":"9DA7325E4238402B","name":"奧運站","lat":"22.318378","long":"114.160423"},{"id":"195C509959C6A799","name":"君匯港","lat":"22.322229","long":"114.159642"},{"id":"6DF1AF2871D4B7D9","name":"長青邨青桃樓","lat":"22.344820","long":"114.109832"},{"id":"196A1E44C305C174","name":"美景花園","lat":"22.344755","long":"114.107760"},{"id":"BDE0F1679E1C8ABF","name":"長青巴士總站","lat":"22.348267","long":"114.105463"},{"id":"13458794A52910B0","name":"青盛苑","lat":"22.348861","long":"114.103381"},{"id":"3F13933D0157CFCF","name":"青華苑","lat":"22.349501","long":"114.099478"},{"id":"A2BE47AFF20CD4F6","name":"曉峰園","lat":"22.353940","long":"114.097467"},{"id":"F88EE882E4B77399","name":"長亨巴士總站","lat":"22.355525","long":"114.097634"}],"routeId":"242X","description":"正常班次"}]