[{"company":"gmb","route":"24A","routeType":1,"orig":"金鐘站(德立街)","dest":"肇輝台(循環線)","stopList":[{"id":20000066,"name":"德立街, 近港鐵站入口","lat":22.27913213277772,"long":22.27913213277772},{"id":20000307,"name":"皇后大道東,太古廣場三座外 ","lat":22.277723541721667,"long":22.277723541721667},{"id":20000308,"name":"皇后大道東,近廈門街","lat":22.275113864325917,"long":22.275113864325917},{"id":20000309,"name":"皇后大道東, 灣仔街市外","lat":22.274499832294484,"long":22.274499832294484},{"id":20000134,"name":"司徒拔道, 近友邦大廈入口","lat":22.274274090872368,"long":22.274274090872368},{"id":20000135,"name":"肇輝台","lat":22.272386685350693,"long":22.272386685350693},{"id":20000136,"name":"皇后大道東, 近香港華仁書院","lat":22.274797867402732,"long":22.274797867402732},{"id":20000137,"name":"皇后大道東213號","lat":22.274499805670775,"long":22.274499805670775},{"id":20000139,"name":"駱克道, 盧押道以西","lat":22.278048814314253,"long":22.278048814314253},{"id":20000066,"name":"德立街, 近港鐵站入口","lat":22.27913213277772,"long":22.27913213277772}],"routeId":2002021,"description":"正常班次"}]