[{"company":"kmb","route":"259X","routeType":"1","dir":"O","orig":"屯門(龍門居)","dest":"觀塘碼頭","stopList":[{"id":"F4332C65563587A2","name":"龍門居總站","lat":"22.385019","long":"113.966035"},{"id":"1E990292ADEF23A2","name":"富健花園","lat":"22.383682","long":"113.964671"},{"id":"83A02749D0CB2EE8","name":"新屯門中心","lat":"22.381790","long":"113.963853"},{"id":"3104B2FBA1EEE592","name":"兆山苑柳景閣","lat":"22.377425","long":"113.961420"},{"id":"86D1BF834F627D5C","name":"蝴蝶邨蝶心樓","lat":"22.374166","long":"113.962277"},{"id":"1D944152BA58ABF3","name":"湖景邨湖碧樓","lat":"22.373681","long":"113.964085"},{"id":"216AEF6F6541ECF1","name":"湖景邨湖畔樓","lat":"22.374569","long":"113.965688"},{"id":"1ACA45F806F2554A","name":"湖景邨湖翠樓","lat":"22.376415","long":"113.966141"},{"id":"F69B2B317BEB37A3","name":"屯門泳池","lat":"22.382080","long":"113.970163"},{"id":"846872B8B3E76E7D","name":"屯門公路轉車站 (A10)","lat":"22.362589","long":"114.015862"},{"id":"29ED2073D6C52B5A","name":"香港輔助警察隊總部","lat":"22.325187","long":"114.206906"},{"id":"327E4BC13954EA86","name":"臨華街遊樂場","lat":"22.322685","long":"114.206332"},{"id":"81C6D8E74259157E","name":"常怡道","lat":"22.321028","long":"114.207722"},{"id":"5D8FCEF2915882FD","name":"觀塘順業街","lat":"22.316313","long":"114.214785"},{"id":"C2605DED84199B84","name":"觀塘勵業街","lat":"22.314912","long":"114.216362"},{"id":"BF8E440F5584D39D","name":"觀塘巧明街","lat":"22.311960","long":"114.219656"},{"id":"8D0555A78A132018","name":"觀塘碼頭 (落客站)","lat":"22.307430","long":"114.221682"}],"routeId":"259X","description":"特別班次"},{"company":"kmb","route":"259X","routeType":"1","dir":"I","orig":"觀塘碼頭","dest":"屯門(龍門居)","stopList":[{"id":"C3313FB0649BBD41","name":"觀塘碼頭","lat":"22.307833","long":"114.221944"},{"id":"D39533060940818A","name":"觀塘勵業街","lat":"22.313800","long":"114.215990"},{"id":"14894C859FDFE8C3","name":"觀塘海濱花園","lat":"22.315682","long":"114.214093"},{"id":"A21BEB6F4E6D43E6","name":"九龍灣常悅道","lat":"22.321143","long":"114.208979"},{"id":"2F1F9CF16B9E65AF","name":"九龍灣臨華街","lat":"22.322347","long":"114.208909"},{"id":"0EAFBD8737911A6A","name":"沙田坳道 (D3)","lat":"22.341474","long":"114.195481"},{"id":"0269A1F9D98C737E","name":"屯門公路轉車站 (B7)","lat":"22.357963","long":"114.019242"},{"id":"A8B22902BD665766","name":"屯門公路轉車站 (B4)","lat":"22.358465","long":"114.018779"},{"id":"320704B87EF998D4","name":"屯門泳池","lat":"22.381464","long":"113.970408"},{"id":"7CFE29DD74F71B2F","name":"湖景邨湖翠樓","lat":"22.376589","long":"113.966462"},{"id":"667E322246C6F7FA","name":"湖景邨湖畔樓","lat":"22.373906","long":"113.965736"},{"id":"015AD88813C61900","name":"美樂花園","lat":"22.375412","long":"113.960844"},{"id":"B88E6F52E2BC2E34","name":"蝴蝶站","lat":"22.378219","long":"113.961708"},{"id":"3FAE59A79C8BCC93","name":"新屯門中心","lat":"22.381791","long":"113.963366"},{"id":"F4332C65563587A2","name":"龍門居總站","lat":"22.385019","long":"113.966035"}],"routeId":"259X","description":"特別班次"}]