[{"company":"kmb","route":"261X","routeType":"1","dir":"O","orig":"屯門巿中心","dest":"粉嶺(祥華)","stopList":[{"id":"8660BDF2C013FAC2","name":"屯門市中心總站","lat":"22.391191","long":"113.975808"},{"id":"EC49B6F5634BC0C2","name":"屯門市廣場","lat":"22.393029","long":"113.976848"},{"id":"7AC6625D894BA101","name":"新墟街市","lat":"22.398858","long":"113.976525"},{"id":"CBE54DB551C24A02","name":"紅橋","lat":"22.402437","long":"113.977155"},{"id":"E7057BF64CF7D89D","name":"形點 I","lat":"22.444324","long":"114.035984"},{"id":"4E2EC89B41600D7E","name":"形點 II","lat":"22.446662","long":"114.034928"},{"id":"73CDC61EBA1C9431","name":"形點 I","lat":"22.445065","long":"114.036445"},{"id":"31005C82D70F6B09","name":"彩蒲苑彩碧閣","lat":"22.502927","long":"114.124698"},{"id":"F8C20FE9111D486A","name":"上水站","lat":"22.500883","long":"114.127921"},{"id":"CF94083CB24CF4E5","name":"祥龍圍邨","lat":"22.495937","long":"114.125205"},{"id":"4A76CDB32FA69BC6","name":"御皇庭","lat":"22.494589","long":"114.126142"},{"id":"6F11F73C749338DB","name":"御景峰","lat":"22.495680","long":"114.128132"},{"id":"98EBAB9468C80DD2","name":"欣翠花園","lat":"22.495428","long":"114.131869"},{"id":"6DD6B837EF1FA76C","name":"嘉盛苑","lat":"22.492421","long":"114.133535"},{"id":"AFD29CB1A4F71AB9","name":"基新中學","lat":"22.491214","long":"114.134960"},{"id":"65ECD19EFD09FB74","name":"粉嶺站 (D1)","lat":"22.491067","long":"114.138870"},{"id":"D67917549F3DC8A3","name":"景盛苑","lat":"22.487472","long":"114.140579"},{"id":"6633B4885C8A3EE7","name":"華心邨","lat":"22.485511","long":"114.142649"},{"id":"0F3FA9B7D07A91F3","name":"塘坑","lat":"22.490759","long":"114.145622"},{"id":"C837C3C549793472","name":"粉嶺中心","lat":"22.490874","long":"114.142257"},{"id":"C1210CE431B3BB88","name":"祥華總站","lat":"22.492515","long":"114.141338"}],"routeId":"261X","description":"特別班次"},{"company":"kmb","route":"261X","routeType":"1","dir":"I","orig":"粉嶺(祥華)","dest":"屯門巿中心","stopList":[{"id":"C1210CE431B3BB88","name":"祥華總站","lat":"22.492515","long":"114.141338"},{"id":"BFAE1E951D3B63EC","name":"粉嶺中心","lat":"22.491181","long":"114.142627"},{"id":"C67060F448591E4F","name":"塘坑","lat":"22.490878","long":"114.145976"},{"id":"14BDB94A8F3ED3EC","name":"花都廣場","lat":"22.485231","long":"114.142756"},{"id":"FA7A3D77713061E9","name":"欣盛苑","lat":"22.487197","long":"114.140384"},{"id":"C7120BD9A94B4F6A","name":"蓬瀛仙館 (D2)","lat":"22.491045","long":"114.138414"},{"id":"825199DC3BC0C5A3","name":"基新中學","lat":"22.490943","long":"114.135133"},{"id":"ADB9356BBF06F7C7","name":"嘉盛苑","lat":"22.492093","long":"114.133240"},{"id":"8E3F5AE0A97053F9","name":"華慧園","lat":"22.495493","long":"114.130967"},{"id":"68C7CBB4CAB9FE69","name":"清河邨","lat":"22.494671","long":"114.127659"},{"id":"9CD9BFAE2BC91336","name":"曾梅千禧學校","lat":"22.494309","long":"114.125098"},{"id":"1BA6858FEF337645","name":"北區醫院","lat":"22.496035","long":"114.125186"},{"id":"4E655B25ABAE103A","name":"上水站","lat":"22.501272","long":"114.127302"},{"id":"AD4E0E8DC8ACEFB6","name":"彩蒲苑彩碧閣","lat":"22.502456","long":"114.125148"},{"id":"DF8F6AA868615D47","name":"彩蒲苑彩顏閣","lat":"22.501266","long":"114.123741"},{"id":"6A4B371546D489BF","name":"形點 I","lat":"22.444324","long":"114.035984"},{"id":"0C943B7308FF4DCC","name":"形點 II","lat":"22.446616","long":"114.035376"},{"id":"01AA9596DB95A8FA","name":"形點 I","lat":"22.445065","long":"114.036445"},{"id":"6FB7BC1E5BC1E4EE","name":"紅橋","lat":"22.401767","long":"113.977412"},{"id":"5238463F47B490D6","name":"新墟街市","lat":"22.396452","long":"113.976542"},{"id":"8660BDF2C013FAC2","name":"屯門市中心總站","lat":"22.391191","long":"113.975808"}],"routeId":"261X","description":"特別班次"}]