[{"company":"kmb","route":"261X","routeType":"1","dir":"O","orig":"掃管笏","dest":"粉嶺(祥華)","stopList":[{"id":"752B1B808E1B4CB5","name":"掃管笏路","lat":"22.373413","long":"114.003020"},{"id":"3C3AFAA5179D7F6D","name":"掃管笏","lat":"22.372064","long":"114.003672"},{"id":"130015EE1C05A484","name":"掃管笏路","lat":"22.374274","long":"114.002279"},{"id":"0F9DE5E3F13FBABA","name":"星堤","lat":"22.375593","long":"113.999537"},{"id":"FCE8D0E0D2A89B8B","name":"管翠路","lat":"22.375103","long":"113.997705"},{"id":"D77779E531F14725","name":"愛琴海岸","lat":"22.371429","long":"113.995269"},{"id":"F626C47C1F73E1AE","name":"香港黃金海岸","lat":"22.371209","long":"113.993965"},{"id":"813A44129E51981F","name":"黃金泳灘","lat":"22.373454","long":"113.991954"},{"id":"8972CD96C0B11BB2","name":"咖啡灣","lat":"22.375388","long":"113.986063"},{"id":"4AA82FE086BA80FD","name":"碧翠花園","lat":"22.377758","long":"113.983419"},{"id":"3410D9B6EF36D674","name":"青山灣碼頭","lat":"22.378810","long":"113.980728"},{"id":"9D88EE061FF5E1D0","name":"三聖邨","lat":"22.381267","long":"113.979047"},{"id":"3F0C9DF601178557","name":"屯門兆麟政府綜合大樓","lat":"22.383808","long":"113.979524"},{"id":"2BD0ACE05ADB9AD1","name":"青善遊樂場","lat":"22.384515","long":"113.980545"},{"id":"459BE083B86A8337","name":"置樂花園","lat":"22.387441","long":"113.980613"},{"id":"CD4626E2F32FE372","name":"華都花園","lat":"22.393068","long":"113.978448"},{"id":"BD830C5E8AAE1C74","name":"屯門市中心總站","lat":"22.391948","long":"113.975867"},{"id":"EC49B6F5634BC0C2","name":"屯門市廣場","lat":"22.393029","long":"113.976848"},{"id":"7AC6625D894BA101","name":"新墟街市","lat":"22.398858","long":"113.976525"},{"id":"CBE54DB551C24A02","name":"紅橋","lat":"22.402437","long":"113.977155"},{"id":"31005C82D70F6B09","name":"彩蒲苑彩碧閣","lat":"22.502927","long":"114.124698"},{"id":"F8C20FE9111D486A","name":"上水站","lat":"22.500883","long":"114.127921"},{"id":"CF94083CB24CF4E5","name":"祥龍圍邨","lat":"22.495937","long":"114.125205"},{"id":"4A76CDB32FA69BC6","name":"御皇庭","lat":"22.494589","long":"114.126142"},{"id":"6F11F73C749338DB","name":"御景峰","lat":"22.495680","long":"114.128132"},{"id":"98EBAB9468C80DD2","name":"欣翠花園","lat":"22.495428","long":"114.131869"},{"id":"6DD6B837EF1FA76C","name":"嘉盛苑","lat":"22.492421","long":"114.133535"},{"id":"AFD29CB1A4F71AB9","name":"基新中學","lat":"22.491214","long":"114.134960"},{"id":"65ECD19EFD09FB74","name":"粉嶺站轉車站 - 粉嶺站(D1)","lat":"22.491067","long":"114.138870"},{"id":"D67917549F3DC8A3","name":"景盛苑","lat":"22.487472","long":"114.140579"},{"id":"6633B4885C8A3EE7","name":"華心邨","lat":"22.485511","long":"114.142649"},{"id":"0F3FA9B7D07A91F3","name":"塘坑","lat":"22.490759","long":"114.145622"},{"id":"C837C3C549793472","name":"粉嶺中心","lat":"22.490874","long":"114.142257"},{"id":"C1210CE431B3BB88","name":"祥華總站","lat":"22.492515","long":"114.141338"}],"routeId":"261X","description":"正常班次"},{"company":"kmb","route":"261X","routeType":"1","dir":"I","orig":"粉嶺(祥華)","dest":"掃管笏","stopList":[{"id":"C1210CE431B3BB88","name":"祥華總站","lat":"22.492515","long":"114.141338"},{"id":"BFAE1E951D3B63EC","name":"粉嶺中心","lat":"22.491181","long":"114.142627"},{"id":"C67060F448591E4F","name":"塘坑","lat":"22.490878","long":"114.145976"},{"id":"14BDB94A8F3ED3EC","name":"花都廣場","lat":"22.485231","long":"114.142756"},{"id":"FA7A3D77713061E9","name":"欣盛苑","lat":"22.487197","long":"114.140384"},{"id":"C7120BD9A94B4F6A","name":"粉嶺站轉車站 - 蓬瀛仙館 (D2)","lat":"22.491045","long":"114.138414"},{"id":"825199DC3BC0C5A3","name":"基新中學","lat":"22.490943","long":"114.135133"},{"id":"ADB9356BBF06F7C7","name":"嘉盛苑","lat":"22.492093","long":"114.133240"},{"id":"8E3F5AE0A97053F9","name":"華慧園","lat":"22.495493","long":"114.130967"},{"id":"68C7CBB4CAB9FE69","name":"清河邨","lat":"22.494671","long":"114.127659"},{"id":"9CD9BFAE2BC91336","name":"曾梅千禧學校","lat":"22.494309","long":"114.125098"},{"id":"1BA6858FEF337645","name":"北區醫院","lat":"22.496035","long":"114.125186"},{"id":"4E655B25ABAE103A","name":"上水站","lat":"22.501272","long":"114.127302"},{"id":"AD4E0E8DC8ACEFB6","name":"彩蒲苑彩碧閣","lat":"22.502456","long":"114.125148"},{"id":"DF8F6AA868615D47","name":"彩蒲苑彩顏閣","lat":"22.501266","long":"114.123741"},{"id":"6FB7BC1E5BC1E4EE","name":"紅橋 (K3)","lat":"22.401767","long":"113.977412"},{"id":"5238463F47B490D6","name":"新墟街市","lat":"22.396452","long":"113.976542"},{"id":"C1BF4509359B0895","name":"屯門市中心總站","lat":"22.391509","long":"113.975556"},{"id":"1E15CFA82F408124","name":"屯門官立中學","lat":"22.390507","long":"113.978410"},{"id":"46D78D8886A71B3B","name":"恒順園","lat":"22.387343","long":"113.980863"},{"id":"630AA1866C5372B6","name":"恒豐園","lat":"22.384771","long":"113.980968"},{"id":"C90375A74B02D2E8","name":"三聖邨","lat":"22.381830","long":"113.978850"},{"id":"EEC48EC880FC63CB","name":"青山灣","lat":"22.379044","long":"113.980643"},{"id":"242418A9AB386596","name":"海景花園","lat":"22.377910","long":"113.983680"},{"id":"A9D85812EAEE6C17","name":"咖啡灣","lat":"22.375472","long":"113.986300"},{"id":"971554761E4413EF","name":"黃金泳灘","lat":"22.373951","long":"113.989581"},{"id":"7FB2AE7FA13EDB0F","name":"香港黃金海岸","lat":"22.372424","long":"113.993293"},{"id":"46261DE8D4DFD821","name":"愛琴海岸","lat":"22.371567","long":"113.995416"},{"id":"5A3DB1CED74A109E","name":"掃管笏變電站","lat":"22.373820","long":"113.996152"},{"id":"22E22257A0FA43D3","name":"星堤","lat":"22.375663","long":"113.999657"},{"id":"752B1B808E1B4CB5","name":"掃管笏路","lat":"22.373413","long":"114.003020"},{"id":"3C3AFAA5179D7F6D","name":"掃管笏","lat":"22.372064","long":"114.003672"}],"routeId":"261X","description":"正常班次"}]