[{"company":"kmb","route":"265S","routeType":"1","dir":"O","orig":"天水圍市中心","dest":"大埔工業邨","stopList":[{"id":"0AE307AC4840B867","name":"天水圍市中心","lat":"22.458165","long":"114.002391"},{"id":"D813C93D9AD1C45B","name":"景湖居","lat":"22.458758","long":"114.005056"},{"id":"7BB395B6FE66E102","name":"麗湖居","lat":"22.460342","long":"114.004668"},{"id":"6D4E7B9D5F9584E7","name":"天晴邨晴雲樓","lat":"22.463713","long":"114.003961"},{"id":"47AB1894215AECEE","name":"慧景軒","lat":"22.465772","long":"114.004797"},{"id":"42AEF6365E78DA56","name":"香港濕地公園","lat":"22.469550","long":"114.002584"},{"id":"8753A8442C2FFF53","name":"天逸邨逸潭樓","lat":"22.468468","long":"113.999554"},{"id":"8D56DB404D264D5A","name":"天富苑欣富閣","lat":"22.464353","long":"113.997530"},{"id":"A00D00FC2F4F8400","name":"天頌苑","lat":"22.461099","long":"113.997082"},{"id":"C052B4D46E1F48EA","name":"天瑞邨","lat":"22.456488","long":"113.999426"},{"id":"AFB9321F7CD2C2E4","name":"天水圍公園","lat":"22.454484","long":"114.002970"},{"id":"7898B605E39613A8","name":"天耀邨耀盛樓","lat":"22.452235","long":"114.002089"},{"id":"0BC0F64B076ED373","name":"天耀邨耀民樓","lat":"22.449527","long":"114.003212"},{"id":"C20316E552E64387","name":"天祐苑","lat":"22.450491","long":"114.006277"},{"id":"CDB292D507E4302D","name":"廣福邨","lat":"22.446299","long":"114.173076"},{"id":"0D9F5E10DA9CCE02","name":"王肇枝中學","lat":"22.446781","long":"114.171272"},{"id":"05485C36CA334A81","name":"廣福道轉車站 (A1)","lat":"22.448052","long":"114.168045"},{"id":"FDDA176977136CD9","name":"廣福道轉車站 - 寶鄉橋 (B4)","lat":"22.449961","long":"114.167022"},{"id":"95B249916F323BD4","name":"大埔平安里","lat":"22.452587","long":"114.165432"},{"id":"446E33686D9C02E0","name":"榮暉花園","lat":"22.453644","long":"114.165759"},{"id":"F9C14690633CE7E0","name":"太平工業中心","lat":"22.456967","long":"114.168023"},{"id":"7BCFD79F22F60457","name":"富亨邨","lat":"22.456330","long":"114.170752"},{"id":"32C1F605CAAD7861","name":"怡雅苑","lat":"22.455885","long":"114.173614"},{"id":"CAB927254C5D8892","name":"大埔大昌街","lat":"22.457166","long":"114.186861"},{"id":"ADF5445FF5059D45","name":"大埔工業邨","lat":"22.457664","long":"114.187690"}],"routeId":"265S","description":"正常班次"},{"company":"kmb","route":"265S","routeType":"2","dir":"O","orig":"天水圍市中心","dest":"大埔工業邨","stopList":[{"id":"0AE307AC4840B867","name":"天水圍市中心","lat":"22.458165","long":"114.002391"},{"id":"D813C93D9AD1C45B","name":"景湖居","lat":"22.458758","long":"114.005056"},{"id":"7BB395B6FE66E102","name":"麗湖居","lat":"22.460342","long":"114.004668"},{"id":"6D4E7B9D5F9584E7","name":"天晴邨晴雲樓","lat":"22.463713","long":"114.003961"},{"id":"47AB1894215AECEE","name":"慧景軒","lat":"22.465772","long":"114.004797"},{"id":"42AEF6365E78DA56","name":"香港濕地公園","lat":"22.469550","long":"114.002584"},{"id":"8753A8442C2FFF53","name":"天逸邨逸潭樓","lat":"22.468468","long":"113.999554"},{"id":"8D56DB404D264D5A","name":"天富苑欣富閣","lat":"22.464353","long":"113.997530"},{"id":"A00D00FC2F4F8400","name":"天頌苑","lat":"22.461099","long":"113.997082"},{"id":"C052B4D46E1F48EA","name":"天瑞邨","lat":"22.456488","long":"113.999426"},{"id":"AFB9321F7CD2C2E4","name":"天水圍公園","lat":"22.454484","long":"114.002970"},{"id":"7898B605E39613A8","name":"天耀邨耀盛樓","lat":"22.452235","long":"114.002089"},{"id":"0BC0F64B076ED373","name":"天耀邨耀民樓","lat":"22.449527","long":"114.003212"},{"id":"C20316E552E64387","name":"天祐苑","lat":"22.450491","long":"114.006277"},{"id":"1C0A89BD67A4CFF0","name":"鳳池村","lat":"22.446363","long":"114.019325"},{"id":"0D98A0E934584FD0","name":"香港家庭計劃指導會","lat":"22.445861","long":"114.022618"},{"id":"6E85D42922E5A10C","name":"元朗廣場 (N1)","lat":"22.444678","long":"114.023992"},{"id":"D54B0CA58FE5559D","name":"元朗同樂街 (N12)","lat":"22.444616","long":"114.028395"},{"id":"445B2A02DB891CA9","name":"元朗谷亭街 (N14)","lat":"22.444580","long":"114.030435"},{"id":"0C943B7308FF4DCC","name":"形點 II","lat":"22.446616","long":"114.035376"},{"id":"73CDC61EBA1C9431","name":"形點 I","lat":"22.445065","long":"114.036445"},{"id":"CDB292D507E4302D","name":"廣福邨","lat":"22.446299","long":"114.173076"},{"id":"0D9F5E10DA9CCE02","name":"王肇枝中學","lat":"22.446781","long":"114.171272"},{"id":"05485C36CA334A81","name":"廣福道轉車站 (A1)","lat":"22.448052","long":"114.168045"},{"id":"FDDA176977136CD9","name":"廣福道轉車站 - 寶鄉橋 (B4)","lat":"22.449961","long":"114.167022"},{"id":"95B249916F323BD4","name":"大埔平安里","lat":"22.452587","long":"114.165432"},{"id":"446E33686D9C02E0","name":"榮暉花園","lat":"22.453644","long":"114.165759"},{"id":"F9C14690633CE7E0","name":"太平工業中心","lat":"22.456967","long":"114.168023"},{"id":"7BCFD79F22F60457","name":"富亨邨","lat":"22.456330","long":"114.170752"},{"id":"32C1F605CAAD7861","name":"怡雅苑","lat":"22.455885","long":"114.173614"},{"id":"CAB927254C5D8892","name":"大埔大昌街","lat":"22.457166","long":"114.186861"},{"id":"ADF5445FF5059D45","name":"大埔工業邨","lat":"22.457664","long":"114.187690"}],"routeId":"265S","description":"特別班次"},{"company":"kmb","route":"265S","routeType":"1","dir":"I","orig":"大埔工業邨","dest":"天水圍市中心","stopList":[{"id":"ADF5445FF5059D45","name":"大埔工業邨","lat":"22.457664","long":"114.187690"},{"id":"551DEE0C7120DECD","name":"大埔大昌街","lat":"22.456990","long":"114.187146"},{"id":"6E1E84A8BAF508AC","name":"救恩書院","lat":"22.456277","long":"114.176509"},{"id":"DB241439B4E2785A","name":"怡雅苑","lat":"22.455545","long":"114.173860"},{"id":"378DA3C43904CFF9","name":"大元邨","lat":"22.456236","long":"114.170374"},{"id":"9FBD2D7974A0AB50","name":"沐恩中學","lat":"22.456232","long":"114.167196"},{"id":"1A0BF02F827F6A20","name":"大埔安慈路","lat":"22.452495","long":"114.165632"},{"id":"6DE63371E5E799BA","name":"大埔舊墟公園","lat":"22.451324","long":"114.165984"},{"id":"3CE4F8574F4F9D72","name":"廣福道轉車站 - 寶鄉街 (X1)","lat":"22.449048","long":"114.166918"},{"id":"3FD481FB9B9DC36C","name":"大埔運頭角里","lat":"22.447394","long":"114.169932"},{"id":"12E4BAFA2B73435B","name":"廣福邨","lat":"22.446599","long":"114.173474"},{"id":"A264A7BA921EEE6E","name":"聚星樓","lat":"22.449187","long":"114.005526"},{"id":"ABE1BADF8D43CB24","name":"天盛苑","lat":"22.449499","long":"114.002938"},{"id":"6A90A40248059768","name":"賞湖居","lat":"22.452438","long":"114.001971"},{"id":"48D55BCE2E97E1DE","name":"天水圍公園","lat":"22.454842","long":"114.001827"},{"id":"FBBF4EB577663A13","name":"天瑞邨","lat":"22.456855","long":"113.998947"},{"id":"F97A667725CDEB82","name":"天華邨","lat":"22.460314","long":"113.997000"},{"id":"73FE2D32F218DA9C","name":"天恩邨","lat":"22.464231","long":"113.997238"},{"id":"A264255E81F51111","name":"天澤邨","lat":"22.468122","long":"113.999172"},{"id":"4C86E1F44AE9C25B","name":"香港濕地公園","lat":"22.469846","long":"114.002807"},{"id":"308112BE50081258","name":"香港青年協會李兆基書院","lat":"22.463244","long":"114.004080"},{"id":"537F93CCE45CB56F","name":"美湖居","lat":"22.459800","long":"114.005300"},{"id":"0AE307AC4840B867","name":"天水圍市中心","lat":"22.458165","long":"114.002391"}],"routeId":"265S","description":"正常班次"}]