[{"company":"kmb","route":"269A","routeType":"1","dir":"O","orig":"濕地公園路","dest":"葵涌(葵芳邨)","stopList":[{"id":"71D916F7E97D18A3","name":"濕地公園路","lat":"22.465603","long":"114.006451"},{"id":"42AEF6365E78DA56","name":"香港濕地公園","lat":"22.469550","long":"114.002584"},{"id":"8753A8442C2FFF53","name":"天逸邨逸潭樓","lat":"22.468468","long":"113.999554"},{"id":"1BE574CAE40EFF17","name":"天逸邨逸洋樓","lat":"22.465611","long":"113.999920"},{"id":"797CC0222B9EFBEF","name":"天晴邨晴碧樓","lat":"22.464455","long":"114.003373"},{"id":"308112BE50081258","name":"香港青年協會李兆基書院","lat":"22.463244","long":"114.004080"},{"id":"D2425B7147B58E1D","name":"美湖居","lat":"22.461038","long":"114.004351"},{"id":"A4607B71730E8F46","name":"景湖居","lat":"22.457409","long":"114.005641"},{"id":"189AC37A164008A6","name":"大欖隧道轉車站 (A5)","lat":"22.420753","long":"114.064378"},{"id":"7E2E1F1269E520DE","name":"大欖隧道轉車站 (A4)","lat":"22.420094","long":"114.064395"},{"id":"ED364A58F885DC92","name":"荃景圍天橋","lat":"22.375761","long":"114.107956"},{"id":"D6C06E7091666AB4","name":"愉景新城","lat":"22.374994","long":"114.112969"},{"id":"F8D8D0AED9889278","name":"荃灣站","lat":"22.374084","long":"114.115113"},{"id":"2D33D39F61B74C5D","name":"荃灣眾安街","lat":"22.372563","long":"114.118280"},{"id":"AAB411C52D067AD1","name":"大窩口轉車站 (A2)","lat":"22.370533","long":"114.124151"},{"id":"558D298696B57A4D","name":"昌榮路迴旋處","lat":"22.370230","long":"114.131936"},{"id":"0E65D3EC41A1D34B","name":"葵俊苑","lat":"22.364682","long":"114.132892"},{"id":"4E3FEA4E559A5D16","name":"新葵興花園","lat":"22.362423","long":"114.132128"},{"id":"DA17B01A4A61A358","name":"葵芳邨","lat":"22.359821","long":"114.131178"}],"routeId":"269A","description":"正常班次"}]