[{"company":"kmb","route":"269M","routeType":"1","dir":"O","orig":"天恩邨","dest":"祖堯","stopList":[{"id":"498C8934EAACBE51","name":"天恩邨總站","lat":"22.462329","long":"113.996618"},{"id":"73FE2D32F218DA9C","name":"天恩邨","lat":"22.464231","long":"113.997238"},{"id":"1BE574CAE40EFF17","name":"天逸邨逸洋樓","lat":"22.465611","long":"113.999920"},{"id":"797CC0222B9EFBEF","name":"天晴邨晴碧樓","lat":"22.464455","long":"114.003373"},{"id":"308112BE50081258","name":"香港青年協會李兆基書院","lat":"22.463244","long":"114.004080"},{"id":"D2425B7147B58E1D","name":"美湖居","lat":"22.461038","long":"114.004351"},{"id":"A4607B71730E8F46","name":"景湖居","lat":"22.457409","long":"114.005641"},{"id":"021872C0E263AC46","name":"天慈邨","lat":"22.453091","long":"114.006201"},{"id":"189AC37A164008A6","name":"大欖隧道 (A5)","lat":"22.420753","long":"114.064378"},{"id":"7E2E1F1269E520DE","name":"大欖隧道 (A4)","lat":"22.420094","long":"114.064395"},{"id":"ED364A58F885DC92","name":"荃景圍天橋","lat":"22.375761","long":"114.107956"},{"id":"D6C06E7091666AB4","name":"愉景新城","lat":"22.374994","long":"114.112969"},{"id":"F8D8D0AED9889278","name":"荃灣站","lat":"22.374084","long":"114.115113"},{"id":"2D33D39F61B74C5D","name":"荃灣眾安街","lat":"22.372563","long":"114.118280"},{"id":"AAB411C52D067AD1","name":"大窩口站","lat":"22.370533","long":"114.124151"},{"id":"558D298696B57A4D","name":"昌榮路迴旋處","lat":"22.370230","long":"114.131936"},{"id":"898337E6181E5E66","name":"葵俊苑","lat":"22.364874","long":"114.132965"},{"id":"4E3FEA4E559A5D16","name":"新葵興花園","lat":"22.362423","long":"114.132128"},{"id":"BB04686A2E0D7578","name":"葵芳邨","lat":"22.359821","long":"114.131178"},{"id":"952DD8539E6DAC75","name":"聯接街","lat":"22.351458","long":"114.127456"},{"id":"E3AB394138EDE467","name":"荔景站","lat":"22.348013","long":"114.126872"},{"id":"F275A85A9CF9BBC4","name":"荔景邨樂景樓","lat":"22.345552","long":"114.127175"},{"id":"8C87D5196ECC1057","name":"祖堯邨巴士總站","lat":"22.345973","long":"114.128520"}],"routeId":"269M"},{"company":"kmb","route":"269M","routeType":"1","dir":"I","orig":"祖堯","dest":"天恩邨","stopList":[{"id":"8C87D5196ECC1057","name":"祖堯邨巴士總站","lat":"22.345973","long":"114.128520"},{"id":"044D07048F45F915","name":"荔景站","lat":"22.348191","long":"114.126648"},{"id":"6E6EBC9D1AF2DA52","name":"荔景邨日景樓","lat":"22.349841","long":"114.126962"},{"id":"DC28E30AF099D339","name":"葵涌運動場","lat":"22.357822","long":"114.125780"},{"id":"95A8334E0385A5E7","name":"葵芳邨","lat":"22.359562","long":"114.130778"},{"id":"4173C3AEE8B6F33E","name":"葵涌耀榮里","lat":"22.369113","long":"114.133275"},{"id":"AB10F01039440464","name":"葵涌健全街","lat":"22.370324","long":"114.131214"},{"id":"354A2C15BD189228","name":"大窩口站","lat":"22.370356","long":"114.124855"},{"id":"87668BC629020844","name":"荃灣眾安街","lat":"22.371286","long":"114.119159"},{"id":"645D996BAD54FBBC","name":"荃灣建明街","lat":"22.373687","long":"114.115393"},{"id":"A68A34F71D94FF13","name":"荃景圍天橋","lat":"22.375480","long":"114.108839"},{"id":"643D73028E9E8490","name":"大欖隧道 (B5)","lat":"22.420245","long":"114.063487"},{"id":"0D7A1D0AECA1D999","name":"大欖隧道 (B3)","lat":"22.421010","long":"114.063768"},{"id":"1D202282C0A82F12","name":"天耀邨耀豐樓","lat":"22.453046","long":"114.005926"},{"id":"D813C93D9AD1C45B","name":"景湖居","lat":"22.458758","long":"114.005056"},{"id":"7BB395B6FE66E102","name":"麗湖居","lat":"22.460342","long":"114.004668"},{"id":"6D4E7B9D5F9584E7","name":"天晴邨晴雲樓","lat":"22.463713","long":"114.003961"},{"id":"5D9E516680412A3E","name":"天富苑能富閣","lat":"22.465044","long":"114.000689"},{"id":"8D56DB404D264D5A","name":"天富苑欣富閣","lat":"22.464353","long":"113.997530"},{"id":"498C8934EAACBE51","name":"天恩邨總站","lat":"22.462329","long":"113.996618"}],"routeId":"269M"}]