[{"company":"kmb","route":"269R","routeType":"1","dir":"O","orig":"紅磡香港體育館","dest":"天恆邨","stopList":[{"id":"CF5DC4E6AD2F4621","name":"香港體育館","lat":"22.301962","long":"114.181147"},{"id":"E55FA660A59AB64A","name":"大欖隧道 (B5)","lat":"22.420344","long":"114.063524"},{"id":"14157BA5C06B0B6B","name":"形點 I","lat":"22.444403","long":"114.034469"},{"id":"605B05317A40A2A4","name":"元朗又新街 (S2)","lat":"22.444293","long":"114.031066"},{"id":"78AD2432201EF5EE","name":"元朗大棠路 (S7)","lat":"22.444342","long":"114.028334"},{"id":"D9CE618F99BAC2B6","name":"元朗康樂路 (S10)","lat":"22.444365","long":"114.026102"},{"id":"0E2B8E1D544C6889","name":"元朗警署 (S12)","lat":"22.444429","long":"114.023959"},{"id":"A010FE2C473103A8","name":"水邊村","lat":"22.444444","long":"114.021349"},{"id":"70FEB409760C77EE","name":"元朗公園","lat":"22.444092","long":"114.018874"},{"id":"A264A7BA921EEE6E","name":"聚星樓","lat":"22.449187","long":"114.005526"},{"id":"ABE1BADF8D43CB24","name":"天盛苑","lat":"22.449499","long":"114.002938"},{"id":"6A90A40248059768","name":"賞湖居","lat":"22.452438","long":"114.001971"},{"id":"48D55BCE2E97E1DE","name":"天水圍公園","lat":"22.454842","long":"114.001827"},{"id":"FBBF4EB577663A13","name":"天瑞邨","lat":"22.456855","long":"113.998947"},{"id":"F97A667725CDEB82","name":"天華邨","lat":"22.460314","long":"113.997000"},{"id":"73FE2D32F218DA9C","name":"天恩邨","lat":"22.464231","long":"113.997238"},{"id":"A264255E81F51111","name":"天澤邨","lat":"22.468122","long":"113.999172"},{"id":"223DAE7E925E3BB9","name":"天恆邨總站","lat":"22.469471","long":"113.999708"}],"routeId":"269R"}]