[{"company":"kmb","route":"27","routeType":"1","dir":"O","orig":"順天","dest":"旺角(循環線)","stopList":[{"id":"8F5CE1219E502C17","name":"順天總站","lat":"22.326327","long":"114.226697"},{"id":"616FE33CD20DB62E","name":"順安邨","lat":"22.328381","long":"114.226851"},{"id":"CEFFBCE5203D152B","name":"利業樓","lat":"22.331649","long":"114.226061"},{"id":"8571BCC3A3E4006E","name":"利恒樓","lat":"22.333006","long":"114.224248"},{"id":"D9896F1A5B7C97C0","name":"順利消防局","lat":"22.331782","long":"114.222608"},{"id":"3BA9C90738A8600D","name":"白虹樓","lat":"22.332289","long":"114.215322"},{"id":"29B66F2353388E18","name":"彩虹站","lat":"22.334168","long":"114.209980"},{"id":"4D9419874306D82F","name":"采頤花園","lat":"22.334909","long":"114.201967"},{"id":"D625B0997C3DBCFE","name":"譽．港灣","lat":"22.332000","long":"114.196917"},{"id":"67727D444E2EC42B","name":"富豪東方酒店","lat":"22.327232","long":"114.190701"},{"id":"3161D898CD89AA38","name":"侯王道","lat":"22.327437","long":"114.188845"},{"id":"9DBBC71CB1578A87","name":"喇沙利道","lat":"22.326473","long":"114.183159"},{"id":"312CD2A987AA2773","name":"伯爵街","lat":"22.325975","long":"114.180423"},{"id":"40E8A4AA35AEB18A","name":"勵德街","lat":"22.325359","long":"114.176886"},{"id":"55EE74AF2D1A7DAA","name":"拔萃男書院","lat":"22.324934","long":"114.174398"},{"id":"6F5585807DB07812","name":"太子站","lat":"22.324122","long":"114.169733"},{"id":"1876E8AF9A236BAB","name":"旺角道","lat":"22.321099","long":"114.169949"},{"id":"D01D18C6EB79F84B","name":"嘉道理道","lat":"22.320407","long":"114.174387"},{"id":"A72D15160CC3AF31","name":"亞皆老街中電","lat":"22.320532","long":"114.175816"},{"id":"8D5C58075D3C1003","name":"九龍醫院","lat":"22.322801","long":"114.180560"},{"id":"B0DDF2CD704116C8","name":"醫院管理局","lat":"22.323790","long":"114.182797"},{"id":"6C1DEF32B8CB92C4","name":"香港眼科醫院","lat":"22.324908","long":"114.184866"},{"id":"161B32AD4C6996AD","name":"播道醫院","lat":"22.326104","long":"114.187300"},{"id":"6965D1D655C2DD5F","name":"亞皆老街球場","lat":"22.327009","long":"114.188955"},{"id":"448C1B8AECA89A6E","name":"富豪東方酒店","lat":"22.328375","long":"114.191799"},{"id":"92D1BB946193F239","name":"景泰街","lat":"22.334045","long":"114.198620"},{"id":"D887822D673804CA","name":"彩虹邨","lat":"22.335336","long":"114.204301"},{"id":"4513DF30B4CBA349","name":"牛池灣街市","lat":"22.334284","long":"114.209224"},{"id":"F065C32E9D2CB689","name":"彩雲聖若瑟小學","lat":"22.334412","long":"114.211700"},{"id":"9A16E73DC0B9AF6C","name":"白虹樓","lat":"22.332611","long":"114.215605"},{"id":"5E6E1289A9CD537D","name":"基順學校","lat":"22.332638","long":"114.223229"},{"id":"7B9D5D0407DB14D3","name":"順利消防局","lat":"22.331906","long":"114.222439"},{"id":"BF4620B0CD0B9D45","name":"利恒樓","lat":"22.332934","long":"114.224633"},{"id":"A0AB9A2B2D648FF5","name":"利康樓","lat":"22.330415","long":"114.225940"},{"id":"484F835517494767","name":"安逸樓","lat":"22.328625","long":"114.227099"},{"id":"8F5CE1219E502C17","name":"順天總站","lat":"22.326327","long":"114.226697"}],"routeId":"27","description":"特別班次"},{"company":"nwfb","route":"27","routeType":null,"dir":"I","orig":"寶馬山","dest":"北角碼頭","stopList":[{"id":"001368","name":"張祝珊英文中學, 雲景道","lat":"22.285712672091","long":"114.19561147053"},{"id":"001239","name":"雲景道配水庫遊樂場, 雲景道","lat":"22.284614152091","long":"114.19489288053"},{"id":"001240","name":"海景台, 雲景道","lat":"22.285153832091","long":"114.19621281053"},{"id":"001241","name":"恆景園, 雲景道","lat":"22.287080422091","long":"114.19704530053"},{"id":"001242","name":"雲峰大廈, 雲景道","lat":"22.287161292091","long":"114.19894215053"},{"id":"001211","name":"賽西湖大廈, 寶馬山道","lat":"22.285458182091","long":"114.19968480053"},{"id":"001250","name":"寶馬山","lat":"22.283570742091","long":"114.19887561053"},{"id":"001208","name":"豐林閣, 寶馬山道","lat":"22.285277372091","long":"114.19954957053"},{"id":"001209","name":"蘇浙公學, 寶馬山道","lat":"22.287079392091","long":"114.20121196053"},{"id":"001210","name":"豪景, 寶馬山道","lat":"22.287635422091","long":"114.20207163053"},{"id":"001324","name":"百福道, 天后廟道","lat":"22.288638982091","long":"114.20240686053"},{"id":"001388","name":"北角配水庫遊樂場, 天后廟道","lat":"22.288204272091","long":"114.20116354053"},{"id":"001325","name":"雲峰大廈, 天后廟道","lat":"22.287698762091","long":"114.19937946053"},{"id":"001326","name":"珊瑚閣, 天后廟道","lat":"22.288018642091","long":"114.19723560053"},{"id":"001327","name":"衡峰閣, 天后廟道","lat":"22.287155742091","long":"114.19584675053"},{"id":"001247","name":"金文泰中學, 炮台山道","lat":"22.287441792091","long":"114.19543648053"},{"id":"001261","name":"電廠街, 英皇道","lat":"22.290056622091","long":"114.19505769053"},{"id":"001262","name":"糖水道, 英皇道","lat":"22.290808072091","long":"114.19810570053"},{"id":"001310","name":"新光戲院, 書局街","lat":"22.291615512091","long":"114.20012532053"},{"id":"001249","name":"北角碼頭","lat":"22.293287872091","long":"114.20149753053"}],"routeId":"27","description":"正常班次"},{"company":"nwfb","route":"27","routeType":null,"dir":"O","orig":"北角碼頭","dest":"寶馬山","stopList":[{"id":"001249","name":"北角碼頭","lat":"22.293287872091","long":"114.20149753053"},{"id":"001279","name":"琴行街, 英皇道","lat":"22.291204122091","long":"114.20095851053"},{"id":"001281","name":"美麗閣, 英皇道","lat":"22.290567652091","long":"114.19788360053"},{"id":"001282","name":"新時代廣場, 英皇道","lat":"22.289909792091","long":"114.19515688053"},{"id":"001245","name":"聖彼得堂, 炮台山道","lat":"22.288371962091","long":"114.19529471053"},{"id":"001246","name":"富嘉閣, 炮台山道","lat":"22.287129632091","long":"114.19536100053"},{"id":"001368","name":"張祝珊英文中學, 雲景道","lat":"22.285712672091","long":"114.19561147053"},{"id":"001239","name":"雲景道配水庫遊樂場, 雲景道","lat":"22.284614152091","long":"114.19489288053"},{"id":"001240","name":"海景台, 雲景道","lat":"22.285153832091","long":"114.19621281053"},{"id":"001241","name":"恆景園, 雲景道","lat":"22.287080422091","long":"114.19704530053"},{"id":"001242","name":"雲峰大廈, 雲景道","lat":"22.287161292091","long":"114.19894215053"},{"id":"001211","name":"賽西湖大廈, 寶馬山道","lat":"22.285458182091","long":"114.19968480053"},{"id":"001250","name":"寶馬山","lat":"22.283570742091","long":"114.19887561053"},{"id":"001208","name":"豐林閣, 寶馬山道","lat":"22.285277372091","long":"114.19954957053"},{"id":"001209","name":"蘇浙公學, 寶馬山道","lat":"22.287079392091","long":"114.20121196053"},{"id":"001210","name":"豪景, 寶馬山道","lat":"22.287635422091","long":"114.20207163053"},{"id":"001324","name":"百福道, 天后廟道","lat":"22.288638982091","long":"114.20240686053"},{"id":"001388","name":"北角配水庫遊樂場, 天后廟道","lat":"22.288204272091","long":"114.20116354053"},{"id":"001325","name":"雲峰大廈, 天后廟道","lat":"22.287698762091","long":"114.19937946053"},{"id":"001326","name":"珊瑚閣, 天后廟道","lat":"22.288018642091","long":"114.19723560053"},{"id":"001327","name":"衡峰閣, 天后廟道","lat":"22.287155742091","long":"114.19584675053"}],"routeId":"27","description":"正常班次"}]