[{"company":"kmb","route":"270P","routeType":"1","dir":"O","orig":"上水","dest":"九龍站","stopList":[{"id":"CF0C67920B22ED62","name":"上水總站","lat":"22.502536","long":"114.128204"},{"id":"4EB92F34598243DB","name":"清河邨總站","lat":"22.494629","long":"114.128045"},{"id":"98EBAB9468C80DD2","name":"欣翠花園","lat":"22.495428","long":"114.131869"},{"id":"6DD6B837EF1FA76C","name":"嘉盛苑","lat":"22.492421","long":"114.133535"},{"id":"AFD29CB1A4F71AB9","name":"基新中學","lat":"22.491214","long":"114.134960"},{"id":"60952B4A38F3D82E","name":"粉嶺站 (D1)","lat":"22.490997","long":"114.138959"},{"id":"0E41E02CD9055626","name":"景盛苑","lat":"22.487331","long":"114.140641"},{"id":"EE81A30BE4BDC8AC","name":"華心邨","lat":"22.485511","long":"114.142649"},{"id":"F129DD8D9E3268FB","name":"華明總站","lat":"22.484411","long":"114.141410"},{"id":"D0FB28B8EED62431","name":"欣盛苑","lat":"22.487155","long":"114.140452"},{"id":"FA52803E2628A212","name":"牽晴間","lat":"22.486635","long":"114.143349"},{"id":"E6022594DB48E35B","name":"粉嶺公路轉車站(A3)","lat":"22.484781","long":"114.152709"},{"id":"480DB16994F8FFEE","name":"青沙公路轉車站 (A5)","lat":"22.358632","long":"114.163389"},{"id":"673B33867260EBB7","name":"青沙公路轉車站 (A4)","lat":"22.358523","long":"114.163314"},{"id":"5A0D9C9441ED6AC5","name":"大角咀中匯街","lat":"22.322767","long":"114.159836"},{"id":"9BF9C994F2DAE15D","name":"奧運站","lat":"22.318545","long":"114.160606"},{"id":"B76B249D3D253008","name":"富貴街","lat":"22.318679","long":"114.161867"},{"id":"3F34A16B40CB1C7F","name":"銘基書院","lat":"22.318844","long":"114.164162"},{"id":"14DDE929D10FE4B7","name":"新填地街","lat":"22.319532","long":"114.167481"},{"id":"68D0BC0C7164F763","name":"旺角站 (S12)","lat":"22.319868","long":"114.169295"},{"id":"E93113C9CA615B0C","name":"旺角豉油街 (S21)","lat":"22.316772","long":"114.170023"},{"id":"25B94D808EC232D8","name":"加士居道 (S38)","lat":"22.308921","long":"114.171408"},{"id":"2F165341B07CBDB9","name":"佐敦吳松街","lat":"22.305229","long":"114.169912"},{"id":"FD1B403FD4EC3E8D","name":"佐敦炮台街","lat":"22.305617","long":"114.168054"},{"id":"DD161A7AB0D39192","name":"佐敦道柯士甸站","lat":"22.306354","long":"114.164444"},{"id":"8611CE1D516C6A6F","name":"九龍站巴士總站","lat":"22.305068","long":"114.162626"}],"routeId":"270P"}]