[{"company":"KMB","route":"273","routeType":"1","dir":"O","orig":"粉嶺(華明)","dest":"粉嶺站(循環線)","stopList":[{"id":"3CAE3C9F0D263D94","name":"華明總站","lat":"22.484376","long":"114.140963"},{"id":"FA7A3D77713061E9","name":"欣盛苑","lat":"22.487197","long":"114.140384"},{"id":"C7120BD9A94B4F6A","name":"蓬瀛仙館 (D2)","lat":"22.491045","long":"114.138414"},{"id":"825199DC3BC0C5A3","name":"基新中學","lat":"22.490943","long":"114.135133"},{"id":"AFD29CB1A4F71AB9","name":"基新中學","lat":"22.491214","long":"114.134960"},{"id":"65ECD19EFD09FB74","name":"粉嶺站 (D1)","lat":"22.491067","long":"114.138870"},{"id":"4C97BE87FBF959C4","name":"百福田心球場","lat":"22.488346","long":"114.140923"},{"id":"FA52803E2628A212","name":"牽晴間","lat":"22.486635","long":"114.143349"},{"id":"3AD4DADA5B941CF2","name":"和興村","lat":"22.484599","long":"114.144319"},{"id":"9D6348EE544EF362","name":"華明總站","lat":"22.483955","long":"114.141712"},{"id":"3CAE3C9F0D263D94","name":"華明總站","lat":"22.484376","long":"114.140963"}],"routeId":"273"}]