[{"company":"kmb","route":"274","routeType":"1","dir":"O","orig":"上水(太平)","dest":"烏溪沙站","stopList":[{"id":"3C450B715D06675A","name":"太平總站","lat":"22.497528","long":"114.125221"},{"id":"CF94083CB24CF4E5","name":"祥龍圍邨","lat":"22.495937","long":"114.125205"},{"id":"4A76CDB32FA69BC6","name":"御皇庭","lat":"22.494589","long":"114.126142"},{"id":"6F11F73C749338DB","name":"御景峰","lat":"22.495680","long":"114.128132"},{"id":"98EBAB9468C80DD2","name":"欣翠花園","lat":"22.495428","long":"114.131869"},{"id":"6DD6B837EF1FA76C","name":"嘉盛苑","lat":"22.492421","long":"114.133535"},{"id":"AFD29CB1A4F71AB9","name":"基新中學","lat":"22.491214","long":"114.134960"},{"id":"60952B4A38F3D82E","name":"粉嶺站 (D1)","lat":"22.490997","long":"114.138959"},{"id":"D67917549F3DC8A3","name":"景盛苑","lat":"22.487472","long":"114.140579"},{"id":"EE81A30BE4BDC8AC","name":"華心邨","lat":"22.485511","long":"114.142649"},{"id":"CACE8456C1A48D50","name":"粉嶺公路轉車站(A4)","lat":"22.484781","long":"114.152709"},{"id":"74648B92E0E80E2E","name":"白石角變電站","lat":"22.434893","long":"114.201372"},{"id":"4DD5EC5516B360D7","name":"天賦海灣","lat":"22.431492","long":"114.201558"},{"id":"33ABA49F0E91A247","name":"雲滙","lat":"22.429805","long":"114.203323"},{"id":"B34F59A0270AEDA4","name":"創新路","lat":"22.428649","long":"114.204981"},{"id":"B644204AEDE7A031","name":"科研路","lat":"22.426442","long":"114.208450"},{"id":"5C2A974134634635","name":"科學園(第一期)","lat":"22.424272","long":"114.211589"},{"id":"A0D379E172F5BC93","name":"香港生物科技研究院","lat":"22.422664","long":"114.214179"},{"id":"853CD1316EB5227B","name":"水上活動中心","lat":"22.418662","long":"114.214271"},{"id":"BE6EC9708F5FB613","name":"馬料水公眾碼頭","lat":"22.416027","long":"114.213945"},{"id":"ECE98AAA81373891","name":"德信中學","lat":"22.410689","long":"114.221549"},{"id":"6B46C7E695EF21CF","name":"欣安邨","lat":"22.415305","long":"114.226294"},{"id":"F489213E82621D3F","name":"聽濤雅苑","lat":"22.418966","long":"114.226061"},{"id":"31DA09E74ABD87CD","name":"頌安邨","lat":"22.420741","long":"114.226763"},{"id":"B31E6B9D8E5B4493","name":"福安花園","lat":"22.423627","long":"114.228332"},{"id":"180DC2E520E7A4D0","name":"海栢花園","lat":"22.425017","long":"114.231436"},{"id":"5E082FCF5C58328C","name":"馬鞍山警署","lat":"22.422399","long":"114.232966"},{"id":"4B5F39DBC6671C81","name":"錦英苑","lat":"22.423954","long":"114.238505"},{"id":"4CC126E0B1E42F14","name":"錦龍苑","lat":"22.425909","long":"114.239535"},{"id":"A90443FD0C19C4B1","name":"利安邨","lat":"22.427627","long":"114.240415"},{"id":"89E9AB03B639BC10","name":"烏溪沙站","lat":"22.428344","long":"114.243423"}],"routeId":"274","description":"正常班次"}]