[{"company":"kmb","route":"276C","routeType":"1","dir":"O","orig":"天水圍站","dest":"上水","stopList":[{"id":"4639CEC8D4B587C7","name":"天水圍站總站","lat":"22.446542","long":"114.004007"},{"id":"C20316E552E64387","name":"天祐苑","lat":"22.450491","long":"114.006277"},{"id":"F05E718C02104BAC","name":"朗屏邨總站","lat":"22.450544","long":"114.022894"},{"id":"0D98A0E934584FD0","name":"香港家庭計劃指導會","lat":"22.445861","long":"114.022618"},{"id":"B02B0B9F73E50D93","name":"元朗廣場 (N3)","lat":"22.444678","long":"114.023992"},{"id":"D747ADD80335605C","name":"元朗同樂街 (N10)","lat":"22.444616","long":"114.028298"},{"id":"445B2A02DB891CA9","name":"元朗谷亭街 (N14)","lat":"22.444580","long":"114.030435"},{"id":"4E2EC89B41600D7E","name":"形點 II","lat":"22.446662","long":"114.034928"},{"id":"73CDC61EBA1C9431","name":"形點 I","lat":"22.445065","long":"114.036445"},{"id":"D876A83244ECB838","name":"上水站","lat":"22.501988","long":"114.127349"},{"id":"940F276037968281","name":"上水總站","lat":"22.502434","long":"114.127853"}],"routeId":"276C","description":"特別班次"}]