[{"company":"kmb","route":"276C","routeType":"1","dir":"O","orig":"天水圍站","dest":"粉嶺(祥華)","stopList":[{"id":"4639CEC8D4B587C7","name":"天水圍站總站","lat":"22.446542","long":"114.004007"},{"id":"C20316E552E64387","name":"天祐苑","lat":"22.450491","long":"114.006277"},{"id":"F05E718C02104BAC","name":"朗屏邨總站","lat":"22.450544","long":"114.022894"},{"id":"0D98A0E934584FD0","name":"香港家庭計劃指導會","lat":"22.445861","long":"114.022618"},{"id":"B02B0B9F73E50D93","name":"元朗廣場 (N3)","lat":"22.444678","long":"114.023992"},{"id":"D747ADD80335605C","name":"元朗同樂街 (N10)","lat":"22.444616","long":"114.028298"},{"id":"445B2A02DB891CA9","name":"元朗谷亭街 (N14)","lat":"22.444580","long":"114.030435"},{"id":"4E2EC89B41600D7E","name":"形點 II","lat":"22.446662","long":"114.034928"},{"id":"73CDC61EBA1C9431","name":"形點 I","lat":"22.445065","long":"114.036445"},{"id":"31005C82D70F6B09","name":"彩蒲苑彩碧閣","lat":"22.502927","long":"114.124698"},{"id":"F8C20FE9111D486A","name":"上水站","lat":"22.500883","long":"114.127921"},{"id":"CF94083CB24CF4E5","name":"祥龍圍邨","lat":"22.495937","long":"114.125205"},{"id":"4A76CDB32FA69BC6","name":"御皇庭","lat":"22.494589","long":"114.126142"},{"id":"6F11F73C749338DB","name":"御景峰","lat":"22.495680","long":"114.128132"},{"id":"98EBAB9468C80DD2","name":"欣翠花園","lat":"22.495428","long":"114.131869"},{"id":"6DD6B837EF1FA76C","name":"嘉盛苑","lat":"22.492421","long":"114.133535"},{"id":"AFD29CB1A4F71AB9","name":"基新中學","lat":"22.491214","long":"114.134960"},{"id":"65ECD19EFD09FB74","name":"粉嶺站 (D1)","lat":"22.491067","long":"114.138870"},{"id":"D67917549F3DC8A3","name":"景盛苑","lat":"22.487472","long":"114.140579"},{"id":"6633B4885C8A3EE7","name":"華心邨","lat":"22.485511","long":"114.142649"},{"id":"0F3FA9B7D07A91F3","name":"塘坑","lat":"22.490759","long":"114.145622"},{"id":"C837C3C549793472","name":"粉嶺中心","lat":"22.490874","long":"114.142257"},{"id":"C1210CE431B3BB88","name":"祥華總站","lat":"22.492515","long":"114.141338"}],"routeId":"276C","description":"正常班次"}]