[{"company":"kmb","route":"277P","routeType":"1","dir":"O","orig":"上水(天平)","dest":"藍田站","stopList":[{"id":"4442A9A5E7FABAB8","name":"天平邨總站","lat":"22.503577","long":"114.133906"},{"id":"EE775A73D626A46E","name":"天平邨天怡樓","lat":"22.504778","long":"114.131439"},{"id":"C3D2BF745570F4A5","name":"上水符興街","lat":"22.504543","long":"114.130087"},{"id":"B986375ED4762DA9","name":"翠麗花園","lat":"22.507406","long":"114.127661"},{"id":"D417A444017171C6","name":"龍豐花園","lat":"22.503073","long":"114.129594"},{"id":"26AC17B8F05DD7F2","name":"上水站(B1)","lat":"22.502171","long":"114.127188"},{"id":"4A35BB617F75F41D","name":"上水總站","lat":"22.502573","long":"114.127769"},{"id":"4EB92F34598243DB","name":"清河邨總站","lat":"22.494629","long":"114.128045"},{"id":"98EBAB9468C80DD2","name":"欣翠花園","lat":"22.495428","long":"114.131869"},{"id":"6DD6B837EF1FA76C","name":"嘉盛苑","lat":"22.492421","long":"114.133535"},{"id":"AFD29CB1A4F71AB9","name":"基新中學","lat":"22.491214","long":"114.134960"},{"id":"60952B4A38F3D82E","name":"粉嶺站 (D1)","lat":"22.490997","long":"114.138959"},{"id":"D67917549F3DC8A3","name":"景盛苑","lat":"22.487472","long":"114.140579"},{"id":"EE81A30BE4BDC8AC","name":"華心邨","lat":"22.485511","long":"114.142649"},{"id":"D2C1454B663392C9","name":"粉嶺公路轉車站 (A1)","lat":"22.484598","long":"114.152902"},{"id":"30D564180B68ECA8","name":"大老山隧道 (A2)","lat":"22.377526","long":"114.212311"},{"id":"E89B2315750AB2FD","name":"志蓮淨苑","lat":"22.339948","long":"114.204260"},{"id":"4B9D547F0F450784","name":"龍蟠苑","lat":"22.342920","long":"114.200382"},{"id":"5D1E6432755E4F5F","name":"新蒲崗四美街","lat":"22.338682","long":"114.200734"},{"id":"279C78D8C04A83BB","name":"碧海樓 (M3)","lat":"22.335806","long":"114.204705"},{"id":"BA03816A38B9DA7F","name":"啟業邨","lat":"22.330268","long":"114.210894"},{"id":"D0F8772D043C207E","name":"九龍灣站","lat":"22.323713","long":"114.214493"},{"id":"BE36EF30B86ADD1D","name":"牛頭角下邨","lat":"22.321653","long":"114.214648"},{"id":"598F766175BE3EF3","name":"觀塘道休憩處","lat":"22.318159","long":"114.215070"},{"id":"5FE12AC5660F89D6","name":"創紀之城 (U1)","lat":"22.314009","long":"114.222404"},{"id":"144E9479168069DD","name":"觀塘游泳池 (R2)","lat":"22.310432","long":"114.229545"},{"id":"A88EE1930BE82C54","name":"藍田站 (落客站)","lat":"22.307801","long":"114.233406"},{"id":"5774E63B634C0B1E","name":"藍田站","lat":"22.306701","long":"114.233898"}],"routeId":"277P","description":"正常班次"},{"company":"kmb","route":"277P","routeType":"1","dir":"I","orig":"藍田站","dest":"上水(天平)","stopList":[{"id":"5774E63B634C0B1E","name":"藍田站","lat":"22.306701","long":"114.233898"},{"id":"5B04604E989BBDF0","name":"觀塘法院 (F1)","lat":"22.310012","long":"114.229524"},{"id":"1E3A342DF7D5B8B5","name":"apm創紀之城5期 (D1)","lat":"22.312587","long":"114.225296"},{"id":"C9A46DDC082BAEE0","name":"創紀之城 (B1)","lat":"22.314351","long":"114.220671"},{"id":"ABF9301D1E5B52ED","name":"觀塘定富街","lat":"22.316772","long":"114.215491"},{"id":"266A4CDA19461A42","name":"牛頭角下邨","lat":"22.320432","long":"114.214418"},{"id":"8C79BE154468AE21","name":"德福花園","lat":"22.322542","long":"114.214064"},{"id":"26A996F589C84844","name":"九龍灣站","lat":"22.325428","long":"114.213973"},{"id":"F374B56E275194D8","name":"啟泰苑","lat":"22.328563","long":"114.212227"},{"id":"AD0B5EFA2471962C","name":"紅萼樓 (H7)","lat":"22.337067","long":"114.205979"},{"id":"A7BA13A9AA331D97","name":"新蒲崗四美街","lat":"22.337720","long":"114.201438"},{"id":"48D7576D3F243169","name":"鳳德商場","lat":"22.343267","long":"114.199758"},{"id":"9274EF6791CA3ED8","name":"大老山隧道 (B1)","lat":"22.376864","long":"114.211807"},{"id":"14BDB94A8F3ED3EC","name":"花都廣場","lat":"22.485231","long":"114.142756"},{"id":"D0FB28B8EED62431","name":"欣盛苑","lat":"22.487155","long":"114.140452"},{"id":"C7120BD9A94B4F6A","name":"蓬瀛仙館 (D2)","lat":"22.491045","long":"114.138414"},{"id":"825199DC3BC0C5A3","name":"基新中學","lat":"22.490943","long":"114.135133"},{"id":"ADB9356BBF06F7C7","name":"嘉盛苑","lat":"22.492093","long":"114.133240"},{"id":"8E3F5AE0A97053F9","name":"華慧園","lat":"22.495493","long":"114.130967"},{"id":"F8D7946AFDBA377E","name":"清河邨總站","lat":"22.494746","long":"114.128121"},{"id":"57E8A522E2C638FD","name":"上水站(B4)","lat":"22.502052","long":"114.127310"},{"id":"9170FC8FFFD12204","name":"上水新成路","lat":"22.503620","long":"114.129768"},{"id":"C3D2BF745570F4A5","name":"上水符興街","lat":"22.504543","long":"114.130087"},{"id":"B986375ED4762DA9","name":"翠麗花園","lat":"22.507406","long":"114.127661"},{"id":"A7C1A969F48B62C0","name":"北區運動場","lat":"22.504860","long":"114.130179"},{"id":"D2C1DACCC74B69C5","name":"龍琛路體育館","lat":"22.505047","long":"114.131189"},{"id":"4442A9A5E7FABAB8","name":"天平邨總站","lat":"22.503577","long":"114.133906"}],"routeId":"277P","description":"正常班次"}]