[{"company":"gmb","route":"27B","routeType":1,"orig":"白石角(天賦海灣)","dest":"沙田(排頭街)(經大學站)","stopList":[{"id":20015841,"name":"白石角(科城路)公共運輸交匯處","lat":22.43126081981788,"long":114.20217812061311},{"id":20009112,"name":"創新路, 近溋玥．天賦海灣第二期","lat":22.43144589165739,"long":114.20147976204859},{"id":20015884,"name":"科進路天賦海灣(第三期)外","lat":22.432924398453874,"long":114.20297741889955},{"id":20007310,"name":"科進路停車灣近DC2431燈柱","lat":22.431654835783405,"long":114.20383368727929},{"id":20007094,"name":"創新路, 近雲滙","lat":22.429579404279032,"long":114.20367424656277},{"id":20015874,"name":"創新路南行巴士停車灣近BE2989燈柱","lat":22.42865260572451,"long":114.20493006706239},{"id":20007050,"name":"科研路, 逸瓏灣8外","lat":22.42788996925242,"long":114.20779244292905},{"id":20015842,"name":"科研路東行近GE2327燈柱","lat":22.428639849645837,"long":114.20857273348824},{"id":20007049,"name":"創新路, 近科學園第三期","lat":22.426291392139092,"long":114.20873428654228},{"id":20007047,"name":"創新路, 近科學園第一期","lat":22.424367328494057,"long":114.21151183590574},{"id":20002414,"name":"科學園路, 近香港生物科技研究院","lat":22.422524513520955,"long":114.21419219930301},{"id":20015891,"name":"科學園路, 水上活動中心外","lat":22.418655650731964,"long":114.21425342559816},{"id":20002416,"name":"科學園路, 近馬料水渡輪碼頭","lat":22.416149058379947,"long":114.21390882658613},{"id":20002275,"name":"港鐵大學站巴士總站","lat":22.412727186810685,"long":114.21079993829835},{"id":20015839,"name":"沙田中, 排頭街, 港鐵沙田站外","lat":22.384394755384488,"long":114.18840765953065}],"routeId":2007895,"description":"輔助服務"},{"company":"gmb","route":"27B","routeType":2,"orig":"沙田(排頭街)(經大學站)","dest":"白石角(天賦海灣)","stopList":[{"id":20015839,"name":"沙田中, 排頭街, 港鐵沙田站外","lat":22.384394755384488,"long":114.18840765953065},{"id":20002275,"name":"港鐵大學站巴士總站","lat":22.412727186810685,"long":114.21079993829835},{"id":20002981,"name":"科學園路, 近香港生物科技研究院","lat":22.4221723674344,"long":114.21400755630233},{"id":20007046,"name":"創新路, 近科學園第一期","lat":22.424168666348788,"long":114.21147293363748},{"id":20007048,"name":"創新路, 近科學園第三期","lat":22.42644502611306,"long":114.2081418046954},{"id":20007050,"name":"科研路, 逸瓏灣8外","lat":22.42788996925242,"long":114.20779244292905},{"id":20015842,"name":"科研路東行近GE2327燈柱","lat":22.428639849645837,"long":114.20857273348824},{"id":20007095,"name":"創新路, 近雲滙","lat":22.429498195718892,"long":114.20327597313559},{"id":20007310,"name":"科進路停車灣近DC2431燈柱","lat":22.431654835783405,"long":114.20383368727929},{"id":20007097,"name":"科進路天賦海灣(第二期)外","lat":22.43214414871586,"long":114.20312105365265},{"id":20009019,"name":"創新路, 近溋玥．天賦海灣第二期","lat":22.43144089431558,"long":114.20159754135813},{"id":20015841,"name":"白石角(科城路)公共運輸交匯處","lat":22.43126081981788,"long":114.20217812061311}],"routeId":2007895,"description":"輔助服務"}]