[{"company":"kmb","route":"287R","routeType":"1","dir":"O","orig":"佐敦 (匯民道)","dest":"烏溪沙站","stopList":[{"id":"A412A5FD403C8275","name":"匯民道","lat":"22.303563","long":"114.166227"},{"id":"3F21ED54F86D9B1D","name":"青沙公路轉車站 (B6)","lat":"22.360275","long":"114.162760"},{"id":"7EC5C567E35D2805","name":"青沙公路轉車站 (B2)","lat":"22.360716","long":"114.162966"},{"id":"A66159E033DDEA04","name":"大圍站","lat":"22.372606","long":"114.180304"},{"id":"C92E80A5D7E0E8EC","name":"車公廟","lat":"22.374668","long":"114.184164"},{"id":"07ADFF84F3502690","name":"秦石邨","lat":"22.374569","long":"114.186827"},{"id":"8F8F2B65EFDC48FD","name":"曾大屋","lat":"22.375677","long":"114.188825"},{"id":"023C6F2CCE65A42E","name":"乙明邨","lat":"22.378443","long":"114.191773"},{"id":"EB0D8F8D1AF9DDDE","name":"麗豪酒店","lat":"22.382690","long":"114.195818"},{"id":"A67E402790581309","name":"富豪花園","lat":"22.385055","long":"114.198133"},{"id":"91481C9100917BA7","name":"沙田第一城","lat":"22.389405","long":"114.203110"},{"id":"40829C12642639D4","name":"石門轉車站 - 濱景花園 (N2)","lat":"22.391590","long":"114.206164"},{"id":"16A7F2C343AA6DE6","name":"沙田醫院","lat":"22.399870","long":"114.213035"},{"id":"4B0E21EDF07F9C83","name":"亞公角","lat":"22.402759","long":"114.216742"},{"id":"1CF4AE2F7045B848","name":"富安花園","lat":"22.406232","long":"114.221917"},{"id":"CB667DC000F66D40","name":"耀安邨","lat":"22.419037","long":"114.229281"},{"id":"5E073AD8BC9F2AC8","name":"馬鞍山運動場","lat":"22.421847","long":"114.228372"},{"id":"B31E6B9D8E5B4493","name":"福安花園","lat":"22.423627","long":"114.228332"},{"id":"3A450B5AD5AF1605","name":"海栢花園","lat":"22.425043","long":"114.231566"},{"id":"5E082FCF5C58328C","name":"馬鞍山警署","lat":"22.422399","long":"114.232966"},{"id":"4B5F39DBC6671C81","name":"錦英苑","lat":"22.423954","long":"114.238505"},{"id":"4CC126E0B1E42F14","name":"錦龍苑","lat":"22.425909","long":"114.239535"},{"id":"A90443FD0C19C4B1","name":"利安邨","lat":"22.427627","long":"114.240415"},{"id":"9AD30F8EDBC3F139","name":"烏溪沙站","lat":"22.428394","long":"114.243732"}],"routeId":"287R","description":"正常班次"}]