[{"company":"kmb","route":"288","routeType":"1","dir":"O","orig":"水泉澳","dest":"沙田市中心(循環線)","stopList":[{"id":"3229F37E6637B0ED","name":"水泉澳總站","lat":"22.374743","long":"114.197899"},{"id":"25B5D45256839700","name":"欣泉樓","lat":"22.371752","long":"114.198478"},{"id":"F99B2D48663A322E","name":"朗泉樓","lat":"22.372753","long":"114.198561"},{"id":"38CCA601583A5C55","name":"月泉樓","lat":"22.372738","long":"114.196735"},{"id":"6AEE9093F4E070AD","name":"博泰樓","lat":"22.377005","long":"114.196158"},{"id":"6953AEF8B3921959","name":"田園閣","lat":"22.380055","long":"114.195008"},{"id":"68D96D087701F3A3","name":"沙田大會堂","lat":"22.382125","long":"114.189928"},{"id":"024D478CE8AC52F3","name":"帝都酒店","lat":"22.379667","long":"114.188126"},{"id":"613ED01D077362A9","name":"文化博物館","lat":"22.377877","long":"114.186508"},{"id":"66B8F73D3F4E91C9","name":"博康巴士總站","lat":"22.377224","long":"114.195421"},{"id":"8EE5AC5D519C140E","name":"城泉樓","lat":"22.372763","long":"114.196688"},{"id":"5221837D08C7B586","name":"嶺泉樓","lat":"22.371145","long":"114.198576"},{"id":"F99B2D48663A322E","name":"朗泉樓","lat":"22.372753","long":"114.198561"},{"id":"3229F37E6637B0ED","name":"水泉澳總站","lat":"22.374743","long":"114.197899"}],"routeId":"288","description":"正常班次"}]