[{"company":"KMB","route":"288B","routeType":"1","dir":"O","orig":"水泉澳","dest":"禾輋","stopList":[{"id":"3229F37E6637B0ED","name":"水泉澳總站","lat":"22.374743","long":"114.197899"},{"id":"5221837D08C7B586","name":"嶺泉樓","lat":"22.371145","long":"114.198576"},{"id":"F99B2D48663A322E","name":"朗泉樓","lat":"22.372753","long":"114.198561"},{"id":"38CCA601583A5C55","name":"月泉樓","lat":"22.372738","long":"114.196735"},{"id":"537168ECCA2CE578","name":"瀝源邨","lat":"22.384532","long":"114.193274"},{"id":"A23337DAF4A8B168","name":"禾輋邨","lat":"22.387757","long":"114.196309"}],"routeId":"288B"}]