[{"company":"gmb","route":"28M","routeType":1,"orig":"碧瑤灣(上)","dest":"香港大學站(循環線)","stopList":[{"id":1,"name":"碧瑤灣(上)小巴總站","lat":22.26226559248361,"long":22.26226559248361},{"id":2,"name":"沙宣道, 近香港大學陳蕉琴樓","lat":22.26822134417233,"long":22.26822134417233},{"id":3,"name":"沙宣道, 近香港大學利銘澤堂","lat":22.269892304658928,"long":22.269892304658928},{"id":4,"name":"薄扶林道, 蒲飛路","lat":22.28177237798253,"long":22.28177237798253},{"id":5,"name":"薄扶林道, 近香港大學賽馬會第一舍堂村何東夫人紀念堂","lat":22.28422912554159,"long":22.28422912554159},{"id":6,"name":"薄扶林道, 香港大學西閘","lat":22.283453250310362,"long":22.283453250310362},{"id":7,"name":"薄扶林道, 寶翠園對面","lat":22.28405757453576,"long":22.28405757453576},{"id":8,"name":"沙宣道, 近香港大學利銘澤堂","lat":22.26968024010072,"long":22.26968024010072},{"id":9,"name":"碧瑤灣(下)小巴總站","lat":22.261967719017814,"long":22.261967719017814},{"id":10,"name":"碧瑤灣(上)小巴總站","lat":22.26226559248361,"long":22.26226559248361}],"routeId":2006509,"description":"短程班次"},{"company":"gmb","route":"28M","routeType":1,"orig":"九龍城（偉恒昌新邨）","dest":"旺角站","stopList":[{"id":1,"name":"偉景街, 偉景閣A座外","lat":22.31724105581244,"long":22.31724105581244},{"id":2,"name":"土瓜灣道,近新利華中心","lat":22.31833286837779,"long":22.31833286837779},{"id":3,"name":"馬頭角道,近香港中華煤氣有限公司馬頭角控制中心","lat":22.320763112944498,"long":22.320763112944498},{"id":4,"name":"欣榮花園","lat":22.321666217851053,"long":22.321666217851053},{"id":5,"name":"馬坑涌道","lat":22.3200679722053,"long":22.3200679722053},{"id":6,"name":"天光道近馬頭圍道","lat":22.319995796093867,"long":22.319995796093867},{"id":7,"name":"常盛街, 基督教女青年會丘佐榮中學","lat":22.319837390455785,"long":22.319837390455785},{"id":8,"name":"常盛街近常樂街","lat":22.31987862409529,"long":22.31987862409529},{"id":9,"name":"常盛街, 德蘭中學","lat":22.31850602222633,"long":22.31850602222633},{"id":10,"name":"培正道巴士站, 培正學校外","lat":22.31817193413518,"long":22.31817193413518},{"id":11,"name":"梭椏道19A號","lat":22.31952651449943,"long":22.31952651449943},{"id":12,"name":"亞皆老街98號","lat":22.319968992244526,"long":22.319968992244526},{"id":13,"name":"亞皆老街62號","lat":22.31956255466139,"long":22.31956255466139},{"id":14,"name":"新填地街437號","lat":22.319318553063496,"long":22.319318553063496},{"id":15,"name":"快富街近西洋菜南街","lat":22.320438469164483,"long":22.320438469164483}],"routeId":2001003,"description":"正常班次"},{"company":"gmb","route":"28M","routeType":2,"orig":"旺角站","dest":"九龍城（偉恒昌新邨）","stopList":[{"id":1,"name":"快富街近西洋菜南街","lat":22.320438469164483,"long":22.320438469164483},{"id":2,"name":"亞皆老街, 先施大廈外","lat":22.319679928623053,"long":22.319679928623053},{"id":3,"name":"亞皆老街, 嘉麗園","lat":22.320158629867134,"long":22.320158629867134},{"id":4,"name":"窩打老道, 萬基大廈外","lat":22.32019478977506,"long":22.32019478977506},{"id":5,"name":"培正道巴士站, 近九龍公共圖書館","lat":22.31824418037176,"long":22.31824418037176},{"id":6,"name":"常盛街, 德蘭中學","lat":22.318749849453184,"long":22.318749849453184},{"id":7,"name":"常盛街, 常樂邨","lat":22.31986961503173,"long":22.31986961503173},{"id":8,"name":"常盛街, 常盛閣","lat":22.319928967876447,"long":22.319928967876447},{"id":9,"name":"天光道,近新亞中學","lat":22.32008617217403,"long":22.32008617217403},{"id":10,"name":"馬頭圍道187號","lat":22.31963453013854,"long":22.31963453013854},{"id":11,"name":"上鄉道, 炮仗街","lat":22.318821730447105,"long":22.318821730447105},{"id":12,"name":"上鄉道, 長寧街","lat":22.318108183881392,"long":22.318108183881392},{"id":13,"name":"土瓜灣道, 新利華中心","lat":22.318035847733622,"long":22.318035847733622},{"id":14,"name":"新碼頭街, 紅棉工業大廈","lat":22.31871303554003,"long":22.31871303554003},{"id":15,"name":"偉景街, 偉景閣A座外","lat":22.31724105581244,"long":22.31724105581244}],"routeId":2001003,"description":"正常班次"}]