[{"company":"gmb","route":"28MS","routeType":1,"orig":"九龍城(偉恒昌新邨)","dest":"何文田站 (循環線)","stopList":[{"id":1,"name":"偉景街, 偉景閣A座外","lat":22.31724105581244,"long":22.31724105581244},{"id":2,"name":"土瓜灣道, 新利華中心","lat":22.318035847733622,"long":22.318035847733622},{"id":3,"name":"欣榮花園","lat":22.321666217851053,"long":22.321666217851053},{"id":4,"name":"馬坑涌道","lat":22.3200679722053,"long":22.3200679722053},{"id":5,"name":"天光道, 曉暉華庭","lat":22.319995796093867,"long":22.319995796093867},{"id":6,"name":"美善同道, 落山道以北","lat":22.318045187621763,"long":22.318045187621763},{"id":7,"name":"樂民新邨, 樂基樓","lat":22.315706297376863,"long":22.315706297376863},{"id":8,"name":"樂民新邨, 樂愛樓","lat":22.3147309631297,"long":22.3147309631297},{"id":9,"name":"高山道, 高山劇場對面","lat":22.31362022770911,"long":22.31362022770911},{"id":10,"name":"信用街, 長豐園","lat":22.311859327529945,"long":22.311859327529945},{"id":11,"name":" 佛光街, 仁風街","lat":22.311389833355815,"long":22.311389833355815},{"id":12,"name":" 何文田站","lat":22.30915028973731,"long":22.30915028973731},{"id":13,"name":" 佛光街, 房署大樓","lat":22.315742647479347,"long":22.315742647479347},{"id":14,"name":" 何文田廣場","lat":22.316582483901726,"long":22.316582483901726},{"id":15,"name":" 何文田邨公共運輸交匯處","lat":22.317819690711644,"long":22.317819690711644},{"id":16,"name":" 何文田廣場","lat":22.316510236001964,"long":22.316510236001964},{"id":17,"name":"佛光街, 香港都會大學外","lat":22.316672822831645,"long":22.316672822831645},{"id":18,"name":"常盛街, 德蘭中學","lat":22.318749849453184,"long":22.318749849453184},{"id":19,"name":"常盛街, 常樂邨","lat":22.31986961503173,"long":22.31986961503173},{"id":20,"name":"常盛街, 常盛閣","lat":22.319928967876447,"long":22.319928967876447},{"id":21,"name":"馬頭圍道近馬坑涌道","lat":22.32008617217403,"long":22.32008617217403},{"id":22,"name":"美善同道, 落山道以北","lat":22.318045187621763,"long":22.318045187621763},{"id":23,"name":"馬頭圍道187號","lat":22.31963453013854,"long":22.31963453013854},{"id":24,"name":"上鄉道, 炮仗街","lat":22.318821730447105,"long":22.318821730447105},{"id":25,"name":"上鄉道, 長寧街","lat":22.318108183881392,"long":22.318108183881392},{"id":26,"name":"新碼頭街, 紅棉工業大廈","lat":22.31871303554003,"long":22.31871303554003},{"id":27,"name":"偉景街, 偉景閣A座外","lat":22.31724105581244,"long":22.31724105581244}],"routeId":2001005,"description":"正常班次"}]