[{"company":"kmb","route":"28S","routeType":"1","dir":"O","orig":"觀塘(裕民坊)","dest":"樂華","stopList":[{"id":"AE6C9CC13AAF157D","name":"觀塘(裕民坊)總站","lat":"22.314833","long":"114.224871"},{"id":"D8546484A0E78938","name":"觀塘崇仁街","lat":"22.316266","long":"114.223295"},{"id":"AC90B7B4927E1D60","name":"康寧道遊樂場","lat":"22.317086","long":"114.222853"},{"id":"F496F08DBC291A50","name":"寧波公學","lat":"22.316620","long":"114.221972"},{"id":"34E91A304CD09953","name":"凱德大廈","lat":"22.316836","long":"114.220388"},{"id":"A8EECA8BC371A833","name":"慕光英文書院","lat":"22.318322","long":"114.219129"},{"id":"5D02EA6BD9FE152F","name":"林景閣","lat":"22.319592","long":"114.220410"},{"id":"356CA6CC22F1D24B","name":"康寧道 公園","lat":"22.319475","long":"114.223229"},{"id":"FAF9EF8853A3B65E","name":"樂華南邨","lat":"22.320642","long":"114.222775"},{"id":"29E5BCA5DC430F85","name":"樂華總站","lat":"22.320760","long":"114.220625"}],"routeId":"28S"}]