[{"company":"kmb","route":"28S","routeType":"1","dir":"O","orig":"觀塘(裕民坊)","dest":"樂華","stopList":[{"id":"AE6C9CC13AAF157D","name":"觀塘(裕民坊)總站","lat":"22.314833","long":"114.224871"},{"id":"D8546484A0E78938","name":"觀塘崇仁街","lat":"22.316266","long":"114.223295"},{"id":"AC90B7B4927E1D60","name":"康寧道遊樂場","lat":"22.317086","long":"114.222853"},{"id":"F496F08DBC291A50","name":"寧波公學","lat":"22.316620","long":"114.221972"},{"id":"34E91A304CD09953","name":"凱德大廈","lat":"22.316836","long":"114.220388"},{"id":"A8EECA8BC371A833","name":"慕光英文書院","lat":"22.318322","long":"114.219129"},{"id":"5D02EA6BD9FE152F","name":"林景閣","lat":"22.319592","long":"114.220410"},{"id":"356CA6CC22F1D24B","name":"康寧道 公園","lat":"22.319475","long":"114.223229"},{"id":"FAF9EF8853A3B65E","name":"樂華南邨","lat":"22.320642","long":"114.222775"},{"id":"29E5BCA5DC430F85","name":"樂華總站","lat":"22.320760","long":"114.220625"}],"routeId":"28S","description":"正常班次"},{"company":"gmb","route":"28S","routeType":1,"orig":"碧瑤灣(上)","dest":"銅鑼灣(新會道)","stopList":[{"id":20014524,"name":"碧瑤灣(上)小巴總站","lat":22.26226559248361,"long":114.13422094927766},{"id":20014525,"name":"沙宣道, 近香港大學陳蕉琴樓","lat":22.26822134417233,"long":114.12865319469665},{"id":20014526,"name":"沙宣道, 近香港大學利銘澤堂","lat":22.269892304658928,"long":114.13000020445604},{"id":20000174,"name":"薄扶林道, 蒲飛路","lat":22.28177237798253,"long":114.13204478397786},{"id":20000012,"name":"薄扶林道, 近香港大學賽馬會第一舍堂村何東夫人紀念堂","lat":22.28422912554159,"long":114.13357716043275},{"id":20014527,"name":"般咸道, 近栢苑","lat":22.284381096447873,"long":114.1434526462791},{"id":20014537,"name":"般咸道, 醫院道","lat":22.283635908141182,"long":114.14747363044441},{"id":20000017,"name":"堅道, 樓梯街","lat":22.28315782406536,"long":114.14881192823321},{"id":20000018,"name":"堅道, 城皇街","lat":22.282823933671065,"long":114.15025780753024},{"id":20000019,"name":"堅道, 卑利街","lat":22.28167726873407,"long":114.15167471509346},{"id":20014530,"name":"堅尼地道, 近帝景閣","lat":22.276323565540793,"long":114.15819070975616},{"id":20014531,"name":"堅尼地道, 近香港公園香港視覺藝術中心","lat":22.276403643597785,"long":114.15951150496244},{"id":20014532,"name":"堅尼地道, 近香港公園","lat":22.276936087380204,"long":114.16338110525862},{"id":20014533,"name":"堅尼地道, 近萬茂公園","lat":22.275698429895247,"long":114.16689289008801},{"id":20014534,"name":"堅尼地道, 近嘉諾撒聖方濟各書院","lat":22.274744919663018,"long":114.16893564283949},{"id":20014535,"name":"堅尼地道, 近金鑾閣","lat":22.27443103739975,"long":114.17113471252298},{"id":20014536,"name":"新會道, 近京城大廈","lat":22.277676936420676,"long":114.18467811918791}],"routeId":2006508,"description":"短程班次"},{"company":"gmb","route":"28S","routeType":1,"orig":"白石角(天賦海灣)","dest":"沙田(白鶴汀街)(循環線)","stopList":[{"id":20007091,"name":"白石角(科城路)公共運輸交匯處","lat":22.431127611928282,"long":114.20204719561299},{"id":20007092,"name":"科進路天賦海灣(第三期)外","lat":22.432478269706543,"long":114.20315997181932},{"id":20007310,"name":"科進路停車灣近DC2431燈柱","lat":22.431654835783405,"long":114.20383368727929},{"id":20009539,"name":"坡面","lat":22.42408067495138,"long":114.20007526874544},{"id":20003191,"name":"新翠山莊/蔚海山莊","lat":22.43191961381591,"long":114.19399977760547},{"id":20006560,"name":"鹿茵山莊","lat":22.429743019985487,"long":114.19621421596838},{"id":20003188,"name":"樟樹灘","lat":22.426428804653533,"long":114.19647601756911},{"id":20007587,"name":"香港中文大學","lat":22.417704342215266,"long":114.2035748365666},{"id":20007229,"name":"崇基學院","lat":22.41352246523306,"long":114.20783782102131},{"id":20002232,"name":"火炭駿景園","lat":22.399372919509105,"long":114.20048306878144},{"id":20001569,"name":"担杆莆街沙田大會堂外","lat":22.38190004979475,"long":114.1901969090841},{"id":20001570,"name":"白鶴汀街帝都酒店外","lat":22.379940587314817,"long":114.18807019643069},{"id":20002119,"name":"沙田正街希爾頓中心","lat":22.380003868593892,"long":114.18705063400584},{"id":20001549,"name":"好運中心","lat":22.382830163726172,"long":114.19055628133083},{"id":20006561,"name":"火炭駿景園","lat":22.39949935225367,"long":114.20044424408759},{"id":20002841,"name":"樂信徑迴旋處巴士停車灣","lat":22.401395592578332,"long":114.20155169258584},{"id":20007229,"name":"崇基學院","lat":22.41352246523306,"long":114.20783782102131},{"id":20007588,"name":"香港中文大學","lat":22.418129033722785,"long":114.20196259066346},{"id":20003189,"name":"樟樹灘","lat":22.426157902177884,"long":114.19637884573329},{"id":20006560,"name":"鹿茵山莊","lat":22.429743019985487,"long":114.19621421596838},{"id":20003190,"name":"新翠山莊／蔚海山莊","lat":22.431350665117453,"long":114.1942716922205},{"id":20009539,"name":"坡面","lat":22.42408067495138,"long":114.20007526874544},{"id":20007310,"name":"科進路停車灣近DC2431燈柱","lat":22.431654835783405,"long":114.20383368727929},{"id":20007097,"name":"科進路天賦海灣(第二期)外","lat":22.43214414871586,"long":114.20312105365265},{"id":20007091,"name":"白石角(科城路)公共運輸交匯處","lat":22.431127611928282,"long":114.20204719561299}],"routeId":2002483,"description":"正常班次"}]