[{"company":"kmb","route":"292P","routeType":"1","dir":"O","orig":"西貢","dest":"觀塘","stopList":[{"id":"7A79D102443D6822","name":"西貢總站","lat":"22.382014","long":"114.273824"},{"id":"60E02B7ACBBB80E8","name":"西貢大會堂","lat":"22.383129","long":"114.271006"},{"id":"3CF260D7083B411D","name":"翠塘花園","lat":"22.380818","long":"114.268837"},{"id":"9458BE33A2B7B934","name":"菠蘿輋","lat":"22.378650","long":"114.265631"},{"id":"CB4F0A350A26D033","name":"北港","lat":"22.375032","long":"114.261768"},{"id":"1741D103CB826E93","name":"大涌口","lat":"22.372007","long":"114.260106"},{"id":"4823D6EFB3722E64","name":"白沙臺","lat":"22.367542","long":"114.260133"},{"id":"5089C69E080B7A43","name":"白沙灣","lat":"22.364778","long":"114.259413"},{"id":"1CEB9D13E7279ADA","name":"漁民新村","lat":"22.361822","long":"114.256979"},{"id":"23DC6B90DC9515D9","name":"北圍","lat":"22.359761","long":"114.252464"},{"id":"E4C26E79F0D6DC5E","name":"匡湖居","lat":"22.355879","long":"114.251599"},{"id":"0572B9F0B640DB10","name":"南邊圍","lat":"22.354330","long":"114.250293"},{"id":"F93E38FD194A9C6C","name":"響鐘村","lat":"22.351923","long":"114.251497"},{"id":"BE81792B3E788D41","name":"窩美","lat":"22.351305","long":"114.252799"},{"id":"E03DE379E28F63D8","name":"南圍","lat":"22.351991","long":"114.253521"},{"id":"B563C75938584FDA","name":"鄭植之中學","lat":"22.342260","long":"114.257688"},{"id":"86DF43320DF0F596","name":"打鼓嶺新村","lat":"22.343234","long":"114.251518"},{"id":"36F2D783428B6307","name":"壁屋","lat":"22.339393","long":"114.246378"},{"id":"EBA1C02EA9906C96","name":"白石窩","lat":"22.335838","long":"114.241970"},{"id":"47B8E78BAB4FEB5D","name":"井欄樹","lat":"22.333682","long":"114.236925"},{"id":"0BE9DE9BA299E126","name":"龍窩村","lat":"22.333235","long":"114.235120"},{"id":"4D55F6240E2AAFB8","name":"安達臣道","lat":"22.334318","long":"114.230979"},{"id":"C58FCEE9339E5319","name":"德望學校","lat":"22.333864","long":"114.221341"},{"id":"1EF5FAB9266BD6C8","name":"彩雲邨","lat":"22.333471","long":"114.214923"},{"id":"54733D2BB5BE7121","name":"彩虹站","lat":"22.334196","long":"114.210123"},{"id":"D9B53E4B3A192940","name":"啟業邨","lat":"22.330213","long":"114.210981"},{"id":"BC7C325EE59235E4","name":"九龍灣站","lat":"22.324048","long":"114.214410"},{"id":"426029D3D8AE6E40","name":"淘大花園","lat":"22.324412","long":"114.215439"},{"id":"9A0959AB68FA5E1F","name":"九龍灣臨華街","lat":"22.323512","long":"114.208973"},{"id":"94358F5481BAE505","name":"常悅道","lat":"22.321438","long":"114.207948"},{"id":"07521BB848913F74","name":"九龍灣宏通街","lat":"22.319534","long":"114.207613"},{"id":"0644E10571B8CA12","name":"創紀之城 (U2)","lat":"22.314019","long":"114.222378"}],"routeId":"292P","description":"特別班次"}]