[{"company":"kmb","route":"293S","routeType":"1","dir":"O","orig":"坑口(銀澳路)","dest":"旺角東站","stopList":[{"id":"6C3F6AF77695CAE9","name":"銀澳路","lat":"22.314326","long":"114.266633"},{"id":"43C8B0C86DE8805D","name":"培成路","lat":"22.315198","long":"114.263988"},{"id":"1D5530B0037C0143","name":"厚德邨","lat":"22.319137","long":"114.264312"},{"id":"1FAA805BF1635668","name":"景林邨","lat":"22.322233","long":"114.261055"},{"id":"9D8BB8FABEAF218A","name":"寶林總站","lat":"22.322538","long":"114.257922"},{"id":"AC7D60B1E5251638","name":"梁潔華小學","lat":"22.323341","long":"114.255628"},{"id":"45852CCBB75F4A68","name":"怡心園","lat":"22.323087","long":"114.253528"},{"id":"5F1FC8AAD0B020D7","name":"翠林邨","lat":"22.321609","long":"114.250331"},{"id":"4A84482F3A54E4CC","name":"康盛花園","lat":"22.318080","long":"114.254298"},{"id":"5D034EAC6A8853A3","name":"茅湖仔","lat":"22.317440","long":"114.252343"},{"id":"70A7D4C9EDA6D50A","name":"馬游塘村","lat":"22.320282","long":"114.244503"},{"id":"EA2CFF27310EAEC3","name":"寶達邨","lat":"22.318256","long":"114.237594"},{"id":"824D0847BAAD9128","name":"秀暉樓","lat":"22.316879","long":"114.235972"},{"id":"D1AAD1771F3FA9A0","name":"采頤花園","lat":"22.335008","long":"114.202058"},{"id":"C80FB453C9F53569","name":"譽．港灣","lat":"22.332000","long":"114.196917"},{"id":"67727D444E2EC42B","name":"富豪東方酒店","lat":"22.327232","long":"114.190701"},{"id":"A90CDCBFC07EDF86","name":"侯王道","lat":"22.327393","long":"114.188655"},{"id":"6F5585807DB07812","name":"太子站","lat":"22.324122","long":"114.169733"},{"id":"4459E386C8525C34","name":"旺角道","lat":"22.321187","long":"114.170468"},{"id":"BDC22C0C76E16BD3","name":"旺角東站巴士總站","lat":"22.322445","long":"114.172218"}],"routeId":"293S","description":"正常班次"},{"company":"kmb","route":"293S","routeType":"1","dir":"I","orig":"旺角東站","dest":"坑口(銀澳路)","stopList":[{"id":"BDC22C0C76E16BD3","name":"旺角東站巴士總站","lat":"22.322445","long":"114.172218"},{"id":"A9C847312AE9E37A","name":"西洋菜南街","lat":"22.320174","long":"114.169888"},{"id":"4884DCF89AD7BA6A","name":"旺角站","lat":"22.319688","long":"114.170707"},{"id":"6965D1D655C2DD5F","name":"亞皆老街球場","lat":"22.327009","long":"114.188955"},{"id":"A46B6AC99CE8722E","name":"富豪東方酒店","lat":"22.328502","long":"114.191843"},{"id":"A0EFE3E68568F194","name":"譽．港灣","lat":"22.333136","long":"114.196760"},{"id":"1FBAAE29AF1CA50E","name":"秀暉樓","lat":"22.316851","long":"114.235856"},{"id":"466BC4C1908A1A06","name":"寶達邨","lat":"22.318565","long":"114.236118"},{"id":"2FFC93C766E566B5","name":"安達臣道","lat":"22.320918","long":"114.243930"},{"id":"F5A61D37E2DDA9D8","name":"馬游塘村","lat":"22.319505","long":"114.245650"},{"id":"31079A9B244C679B","name":"茅湖仔","lat":"22.317495","long":"114.252038"},{"id":"ABC15E2110BF7A49","name":"康盛花園","lat":"22.319847","long":"114.254072"},{"id":"BC66863007C0592B","name":"翠林邨","lat":"22.323025","long":"114.250283"},{"id":"3366C1DC458401B3","name":"富麗花園","lat":"22.323122","long":"114.253885"},{"id":"B64E0F355A9F4223","name":"寶儉樓","lat":"22.324533","long":"114.256904"},{"id":"FC42DCBDC3AB0B6F","name":"欣景路","lat":"22.323790","long":"114.258615"},{"id":"22E2678081E88368","name":"景林邨","lat":"22.322301","long":"114.261306"},{"id":"7613538D58A9C452","name":"厚德邨","lat":"22.319436","long":"114.264290"},{"id":"336FF66D1F0AC4A0","name":"重華路","lat":"22.316993","long":"114.265883"},{"id":"54FCA9F5D8F3587E","name":"煜明苑","lat":"22.314696","long":"114.266582"}],"routeId":"293S","description":"正常班次"}]