[{"company":"KMB","route":"2E","routeType":"1","dir":"O","orig":"九龍城碼頭","dest":"白田(北)","stopList":[{"id":"C3427DE8E291FFA6","name":"九龍城碼頭巴士總站","lat":"22.318413","long":"114.193434"},{"id":"F8D1049558163BE6","name":"貴州街","lat":"22.318125","long":"114.191562"},{"id":"7703B0499F66B205","name":"落山道","lat":"22.316802","long":"114.190266"},{"id":"457C64EC8955C896","name":"鴻福街","lat":"22.314364","long":"114.187925"},{"id":"4A0370F0CA6A89B2","name":"紅磡鶴園街","lat":"22.310192","long":"114.187749"},{"id":"997CCAB996935BD7","name":"紅磡街市","lat":"22.307337","long":"114.187135"},{"id":"6638A31332E98C83","name":"獲嘉道","lat":"22.308069","long":"114.184561"},{"id":"5CCBD9A6B58BF20D","name":"九龍佑寧堂","lat":"22.305649","long":"114.172574"},{"id":"E049C81469E2B3C0","name":"佐敦白加士街","lat":"22.305172","long":"114.170361"},{"id":"076E1E9D5874C41D","name":"佐敦炮台街","lat":"22.305524","long":"114.168430"},{"id":"F2BD88B8D506E78A","name":"渡船街","lat":"22.307181","long":"114.167159"},{"id":"16F899DA5289900D","name":"欣翔道","lat":"22.308881","long":"114.166179"},{"id":"B96E368FC17CD0B0","name":"富榮花園","lat":"22.314039","long":"114.164201"},{"id":"420E7970087AD769","name":"柏景灣","lat":"22.316414","long":"114.163641"},{"id":"520C9836ACAECDF9","name":"富貴街","lat":"22.318849","long":"114.161872"},{"id":"22FE13158B36FE48","name":"大同新村","lat":"22.321795","long":"114.161866"},{"id":"67064412B0E9D9A6","name":"福利街","lat":"22.323434","long":"114.161776"},{"id":"F646F96A5D18D121","name":"深水埗公立醫局","lat":"22.326978","long":"114.161046"},{"id":"5B23A51CA34F4FAD","name":"汝州街","lat":"22.328681","long":"114.162560"},{"id":"710390556FA80CAD","name":"福華街","lat":"22.330425","long":"114.164174"},{"id":"AFE0100DABA53C21","name":"窩仔街","lat":"22.332483","long":"114.166103"},{"id":"BBC5D60D2FB827D2","name":"白田邨瑞田樓","lat":"22.334875","long":"114.168291"},{"id":"C47ACFA9541AB34F","name":"白田(北) 巴士總站","lat":"22.336465","long":"114.168290"}],"routeId":"2E"},{"company":"KMB","route":"2E","routeType":"1","dir":"I","orig":"白田(北)","dest":"九龍城碼頭","stopList":[{"id":"C47ACFA9541AB34F","name":"白田(北) 巴士總站","lat":"22.336465","long":"114.168290"},{"id":"930E7A721D133F71","name":"白田邨第9座","lat":"22.336923","long":"114.165405"},{"id":"708EB21B10D1588F","name":"白田巴士總站","lat":"22.336250","long":"114.165823"},{"id":"E3965CA6EFD60F36","name":"白田邨麗田樓","lat":"22.334996","long":"114.167310"},{"id":"9F914539576C53A5","name":"石硤尾商場","lat":"22.332023","long":"114.166014"},{"id":"259DBCF52320E083","name":"福華街","lat":"22.330266","long":"114.164462"},{"id":"BDA357B832C55019","name":"基隆街","lat":"22.328428","long":"114.162836"},{"id":"9A773DDB814933C1","name":"深水埗公立醫局","lat":"22.326728","long":"114.161283"},{"id":"C163B1F33533C2A9","name":"洋松街休憩處","lat":"22.323476","long":"114.162038"},{"id":"6A225A9CB16BC4BB","name":"新九龍廣場","lat":"22.319785","long":"114.162229"},{"id":"F5098BFD784B8FAB","name":"海富苑","lat":"22.316217","long":"114.163941"},{"id":"1C7C526A52EF9171","name":"富榮花園","lat":"22.313988","long":"114.164449"},{"id":"DED3339EB26494EA","name":"甘肅街","lat":"22.308783","long":"114.167883"},{"id":"577633405E7A3ACD","name":"渡船街","lat":"22.307260","long":"114.167506"},{"id":"86E1C776C6D78DFC","name":"佐敦廟街","lat":"22.305384","long":"114.169858"},{"id":"617893F4DBBEDE21","name":"佐敦志和街","lat":"22.305858","long":"114.172450"},{"id":"4CA486B230A34D3A","name":"衛理道","lat":"22.306743","long":"114.176114"},{"id":"B0095CE9771BFC17","name":"孖庶街","lat":"22.307305","long":"114.186095"},{"id":"FEF7B371B95E5E13","name":"紅磡佛光街","lat":"22.309482","long":"114.187523"},{"id":"9E655CE3250647EA","name":"石塘街","lat":"22.313763","long":"114.187490"},{"id":"2C7AEE8C6B2BC06A","name":"浙江街","lat":"22.315758","long":"114.189056"},{"id":"0B8D095A45B05587","name":"落山道","lat":"22.317154","long":"114.190345"},{"id":"C3427DE8E291FFA6","name":"九龍城碼頭巴士總站","lat":"22.318413","long":"114.193434"}],"routeId":"2E"}]