[{"company":"kmb","route":"2F","routeType":"1","dir":"O","orig":"慈雲山(北)","dest":"長沙灣","stopList":[{"id":"76A2633F9A463E9C","name":"慈雲山(北)總站","lat":"22.351029","long":"114.198136"},{"id":"A9E1D35DB7FC7C7B","name":"愛富閣","lat":"22.350837","long":"114.199392"},{"id":"FDFC87BC94515900","name":"正康樓","lat":"22.348703","long":"114.202724"},{"id":"E778E67CBC095B0C","name":"德愛中學","lat":"22.348039","long":"114.204250"},{"id":"29F7954D216356E1","name":"貫華里","lat":"22.347134","long":"114.202250"},{"id":"2FBEE4E1965D7EF5","name":"樂滿樓","lat":"22.347212","long":"114.200452"},{"id":"95067FE712E8ACEA","name":"崇華街","lat":"22.346357","long":"114.198400"},{"id":"20709808D79F1BB9","name":"金鳳街休憩處","lat":"22.344944","long":"114.197735"},{"id":"E81E4649EB1D5B02","name":"美德樓","lat":"22.343510","long":"114.197989"},{"id":"62A1C8EFAC876BDB","name":"沙田坳道 (D2)","lat":"22.341470","long":"114.195370"},{"id":"93D9D88C2D990D67","name":"摩士公園泳池","lat":"22.341570","long":"114.191604"},{"id":"74C71F2AE4947E5D","name":"宏業樓","lat":"22.340529","long":"114.188797"},{"id":"968575D69434DBB8","name":"宏富樓","lat":"22.340583","long":"114.186556"},{"id":"210CF8389F782535","name":"香港浸會大學","lat":"22.339108","long":"114.182487"},{"id":"6652A2FE695AD8C2","name":"根德道","lat":"22.339922","long":"114.176677"},{"id":"9B3566445BDAD548","name":"石硤尾公園","lat":"22.339246","long":"114.171103"},{"id":"A8E94E7F793372BD","name":"則仁中心","lat":"22.339781","long":"114.167522"},{"id":"E275C17540BCEF37","name":"石硤尾消防局","lat":"22.338696","long":"114.167401"},{"id":"6D1087ACF14C15A9","name":"白田邨瑞田樓","lat":"22.335930","long":"114.169080"},{"id":"46ABE64DB9C82DDF","name":"黃棣珊紀念中學","lat":"22.334730","long":"114.168440"},{"id":"9F914539576C53A5","name":"石硤尾商場","lat":"22.332023","long":"114.166014"},{"id":"9215DDE04780BDC3","name":"深水埗郵政局","lat":"22.331958","long":"114.163579"},{"id":"064E5D9FE6973F23","name":"營盤街","lat":"22.334154","long":"114.160755"},{"id":"E766002A5624AFB6","name":"永隆街","lat":"22.336401","long":"114.157818"},{"id":"7430D83B73E26B7C","name":"元州商場","lat":"22.337732","long":"114.156102"},{"id":"0CE37125BC509E5D","name":"長沙灣徑","lat":"22.338203","long":"114.151281"},{"id":"B6ECF261EB79418C","name":"長沙灣長荔街","lat":"22.336684","long":"114.146749"},{"id":"1CBA941164585ABC","name":"長沙灣巴士總站","lat":"22.337104","long":"114.148698"}],"routeId":"2F"},{"company":"kmb","route":"2F","routeType":"2","dir":"O","orig":"慈雲山(北)","dest":"長沙灣","stopList":[{"id":"76A2633F9A463E9C","name":"慈雲山(北)總站","lat":"22.351029","long":"114.198136"},{"id":"A9E1D35DB7FC7C7B","name":"愛富閣","lat":"22.350837","long":"114.199392"},{"id":"FDFC87BC94515900","name":"正康樓","lat":"22.348703","long":"114.202724"},{"id":"E778E67CBC095B0C","name":"德愛中學","lat":"22.348039","long":"114.204250"},{"id":"43EE0C39CD39BA06","name":"保良局第一張永慶中學","lat":"22.346282","long":"114.205390"},{"id":"EF01999C9F909553","name":"鑽石山火葬場","lat":"22.345108","long":"114.206879"},{"id":"BF3D6019C5CA6D35","name":"富山邨","lat":"22.342011","long":"114.208247"},{"id":"711A39D02DB2B4D8","name":"斧山道運動場","lat":"22.339659","long":"114.207353"},{"id":"52A8DA8958AFCCA6","name":"鑽石山站","lat":"22.339246","long":"114.202191"},{"id":"62A1C8EFAC876BDB","name":"沙田坳道 (D2)","lat":"22.341470","long":"114.195370"},{"id":"93D9D88C2D990D67","name":"摩士公園泳池","lat":"22.341570","long":"114.191604"},{"id":"65842E04BFE99758","name":"永光書院","lat":"22.342338","long":"114.188530"},{"id":"EFED59E880B693F5","name":"天馬苑","lat":"22.342418","long":"114.186220"},{"id":"29A62A8FE112766B","name":"豐力樓","lat":"22.342585","long":"114.172991"},{"id":"9751EE79B103C9B8","name":"畢架山花園","lat":"22.341649","long":"114.166733"},{"id":"B123EFA9F9DDD6AB","name":"澤安邨","lat":"22.340424","long":"114.165276"},{"id":"E275C17540BCEF37","name":"石硤尾消防局","lat":"22.338696","long":"114.167401"},{"id":"6D1087ACF14C15A9","name":"白田邨瑞田樓","lat":"22.335930","long":"114.169080"},{"id":"46ABE64DB9C82DDF","name":"黃棣珊紀念中學","lat":"22.334730","long":"114.168440"},{"id":"9F914539576C53A5","name":"石硤尾商場","lat":"22.332023","long":"114.166014"},{"id":"9215DDE04780BDC3","name":"深水埗郵政局","lat":"22.331958","long":"114.163579"},{"id":"064E5D9FE6973F23","name":"營盤街","lat":"22.334154","long":"114.160755"},{"id":"E766002A5624AFB6","name":"永隆街","lat":"22.336401","long":"114.157818"},{"id":"7430D83B73E26B7C","name":"元州商場","lat":"22.337732","long":"114.156102"},{"id":"0CE37125BC509E5D","name":"長沙灣徑","lat":"22.338203","long":"114.151281"},{"id":"B6ECF261EB79418C","name":"長沙灣長荔街","lat":"22.336684","long":"114.146749"},{"id":"1CBA941164585ABC","name":"長沙灣巴士總站","lat":"22.337104","long":"114.148698"}],"routeId":"2F"},{"company":"kmb","route":"2F","routeType":"1","dir":"I","orig":"長沙灣","dest":"慈雲山(北)","stopList":[{"id":"1CBA941164585ABC","name":"長沙灣巴士總站","lat":"22.337104","long":"114.148698"},{"id":"80F5C6317F17C099","name":"光昌街","lat":"22.339322","long":"114.150789"},{"id":"C9261749DE3F7FEF","name":"昌華街","lat":"22.339902","long":"114.154486"},{"id":"5B5ABCFBD1F60FEC","name":"永隆街","lat":"22.337757","long":"114.157378"},{"id":"0FC0EE0AEA556A4C","name":"東沙島街","lat":"22.336247","long":"114.159317"},{"id":"251112E838705DCD","name":"九江街","lat":"22.334718","long":"114.161294"},{"id":"16D37394ECACA7AD","name":"深水埗福榮街","lat":"22.332816","long":"114.162115"},{"id":"812E72C257C94B73","name":"深水埗北河街","lat":"22.330678","long":"114.162566"},{"id":"710390556FA80CAD","name":"福華街","lat":"22.330425","long":"114.164174"},{"id":"414700CC27B0F9DC","name":"石硤尾邨美盛樓","lat":"22.333340","long":"114.166865"},{"id":"43BFFB46B4D209FC","name":"白田邨瑞田樓","lat":"22.335588","long":"114.168822"},{"id":"094457650286AA67","name":"石硤尾消防局","lat":"22.338766","long":"114.166833"},{"id":"9E16397100F502B9","name":"則仁中心","lat":"22.339973","long":"114.166933"},{"id":"121D3CCF6A82532F","name":"石硤尾公園","lat":"22.339434","long":"114.170165"},{"id":"90DC2AE9EBAF2658","name":"義德道","lat":"22.340149","long":"114.178327"},{"id":"4E037679702BBCBC","name":"金城道","lat":"22.339203","long":"114.181225"},{"id":"AEBDE6434969EED9","name":"嘉強苑","lat":"22.340844","long":"114.184982"},{"id":"B1293E41AE9CB55F","name":"宏照樓","lat":"22.340757","long":"114.187592"},{"id":"F893C6ABC2743F64","name":"龍翔官立中學","lat":"22.342344","long":"114.189898"},{"id":"B27236FC63F891D9","name":"黃大仙站 (B3)","lat":"22.341855","long":"114.192263"},{"id":"A15FFC3149FB92A0","name":"沙田坳道 (A2)","lat":"22.341856","long":"114.195204"},{"id":"88E23CD2F1AB7AF9","name":"富祐大廈","lat":"22.344130","long":"114.198779"},{"id":"0B160DE955F3AE10","name":"蒲慈里","lat":"22.345923","long":"114.199854"},{"id":"830FACA208087E37","name":"蒲蘅里","lat":"22.346291","long":"114.201905"},{"id":"E51BB6A7525BA679","name":"慈雲山(南)總站","lat":"22.346858","long":"114.203314"},{"id":"76F0BFCC3D78F888","name":"慈民邨","lat":"22.348543","long":"114.203268"},{"id":"BA55DB38DEF14AD4","name":"慈雲山邨中央遊樂場","lat":"22.349523","long":"114.201694"},{"id":"6B582CAEDE8FBDEF","name":"愛富閣","lat":"22.350631","long":"114.199302"},{"id":"76A2633F9A463E9C","name":"慈雲山(北)總站","lat":"22.351029","long":"114.198136"}],"routeId":"2F"}]