[{"company":"gmb","route":"308M","routeType":1,"orig":"青衣站","dest":"浪翠園","stopList":[{"id":1,"name":"青衣站","lat":22.35955458520574,"long":22.35955458520574},{"id":2,"name":"青敬路長安邨安湄樓外","lat":22.3612048279606,"long":22.3612048279606},{"id":3,"name":"青山公路-深井段海韻花園對面","lat":22.367546048616706,"long":22.367546048616706},{"id":4,"name":"青山公路-深井段麗都花園外","lat":22.366514650129684,"long":22.366514650129684},{"id":5,"name":"浪翠園","lat":22.36605273721164,"long":22.36605273721164},{"id":6,"name":"青山公路-青龍頭段深井公眾碼頭對面的停車灣","lat":22.36552883732622,"long":22.36552883732622},{"id":7,"name":"青山公路-深井段深井村外","lat":22.366934968009815,"long":22.366934968009815},{"id":8,"name":"青山公路-深井段海韻花園外","lat":22.3676997818528,"long":22.3676997818528},{"id":9,"name":"青敬路牙鷹洲花園外的停車灣","lat":22.36099756617248,"long":22.36099756617248},{"id":10,"name":"青衣站","lat":22.35955458520574,"long":22.35955458520574}],"routeId":2001201,"description":"正常路線"},{"company":"gmb","route":"308M","routeType":1,"orig":"青衣站專線小巴總站","dest":"浪翠園","stopList":[{"id":1,"name":"青衣站專線小巴總站","lat":22.35955458520574,"long":22.35955458520574},{"id":2,"name":"青敬路長安邨安湄樓外","lat":22.3612048279606,"long":22.3612048279606},{"id":3,"name":"青嶼幹綫訪客中心","lat":22.35796875824188,"long":22.35796875824188},{"id":4,"name":"青山公路-深井段海韻花園對面","lat":22.367546048616706,"long":22.367546048616706},{"id":5,"name":"青山公路-深井段麗都花園外","lat":22.366514650129684,"long":22.366514650129684},{"id":6,"name":"浪翠園第一期","lat":22.36605273721164,"long":22.36605273721164},{"id":7,"name":"青山公路-深井段深井村外","lat":22.366934968009815,"long":22.366934968009815},{"id":8,"name":"青山公路-深井段海韻花園外","lat":22.3676997818528,"long":22.3676997818528},{"id":9,"name":"青敬路牙鷹洲花園外的停車灣","lat":22.36099756617248,"long":22.36099756617248},{"id":10,"name":"青衣站專線小巴總站","lat":22.35955458520574,"long":22.35955458520574}],"routeId":2001203,"description":"額外班次(經青嶼幹綫訪客中心)"},{"company":"gmb","route":"308M","routeType":1,"orig":"青衣站","dest":"浪翠園","stopList":[{"id":1,"name":"青衣站","lat":22.35955458520574,"long":22.35955458520574},{"id":2,"name":"青敬路長安邨安湄樓外","lat":22.3612048279606,"long":22.3612048279606},{"id":3,"name":"青山公路-深井段海韻花園對面","lat":22.367546048616706,"long":22.367546048616706},{"id":4,"name":"青山公路-深井段麗都花園外","lat":22.366514650129684,"long":22.366514650129684},{"id":5,"name":"浪翠園","lat":22.36605273721164,"long":22.36605273721164},{"id":6,"name":"青山公路-深井段青龍頭深井公眾碼頭對面的路傍","lat":22.36552883732622,"long":22.36552883732622},{"id":7,"name":"青山公路-深井段深井村外","lat":22.366934968009815,"long":22.366934968009815},{"id":8,"name":"青山公路-深井段海韻花園外","lat":22.3676997818528,"long":22.3676997818528},{"id":9,"name":"青敬路牙鷹洲花園外的停車灣","lat":22.36099756617248,"long":22.36099756617248},{"id":10,"name":"青衣站","lat":22.35955458520574,"long":22.35955458520574}],"routeId":2001204,"description":"經青嶼幹線訪客中心"}]