[{"company":"KMB","route":"31","routeType":"1","dir":"O","orig":"荃灣西站","dest":"石籬(循環線)","stopList":[{"id":"83388B59A961635D","name":"荃灣西站巴士總站","lat":"22.368179","long":"114.110355"},{"id":"25290A19CDC7FF1E","name":"戴麟趾夫人診所","lat":"22.370497","long":"114.115458"},{"id":"18F1956E67A76915","name":"寶石大廈","lat":"22.368955","long":"114.118254"},{"id":"81BBDC83713D1C2F","name":"名逸居","lat":"22.367780","long":"114.120500"},{"id":"F3432DFEDE7E7AA0","name":"荃富街公園","lat":"22.368882","long":"114.121794"},{"id":"AAB411C52D067AD1","name":"大窩口站","lat":"22.370533","long":"114.124151"},{"id":"094D2EBC017EE61A","name":"國瑞路公園","lat":"22.371039","long":"114.130268"},{"id":"2658CCFAB79763B6","name":"葵涌屏麗徑","lat":"22.367360","long":"114.134946"},{"id":"26EB1A3C1E17889A","name":"葵涌石英徑","lat":"22.364705","long":"114.135747"},{"id":"32EF27636D4BEAEB","name":"石排街嘉翠園","lat":"22.362980","long":"114.136578"},{"id":"77CEEF0D8191410C","name":"石籬邨石安樓","lat":"22.363906","long":"114.138539"},{"id":"C84CAD6CCD18F87F","name":"石籬邨石佳樓","lat":"22.364913","long":"114.140057"},{"id":"478ACE8A8C9A2705","name":"石籬天主教小學","lat":"22.366854","long":"114.142021"},{"id":"A13C2C1D5D3EE0D7","name":"石排街石歡樓","lat":"22.368603","long":"114.141870"},{"id":"7FC79B2659883001","name":"石籬邨石祥樓","lat":"22.368301","long":"114.141120"},{"id":"3A10F716CC6102DE","name":"安蔭巴士總站","lat":"22.370326","long":"114.142089"},{"id":"AE7C79C814E6BD95","name":"裘錦秋中學","lat":"22.369340","long":"114.140828"},{"id":"C5294C92C5C6E334","name":"石蔭東邨","lat":"22.372104","long":"114.139645"},{"id":"A127BE370E970CE5","name":"北葵涌街市","lat":"22.370571","long":"114.138851"},{"id":"0B4807A5C0DAF24A","name":"昌榮路","lat":"22.370602","long":"114.134772"},{"id":"40A8EA2850B0979B","name":"葵涌健全街","lat":"22.370465","long":"114.130938"},{"id":"B943DBEE65B0B18F","name":"大窩口站","lat":"22.370365","long":"114.124962"},{"id":"F09516C266163337","name":"悅來酒店","lat":"22.369267","long":"114.120582"},{"id":"1C179AC6FE83C808","name":"寶石大廈","lat":"22.368857","long":"114.118050"},{"id":"FF1DC8F5F423EA42","name":"荃灣川龍街","lat":"22.369808","long":"114.116281"},{"id":"83388B59A961635D","name":"荃灣西站巴士總站","lat":"22.368179","long":"114.110355"}],"routeId":"31"}]