[{"company":"kmb","route":"31A","routeType":"1","dir":"O","orig":"葵涌邨","dest":"石籬(大隴街)","stopList":[{"id":"DB87B8A5A56F8336","name":"葵涌邨總站","lat":"22.367241","long":"114.128702"},{"id":"299184738ADD432A","name":"葵涌邨秋葵樓","lat":"22.368256","long":"114.129965"},{"id":"0393E099E78BEB94","name":"葵康苑","lat":"22.363259","long":"114.130687"},{"id":"75AA9801B870CCE1","name":"葵興站總站","lat":"22.363127","long":"114.131446"},{"id":"6F29E09A140E6F54","name":"葵興路葵興邨","lat":"22.366378","long":"114.131735"},{"id":"140E4137EAC319B5","name":"光輝圍","lat":"22.367927","long":"114.133665"},{"id":"8C6EF1266E4EE05B","name":"昌榮路","lat":"22.370532","long":"114.134301"},{"id":"D2ACD052AFD5900A","name":"梨木道","lat":"22.371271","long":"114.136752"},{"id":"C95751DB2112F279","name":"石蔭東邨","lat":"22.372348","long":"114.139503"},{"id":"F7AD8DE682AD5BB3","name":"安蔭邨豐蔭樓","lat":"22.368957","long":"114.141586"},{"id":"54BA046B2D0297A0","name":"石籬邨石佳樓","lat":"22.364728","long":"114.140138"},{"id":"51E196E962453AB4","name":"石籬商場","lat":"22.364567","long":"114.138992"},{"id":"D2EF3E1D638B1B9A","name":"葵涌打磚坪街","lat":"22.366078","long":"114.136904"},{"id":"3597DD106B5CD29F","name":"石籬(大隴街)總站","lat":"22.365722","long":"114.139143"}],"routeId":"31A"},{"company":"kmb","route":"31A","routeType":"1","dir":"I","orig":"石籬(大隴街)","dest":"葵涌邨","stopList":[{"id":"3597DD106B5CD29F","name":"石籬(大隴街)總站","lat":"22.365722","long":"114.139143"},{"id":"C84CAD6CCD18F87F","name":"石籬邨石佳樓","lat":"22.364913","long":"114.140057"},{"id":"478ACE8A8C9A2705","name":"石籬天主教小學","lat":"22.366854","long":"114.142021"},{"id":"A13C2C1D5D3EE0D7","name":"石排街石歡樓","lat":"22.368603","long":"114.141870"},{"id":"AE7C79C814E6BD95","name":"裘錦秋中學","lat":"22.369340","long":"114.140828"},{"id":"D5382A8A3773E6FE","name":"石蔭東邨","lat":"22.371931","long":"114.139780"},{"id":"1423FCFF61709EAC","name":"昌榮路","lat":"22.370511","long":"114.134739"},{"id":"898337E6181E5E66","name":"葵俊苑","lat":"22.364874","long":"114.132965"},{"id":"434BB67EF7BCA912","name":"葵康苑","lat":"22.363164","long":"114.130480"},{"id":"698AD748223B2BEA","name":"葵涌邨夏葵樓","lat":"22.366133","long":"114.130921"},{"id":"9BEBB2D3B05DD529","name":"葵涌邨秋葵樓","lat":"22.368040","long":"114.130166"},{"id":"DB87B8A5A56F8336","name":"葵涌邨總站","lat":"22.367241","long":"114.128702"}],"routeId":"31A"}]