[{"company":"kmb","route":"31P","routeType":"1","dir":"O","orig":"石籬商場","dest":"葵芳站","stopList":[{"id":"51E196E962453AB4","name":"石籬商場","lat":"22.364567","long":"114.138992"},{"id":"264B29FD223D9C4E","name":"葵涌打磚坪街","lat":"22.365984","long":"114.136723"},{"id":"86D7BB9BA055D8A6","name":"葵涌石宜路","lat":"22.368408","long":"114.139187"},{"id":"BF6A2F247B90FEBB","name":"葵涌藍田街","lat":"22.369709","long":"114.138771"},{"id":"6C11A9780213BBBB","name":"新都會廣場","lat":"22.356988","long":"114.127690"},{"id":"2AC908C8F703349B","name":"葵芳站巴士總站","lat":"22.357004","long":"114.128114"}],"routeId":"31P"}]