[{"company":"kmb","route":"331","routeType":"1","dir":"O","orig":"馬灣(珀欣路)","dest":"荃灣站","stopList":[{"id":"4B792EF191200C0D","name":"馬灣(珀欣路)","lat":"22.347285","long":"114.059854"},{"id":"D0EF3714A115BB3F","name":"馬灣鄉事會路(南)","lat":"22.351789","long":"114.058767"},{"id":"B52FC8FDDEDFC9B9","name":"馬灣鄉事會路(北)","lat":"22.353218","long":"114.059458"},{"id":"1FFC3F4F451D2633","name":"基慧小學","lat":"22.350505","long":"114.059531"},{"id":"D0EF3BE4408865DE","name":"港鐵荃灣站","lat":"22.372910","long":"114.118874"}],"routeId":"331","description":"正常班次"},{"company":"kmb","route":"331","routeType":"1","dir":"I","orig":"荃灣站","dest":"馬灣(珀欣路)","stopList":[{"id":"D0EF3BE4408865DE","name":"港鐵荃灣站","lat":"22.372910","long":"114.118874"},{"id":"1FFC3F4F451D2633","name":"基慧小學","lat":"22.350505","long":"114.059531"},{"id":"AE96DC654F4EB72E","name":"田寮新村","lat":"22.352492","long":"114.059743"},{"id":"D0EF3714A115BB3F","name":"馬灣鄉事會路(南)","lat":"22.351789","long":"114.058767"},{"id":"9774D8AAAD859409","name":"馬灣(珀欣路)","lat":"22.347285","long":"114.059854"}],"routeId":"331","description":"正常班次"}]