[{"company":"NWFB","route":"33X","routeType":null,"dir":"I","orig":"西灣河","dest":"數碼港","stopList":[],"routeId":"33X"},{"company":"NWFB","route":"33X","routeType":null,"dir":"O","orig":"數碼港","dest":"西灣河","stopList":[{"id":"002392","name":"數碼港","lat":"22.261985192091","long":"114.13067185053"},{"id":"002393","name":"數碼港三座, 數碼港道","lat":"22.259657562091","long":"114.13261742053"},{"id":"002394","name":"貝沙灣, 數碼港道","lat":"22.256625312091","long":"114.13276861053"},{"id":"002697","name":"貝沙灣南灣, 數碼港道","lat":"22.255283702091","long":"114.13365031053"},{"id":"002317","name":"域多利道分區電力站, 域多利道","lat":"22.256137482091","long":"114.13533141053"},{"id":"002680","name":"華翠街","lat":"22.254324112091","long":"114.13630381053"},{"id":"002339","name":"華富邨華生樓, 華富道","lat":"22.252877362091","long":"114.13596269053"},{"id":"002340","name":"華富邨華泰樓, 華富道","lat":"22.251814702091","long":"114.13621962053"},{"id":"002342","name":"華富邨華安樓, 華富道","lat":"22.251818402091","long":"114.13866375053"},{"id":"002226","name":"余振強紀念第二中學, 薄扶林道","lat":"22.256090272091","long":"114.13753478053"},{"id":"002183","name":"置富徑, 置富道","lat":"22.255735372091","long":"114.13843539053"},{"id":"002184","name":"置富花園 1- 7 座, 置富道","lat":"22.255954222091","long":"114.13974633053"},{"id":"002185","name":"置富南區廣場, 置富道","lat":"22.257587032091","long":"114.13938413053"},{"id":"002187","name":"置富花園網球場, 置富道","lat":"22.259081792091","long":"114.13754534053"},{"id":"002227","name":"薄扶林村, 薄扶林道","lat":"22.260643072091","long":"114.13612199053"},{"id":"002231","name":"瑪麗醫院, 薄扶林道","lat":"22.269072732091","long":"114.13063329053"},{"id":"001111","name":"蒲飛路, 薄扶林道","lat":"22.282022522091","long":"114.13223321053"},{"id":"001112","name":"何東夫人堂, 薄扶林道","lat":"22.283611332091","long":"114.13295982053"},{"id":"001113","name":"香港大學百周年校園, 薄扶林道","lat":"22.284286232091","long":"114.13491292053"},{"id":"001255","name":"渣華道市政大廈, 渣華道","lat":"22.292203912091","long":"114.19948901053"},{"id":"001257","name":"電照街, 渣華道","lat":"22.292829302091","long":"114.20250688053"},{"id":"001265","name":"健康村, 英皇道","lat":"22.292089592091","long":"114.20652344053"},{"id":"002677","name":"模範邨, 英皇道","lat":"22.291670382091","long":"114.20785144053"},{"id":"001267","name":"北角官立小學, 英皇道","lat":"22.288825782091","long":"114.20986716053"},{"id":"001268","name":"新威園, 英皇道","lat":"22.285544382091","long":"114.21133814053"},{"id":"001269","name":"惠安苑, 英皇道","lat":"22.284763112091","long":"114.21319278053"},{"id":"001270","name":"太古城中心, 英皇道","lat":"22.285287892091","long":"114.21758355053"},{"id":"001313","name":"太康樓, 太康街","lat":"22.283340892091","long":"114.22177946053"}],"routeId":"33X"}]