[{"company":"gmb","route":"34A","routeType":1,"orig":"廈村","dest":"流浮山","stopList":[{"id":1,"name":"廈村(新錫路)小巴總站","lat":22.45092109400286,"long":22.45092109400286},{"id":2,"name":"屏廈路,近廈村市富怡花園第二期第十座","lat":22.44682107086038,"long":22.44682107086038},{"id":3,"name":"天耀路,近天盛苑盛麗閣","lat":22.449679934110527,"long":22.449679934110527},{"id":4,"name":"天湖路,近嘉湖山莊賞湖居第一座","lat":22.45254988923705,"long":22.45254988923705},{"id":5,"name":"天瑞路,近天水圍公園","lat":22.456782719740637,"long":22.456782719740637},{"id":6,"name":"未命名通道,近金莎花園","lat":22.46184723953164,"long":22.46184723953164},{"id":7,"name":"流浮山道,近金莎花園","lat":22.461620383767038,"long":22.461620383767038},{"id":8,"name":"流浮山小巴總站","lat":22.467620012345918,"long":22.467620012345918}],"routeId":2002382,"description":"正常班次"},{"company":"gmb","route":"34A","routeType":2,"orig":"流浮山","dest":"廈村","stopList":[{"id":1,"name":"流浮山小巴總站","lat":22.467620012345918,"long":22.467620012345918},{"id":2,"name":"流浮山道,近金莎花園","lat":22.461395280146565,"long":22.461395280146565},{"id":3,"name":"未命名通道,近金莎花園","lat":22.46184723953164,"long":22.46184723953164},{"id":4,"name":"天瑞路,近天水圍公園","lat":22.45654833583497,"long":22.45654833583497},{"id":5,"name":"天湖路,近天耀邨耀盛樓","lat":22.452352451656175,"long":22.452352451656175},{"id":6,"name":"天耀路,近天耀邨耀民樓","lat":22.44964243980462,"long":22.44964243980462},{"id":7,"name":"屏廈路, 近天水圍站","lat":22.446790464976402,"long":22.446790464976402},{"id":8,"name":"屏廈路,近廈村市富怡花園第二期第十座","lat":22.446465335392528,"long":22.446465335392528},{"id":9,"name":"廈村(新錫路)小巴總站","lat":22.45092109400286,"long":22.45092109400286}],"routeId":2002382,"description":"正常班次"}]