[{"company":"KMB","route":"36X","routeType":"1","dir":"O","orig":"梨木樹","dest":"尖沙咀東(麼地道)","stopList":[{"id":"7EFC43457A826032","name":"梨木樹巴士總站","lat":"22.377550","long":"114.136571"},{"id":"066AA1A504714A20","name":"和宜合道運動場","lat":"22.374018","long":"114.136465"},{"id":"D2ACD052AFD5900A","name":"梨木道","lat":"22.371271","long":"114.136752"},{"id":"8998797A3D3E02A7","name":"葵涌藍田街","lat":"22.369992","long":"114.138344"},{"id":"A91E6B3E8A9A7B34","name":"葵涌打磚坪街","lat":"22.367360","long":"114.138988"},{"id":"26C0B01357752657","name":"石籬(大隴街)總站","lat":"22.365660","long":"114.139265"},{"id":"26EB1A3C1E17889A","name":"葵涌石英徑","lat":"22.364705","long":"114.135747"},{"id":"C3672D8D28801773","name":"葵涌業成街","lat":"22.360518","long":"114.135930"},{"id":"9A412252B10AD2FF","name":"華員邨","lat":"22.352084","long":"114.133181"},{"id":"66FB0FCA51BFD6A3","name":"鐘山台","lat":"22.344134","long":"114.139258"},{"id":"C586D7C1DBA5A4B3","name":"蝴蝶谷新村","lat":"22.340125","long":"114.143016"},{"id":"A5250E1C9C2E5B65","name":"甘泉街","lat":"22.337658","long":"114.144690"},{"id":"6C1C752975B8A257","name":"旺角鴉蘭街","lat":"22.323361","long":"114.167408"},{"id":"AB4C15B92D4199BB","name":"旺角奶路臣街 (S14)","lat":"22.318983","long":"114.169521"},{"id":"10754E414E9B86F4","name":"油麻地碧街 (S27)","lat":"22.314313","long":"114.170513"},{"id":"25B94D808EC232D8","name":"加士居道 (S38)","lat":"22.308921","long":"114.171408"},{"id":"A37F8CF766FCF9F3","name":"尖沙咀德成街 (S47)","lat":"22.304279","long":"114.171799"},{"id":"D6E03ECA84C07932","name":"金巴利道 (S49)","lat":"22.300942","long":"114.172087"},{"id":"45F2E2A508556D6E","name":"尖沙咀中間道 (S55)","lat":"22.295211","long":"114.172484"},{"id":"576538E1395C8508","name":"尖東站","lat":"22.295226","long":"114.174647"},{"id":"68DF2B78CD2B9C76","name":"尖沙咀東（麼地道）","lat":"22.296935","long":"114.175988"}],"routeId":"36X"},{"company":"KMB","route":"36X","routeType":"1","dir":"I","orig":"尖沙咀東(麼地道)","dest":"梨木樹","stopList":[{"id":"F388A6F066DE4562","name":"尖沙咀東（麼地道）","lat":"22.296679","long":"114.175866"},{"id":"89D32777124F4039","name":"尖東站","lat":"22.294828","long":"114.174540"},{"id":"1F2E60EDB4254D30","name":"尖沙咀中間道 (N2)","lat":"22.295816","long":"114.172187"},{"id":"EA4A3876639F21B4","name":"金巴利道 (N11)","lat":"22.300253","long":"114.171866"},{"id":"B0F64FFFBECE8AA4","name":"油麻地寶靈街 (N20)","lat":"22.304565","long":"114.171583"},{"id":"2DB47A3C263E4F5C","name":"九龍中央郵政局 (N30)","lat":"22.308904","long":"114.171181"},{"id":"16F899DA5289900D","name":"欣翔道","lat":"22.308881","long":"114.166179"},{"id":"B96E368FC17CD0B0","name":"富榮花園","lat":"22.314039","long":"114.164201"},{"id":"420E7970087AD769","name":"柏景灣","lat":"22.316414","long":"114.163641"},{"id":"B4F2BAAED2470D0A","name":"饒宗頤文化館","lat":"22.337160","long":"114.142131"},{"id":"75C0DF6C7724CEEA","name":"鐘山台","lat":"22.343708","long":"114.139414"},{"id":"EBF4EB34B96BC242","name":"華員邨","lat":"22.351321","long":"114.132856"},{"id":"3FE93821145B65F5","name":"葵涌業成街","lat":"22.360158","long":"114.135190"},{"id":"264B29FD223D9C4E","name":"葵涌打磚坪街","lat":"22.365984","long":"114.136723"},{"id":"86D7BB9BA055D8A6","name":"葵涌石宜路","lat":"22.368408","long":"114.139187"},{"id":"C24776F20FE877FF","name":"葵涌藍田街","lat":"22.369867","long":"114.138528"},{"id":"257A6E19DD7F156C","name":"和宜合道運動場","lat":"22.373954","long":"114.136349"},{"id":"28A57C043C111604","name":"石圍角新村","lat":"22.375875","long":"114.136250"},{"id":"7EFC43457A826032","name":"梨木樹巴士總站","lat":"22.377550","long":"114.136571"}],"routeId":"36X"},{"company":"NLB","route":"36X","routeType":null,"dir":null,"orig":"滿東邨","dest":"迪士尼樂園","stopList":[{"id":"309","name":"滿東邨","lat":"22.27865300","long":"113.93320300","street":"裕東路","fare":"9.8","fareHoliday":"9.8"},{"id":"306","name":"逸東邨雍逸樓","lat":"22.27974400","long":"113.93699500","street":"裕東路","fare":"9.8","fareHoliday":"9.8"},{"id":"77","name":"東涌消防局","lat":"22.28603000","long":"113.94105700","street":"順東路","fare":"9.8","fareHoliday":"9.8"},{"id":"327","name":"迪士尼樂園","lat":"22.31635600","long":"114.04573200","street":"幻想道","fare":"0.0","fareHoliday":"0.0"}],"routeId":"100"}]