[{"company":"KMB","route":"37M","routeType":"1","dir":"O","orig":"葵興站","dest":"葵盛中(循環線)","stopList":[{"id":"6063FF18F7E9D3C7","name":"葵興站總站","lat":"22.363294","long":"114.131320"},{"id":"434BB67EF7BCA912","name":"葵康苑","lat":"22.363164","long":"114.130480"},{"id":"B596DF51C1BDDB19","name":"林護紀念中學","lat":"22.365139","long":"114.130103"},{"id":"7FE0FCDBF45276EF","name":"葵盛邨盛豐樓","lat":"22.363759","long":"114.129266"},{"id":"7D41FC4EE12CB8FD","name":"葵盛東巴士總站","lat":"22.363364","long":"114.127104"},{"id":"9CF00A30796B6B2B","name":"葵聯邨","lat":"22.361595","long":"114.124451"},{"id":"3350CE851FCC56A3","name":"葵盛西邨","lat":"22.361200","long":"114.122477"},{"id":"2F82535CF1C5BF3A","name":"盧光輝紀念學校","lat":"22.363418","long":"114.122642"},{"id":"EA43CFAD630C4690","name":"高盛臺","lat":"22.365017","long":"114.123639"},{"id":"1C4E76186CEFBCB7","name":"葵盛邨盛安樓","lat":"22.365357","long":"114.125988"},{"id":"7CA9FF2CDD3C4EE1","name":"葵盛葵葉街","lat":"22.365187","long":"114.127629"},{"id":"6DAB37A3FC9475C3","name":"林護紀念中學","lat":"22.365373","long":"114.130073"},{"id":"0393E099E78BEB94","name":"葵康苑","lat":"22.363259","long":"114.130687"},{"id":"6063FF18F7E9D3C7","name":"葵興站總站","lat":"22.363294","long":"114.131320"}],"routeId":"37M"},{"company":"NLB","route":"37M","routeType":null,"dir":null,"orig":"迎東邨","dest":"東涌站巴士總站 (循環線)","stopList":[{"id":"297","name":"迎東邨","lat":"22.29710400","long":"113.95334200","street":"迎東邨","fare":"3.5","fareHoliday":"3.5"},{"id":"191","name":"昇薈(南行)","lat":"22.29583500","long":"113.95207700","street":"迎東路","fare":"3.5","fareHoliday":"3.5"},{"id":"192","name":"迎禧路","lat":"22.29431000","long":"113.94999600","street":"迎禧路","fare":"3.5","fareHoliday":"3.5"},{"id":"78","name":"東涌纜車站","lat":"22.28930100","long":"113.93873300","street":"達東路","fare":"3.5","fareHoliday":"3.5"},{"id":"79","name":"東涌站巴士總站","lat":"22.28986200","long":"113.93961600","street":"達東路","fare":"3.5","fareHoliday":"3.5"},{"id":"324","name":"裕雅苑","lat":"22.29419400","long":"113.94725400","street":"迎禧路","fare":"3.5","fareHoliday":"3.5"},{"id":"303","name":"東環","lat":"22.29439800","long":"113.94907100","street":"迎康街6號","fare":"3.5","fareHoliday":"3.5"},{"id":"190","name":"昇薈(北行)","lat":"22.29582300","long":"113.95190700","street":"迎東路","fare":"3.5","fareHoliday":"3.5"},{"id":"193","name":"迎東邨","lat":"22.29710400","long":"113.95334200","street":"迎東邨","fare":"0.0","fareHoliday":"0.0"}],"routeId":"82"}]