[{"company":"NWFB","route":"389","routeType":null,"dir":"I","orig":"柴灣墳場／歌連臣角","dest":"筲箕灣","stopList":[],"routeId":"389"},{"company":"NWFB","route":"389","routeType":null,"dir":"O","orig":"筲箕灣","dest":"柴灣墳場／歌連臣角","stopList":[{"id":"001207","name":"筲箕灣","lat":"22.278421122091","long":"114.22833128053"},{"id":"002803","name":"環翠邨停車場, 連城道","lat":"22.261242522091","long":"114.23630425053"},{"id":"002804","name":"華人永遠墳場, 連城道","lat":"22.259484792091","long":"114.23867553053"},{"id":"002805","name":"西灣國殤紀念墳場, 歌連臣角道","lat":"22.258512102091","long":"114.23425380053"},{"id":"002806","name":"佛教墳場, 歌連臣角道","lat":"22.257009662091","long":"114.23319899053"},{"id":"002807","name":"歌連臣角火葬場, 歌連臣角道","lat":"22.256624432091","long":"114.23034783053"},{"id":"002787","name":"大潭道, 石澳道","lat":"22.257114492091","long":"114.22848066053"},{"id":"001321","name":"女童軍訓練中心, 大潭道","lat":"22.263971382091","long":"114.23059713053"},{"id":"001322","name":"山翠苑, 大潭道","lat":"22.269012232091","long":"114.23272045053"},{"id":"001232","name":"筲箕灣東官立中學, 柴灣道","lat":"22.272471812091","long":"114.23263770053"},{"id":"001233","name":"阿公岩道, 柴灣道","lat":"22.274719782091","long":"114.23085406053"}],"routeId":"389"}]