[{"company":"gmb","route":"39C","routeType":1,"orig":"鴨脷洲漁安苑","dest":"香港仔(循環線) ","stopList":[{"id":20000238,"name":"漁安苑道, 彩安閣","lat":22.243216381169965,"long":22.243216381169965},{"id":20004568,"name":"利東邨道, 漁安苑","lat":22.243053982532725,"long":22.243053982532725},{"id":20000361,"name":"香港仔海傍道, 逸港居","lat":22.24756948944506,"long":22.24756948944506},{"id":20000169,"name":"香港仔大道, 香港仔海濱公園","lat":22.246954996200248,"long":22.246954996200248},{"id":20000218,"name":"南寧街","lat":22.248950576811072,"long":22.248950576811072},{"id":20004573,"name":"利東邨道, 香港真光書院","lat":22.2429365972826,"long":22.2429365972826},{"id":20000234,"name":"利東邨道, 東昇樓","lat":22.24148244805686,"long":22.24148244805686},{"id":20004567,"name":"利東邨道, 東業樓","lat":22.241057828159207,"long":22.241057828159207},{"id":20000238,"name":"漁安苑道, 彩安閣","lat":22.243216381169965,"long":22.243216381169965}],"routeId":2001260,"description":"正常班次"}]