[{"company":"KMB","route":"3M","routeType":"1","dir":"O","orig":"慈雲山(北)","dest":"彩雲","stopList":[{"id":"94780B40412261CE","name":"慈雲山(北)總站","lat":"22.351133","long":"114.198268"},{"id":"31317843D8BA833F","name":"正暉樓","lat":"22.350255","long":"114.201077"},{"id":"C185612B431B197A","name":"正康樓","lat":"22.348672","long":"114.202907"},{"id":"A4C9136D18013389","name":"德愛中學","lat":"22.347293","long":"114.204339"},{"id":"63E6DD5119A301AD","name":"保良局第一張永慶中學","lat":"22.346370","long":"114.205219"},{"id":"EF01999C9F909553","name":"鑽石山火葬場","lat":"22.345108","long":"114.206879"},{"id":"CF89BD775D2ABDC9","name":"富山邨","lat":"22.342713","long":"114.208029"},{"id":"711A39D02DB2B4D8","name":"斧山道運動場","lat":"22.339659","long":"114.207353"},{"id":"64CE8117895E8FAD","name":"牛池灣村","lat":"22.336431","long":"114.207548"},{"id":"5CD4C77378D3A4AE","name":"牛池灣街市","lat":"22.334351","long":"114.209490"},{"id":"942E95B4336BDFA7","name":"白虹樓","lat":"22.332599","long":"114.215269"},{"id":"33BA3785390F1457","name":"觀日樓","lat":"22.333521","long":"114.216390"},{"id":"6D1FFB57C26F1108","name":"彩雲總站","lat":"22.333413","long":"114.214870"}],"routeId":"3M"},{"company":"KMB","route":"3M","routeType":"1","dir":"I","orig":"彩雲","dest":"慈雲山(北)","stopList":[{"id":"6D1FFB57C26F1108","name":"彩雲總站","lat":"22.333413","long":"114.214870"},{"id":"54733D2BB5BE7121","name":"彩虹站","lat":"22.334196","long":"114.210123"},{"id":"917DF4AF0ED7B258","name":"丹鳳樓","lat":"22.335294","long":"114.207582"},{"id":"7FB952821E3FCAD2","name":"彩虹","lat":"22.335721","long":"114.204285"},{"id":"DB6981B82045B45C","name":"真鐸學校","lat":"22.339786","long":"114.207218"},{"id":"ACE23D880D07ABB1","name":"宏景花園","lat":"22.342399","long":"114.207911"},{"id":"A8054881B534B00A","name":"蒲崗村道學校村","lat":"22.345888","long":"114.205889"},{"id":"E51BB6A7525BA679","name":"慈雲山(南)總站","lat":"22.346858","long":"114.203314"},{"id":"76F0BFCC3D78F888","name":"慈民邨","lat":"22.348543","long":"114.203268"},{"id":"BA55DB38DEF14AD4","name":"慈雲山邨中央遊樂場","lat":"22.349523","long":"114.201694"},{"id":"6B582CAEDE8FBDEF","name":"愛富閣","lat":"22.350631","long":"114.199302"},{"id":"94780B40412261CE","name":"慈雲山(北)總站","lat":"22.351133","long":"114.198268"}],"routeId":"3M"},{"company":"KMB","route":"3M","routeType":"2","dir":"I","orig":"彩雲","dest":"慈雲山(南)","stopList":[{"id":"6D1FFB57C26F1108","name":"彩雲總站","lat":"22.333413","long":"114.214870"},{"id":"54733D2BB5BE7121","name":"彩虹站","lat":"22.334196","long":"114.210123"},{"id":"917DF4AF0ED7B258","name":"丹鳳樓","lat":"22.335294","long":"114.207582"},{"id":"7FB952821E3FCAD2","name":"彩虹","lat":"22.335721","long":"114.204285"},{"id":"DB6981B82045B45C","name":"真鐸學校","lat":"22.339786","long":"114.207218"},{"id":"ACE23D880D07ABB1","name":"宏景花園","lat":"22.342399","long":"114.207911"},{"id":"A8054881B534B00A","name":"蒲崗村道學校村","lat":"22.345888","long":"114.205889"},{"id":"E51BB6A7525BA679","name":"慈雲山(南)總站","lat":"22.346858","long":"114.203314"}],"routeId":"3M"},{"company":"NLB","route":"3M","routeType":null,"dir":null,"orig":"東涌站巴士總站","dest":"梅窩碼頭","stopList":[{"id":"278","name":"東涌站巴士總站","lat":"22.28986200","long":"113.93961600","street":"達東路","fare":"11.4","fareHoliday":"17.8"},{"id":"80","name":"富東廣場","lat":"22.28887000","long":"113.94210500","street":"達東路","fare":"11.4","fareHoliday":"17.8"},{"id":"81","name":"裕東苑","lat":"22.28607700","long":"113.94160300","street":"順東路","fare":"11.4","fareHoliday":"17.8"},{"id":"185","name":"北大嶼山醫院(北行), 逸東邨美逸樓","lat":"22.28129500","long":"113.93882200","street":"松仁路","fare":"11.4","fareHoliday":"17.8"},{"id":"76","name":"北大嶼山醫院(南行)","lat":"22.28186100","long":"113.93880300","street":"松仁路","fare":"11.4","fareHoliday":"17.8"},{"id":"94","name":"東涌鄉事委員會","lat":"22.27893600","long":"113.93879500","street":"東涌道","fare":"11.4","fareHoliday":"17.8"},{"id":"279","name":"上嶺皮","lat":"22.27879200","long":"113.93714800","street":"東涌道","fare":"11.4","fareHoliday":"17.8"},{"id":"280","name":"下嶺皮","lat":"22.27851200","long":"113.93542300","street":"東涌道","fare":"11.4","fareHoliday":"17.8"},{"id":"282","name":"黃家圍","lat":"22.27703800","long":"113.93397500","street":"東涌道","fare":"11.4","fareHoliday":"17.8"},{"id":"283","name":"龍井頭","lat":"22.27570700","long":"113.93370700","street":"東涌道","fare":"11.4","fareHoliday":"17.8"},{"id":"284","name":"石門甲道","lat":"22.27047000","long":"113.93446500","street":"東涌道","fare":"11.4","fareHoliday":"17.8"},{"id":"286","name":"十八區墳場","lat":"22.26567800","long":"113.93674000","street":"東涌道","fare":"11.4","fareHoliday":"17.8"},{"id":"287","name":"東涌坳管理站","lat":"22.26410400","long":"113.93755200","street":"東涌道","fare":"11.4","fareHoliday":"17.8"},{"id":"288","name":"伯公坳","lat":"22.24893900","long":"113.94259700","street":"東涌道","fare":"11.4","fareHoliday":"17.8"},{"id":"273","name":"長沙引水道","lat":"22.24000700","long":"113.95733900","street":"東涌道","fare":"6.0","fareHoliday":"11.8"},{"id":"256","name":"女青年會梁紹榮度假村","lat":"22.23776800","long":"113.96397300","street":"嶼南道","fare":"4.6","fareHoliday":"6.8"},{"id":"257","name":"散石灣村","lat":"22.23902400","long":"113.96652600","street":"嶼南道","fare":"4.6","fareHoliday":"6.8"},{"id":"258","name":"散石灣中蘆","lat":"22.24125500","long":"113.96866600","street":"嶼南道","fare":"4.6","fareHoliday":"6.8"},{"id":"259","name":"羅屋村","lat":"22.24337500","long":"113.97483200","street":"嶼南道","fare":"3.4","fareHoliday":"5.5"},{"id":"260","name":"新圍村","lat":"22.24347600","long":"113.97732200","street":"嶼南道","fare":"3.4","fareHoliday":"5.5"},{"id":"261","name":"老圍村","lat":"22.24444000","long":"113.97900000","street":"嶼南道","fare":"3.4","fareHoliday":"5.5"},{"id":"262","name":"貝澳油站","lat":"22.24750100","long":"113.98077000","street":"嶼南道","fare":"3.4","fareHoliday":"5.5"},{"id":"263","name":"太古職員宿舍","lat":"22.25212000","long":"113.98474500","street":"嶼南道","fare":"3.4","fareHoliday":"5.5"},{"id":"264","name":"南山營地","lat":"22.25606700","long":"113.98747000","street":"嶼南道","fare":"3.4","fareHoliday":"5.5"},{"id":"265","name":"南山三屋村","lat":"22.25732700","long":"113.98990100","street":"嶼南道","fare":"3.4","fareHoliday":"5.5"},{"id":"56","name":"禮智園墳場","lat":"22.25932700","long":"113.99399300","street":"嶼南道","fare":"3.4","fareHoliday":"5.5"},{"id":"266","name":"荔枝園","lat":"22.26066700","long":"113.99626800","street":"嶼南道","fare":"3.4","fareHoliday":"5.5"},{"id":"57","name":"梅窩警署","lat":"22.26409300","long":"113.99890600","street":"嶼南道","fare":"3.4","fareHoliday":"5.5"},{"id":"2","name":"梅窩熟食市場","lat":"22.26614300","long":"114.00004900","street":"銀礦灣道","fare":"3.4","fareHoliday":"5.5"},{"id":"3","name":"銀灣邨","lat":"22.26540600","long":"113.99707400","street":"銀礦灣道","fare":"3.4","fareHoliday":"5.5"},{"id":"4","name":"梅窩街市","lat":"22.26675900","long":"113.99699900","street":"銀石街","fare":"3.4","fareHoliday":"5.5"},{"id":"5","name":"銀景中心","lat":"22.26553700","long":"113.99696500","street":"銀礦灣道","fare":"3.4","fareHoliday":"5.5"},{"id":"305","name":"梅窩碼頭","lat":"22.26466400","long":"114.00155400","street":"梅窩碼頭","fare":"0.0","fareHoliday":"0.0"}],"routeId":"6"},{"company":"NLB","route":"3M","routeType":null,"dir":null,"orig":"梅窩 (貝澳開)","dest":"東涌站巴士總站","stopList":[{"id":"12","name":"老圍村","lat":"22.24425200","long":"113.97923600","street":"嶼南道","fare":"9.3","fareHoliday":"15.3"},{"id":"13","name":"新圍村","lat":"22.24347600","long":"113.97817800","street":"嶼南道","fare":"9.3","fareHoliday":"15.3"},{"id":"14","name":"羅屋村","lat":"22.24319200","long":"113.97488500","street":"嶼南道","fare":"9.3","fareHoliday":"15.3"},{"id":"15","name":"牛坳園","lat":"22.24304100","long":"113.97254500","street":"嶼南道","fare":"9.3","fareHoliday":"15.3"},{"id":"16","name":"散石灣中蘆","lat":"22.24124400","long":"113.96910500","street":"嶼南道","fare":"6.5","fareHoliday":"12.9"},{"id":"17","name":"散石灣村","lat":"22.23892800","long":"113.96677200","street":"嶼南道","fare":"6.5","fareHoliday":"12.9"},{"id":"18","name":"女青年會梁紹榮度假村","lat":"22.23748400","long":"113.96400100","street":"嶼南道","fare":"6.5","fareHoliday":"12.9"},{"id":"179","name":"東涌道","lat":"22.23791800","long":"113.96292000","street":"嶼南道","fare":"6.5","fareHoliday":"12.9"},{"id":"64","name":"長沙引水道","lat":"22.23981400","long":"113.95721600","street":"東涌道","fare":"6.5","fareHoliday":"12.9"},{"id":"65","name":"伯公坳","lat":"22.24805400","long":"113.94313900","street":"東涌道","fare":"6.5","fareHoliday":"12.9"},{"id":"66","name":"東涌坳管理站","lat":"22.26400600","long":"113.93715500","street":"東涌道","fare":"6.5","fareHoliday":"12.9"},{"id":"67","name":"十八區墳場","lat":"22.26546600","long":"113.93646300","street":"東涌道","fare":"6.5","fareHoliday":"12.9"},{"id":"68","name":"石門甲道","lat":"22.26991800","long":"113.93424300","street":"東涌道","fare":"2.6","fareHoliday":"5.1"},{"id":"69","name":"龍井頭","lat":"22.27597500","long":"113.93337700","street":"東涌道","fare":"2.6","fareHoliday":"5.1"},{"id":"70","name":"黃家圍","lat":"22.27716200","long":"113.93381200","street":"東涌道","fare":"2.6","fareHoliday":"5.1"},{"id":"71","name":"下嶺皮","lat":"22.27873100","long":"113.93547500","street":"東涌道","fare":"2.6","fareHoliday":"5.1"},{"id":"72","name":"上嶺皮","lat":"22.27891200","long":"113.93685600","street":"東涌道","fare":"2.6","fareHoliday":"5.1"},{"id":"73","name":"東涌鄉事委員會","lat":"22.27913800","long":"113.93929900","street":"東涌道","fare":"2.6","fareHoliday":"5.1"},{"id":"74","name":"馬灣新村","lat":"22.27986500","long":"113.94024300","street":"松仁路","fare":"2.6","fareHoliday":"5.1"},{"id":"77","name":"東涌消防局","lat":"22.28603000","long":"113.94105700","street":"順東路","fare":"2.6","fareHoliday":"5.1"},{"id":"78","name":"東涌纜車站","lat":"22.28930100","long":"113.93873300","street":"達東路","fare":"2.6","fareHoliday":"5.1"},{"id":"79","name":"東涌站巴士總站","lat":"22.28986200","long":"113.93961600","street":"達東路","fare":"0.0","fareHoliday":"0.0"}],"routeId":"8"},{"company":"NLB","route":"3M","routeType":null,"dir":null,"orig":"梅窩碼頭","dest":"東涌站巴士總站","stopList":[{"id":"1","name":"梅窩碼頭","lat":"22.26466400","long":"114.00155400","street":"梅窩碼頭","fare":"11.4","fareHoliday":"17.8"},{"id":"2","name":"梅窩熟食市場","lat":"22.26614300","long":"114.00004900","street":"銀礦灣道","fare":"11.4","fareHoliday":"17.8"},{"id":"3","name":"銀灣邨","lat":"22.26540600","long":"113.99707400","street":"銀礦灣道","fare":"11.4","fareHoliday":"17.8"},{"id":"4","name":"梅窩街市","lat":"22.26675900","long":"113.99699900","street":"銀石街","fare":"11.4","fareHoliday":"17.8"},{"id":"5","name":"銀景中心","lat":"22.26553700","long":"113.99696500","street":"銀礦灣道","fare":"11.4","fareHoliday":"17.8"},{"id":"6","name":"銀鑛灣濾水廠","lat":"22.26296600","long":"113.99782600","street":"嶼南道","fare":"11.4","fareHoliday":"17.8"},{"id":"7","name":"荔枝園","lat":"22.26075800","long":"113.99647700","street":"嶼南道","fare":"11.4","fareHoliday":"17.8"},{"id":"8","name":"南山三屋村","lat":"22.25707200","long":"113.99010800","street":"嶼南道","fare":"11.4","fareHoliday":"17.8"},{"id":"9","name":"南山營地","lat":"22.25545100","long":"113.98681100","street":"嶼南道","fare":"11.4","fareHoliday":"17.8"},{"id":"10","name":"太古職員宿舍","lat":"22.25191800","long":"113.98488700","street":"嶼南道","fare":"11.4","fareHoliday":"17.8"},{"id":"11","name":"貝澳油站","lat":"22.24731100","long":"113.98098500","street":"嶼南道","fare":"9.3","fareHoliday":"15.3"},{"id":"12","name":"老圍村","lat":"22.24425200","long":"113.97923600","street":"嶼南道","fare":"9.3","fareHoliday":"15.3"},{"id":"13","name":"新圍村","lat":"22.24347600","long":"113.97817800","street":"嶼南道","fare":"9.3","fareHoliday":"15.3"},{"id":"14","name":"羅屋村","lat":"22.24319200","long":"113.97488500","street":"嶼南道","fare":"9.3","fareHoliday":"15.3"},{"id":"15","name":"牛坳園","lat":"22.24304100","long":"113.97254500","street":"嶼南道","fare":"9.3","fareHoliday":"15.3"},{"id":"16","name":"散石灣中蘆","lat":"22.24124400","long":"113.96910500","street":"嶼南道","fare":"6.5","fareHoliday":"12.9"},{"id":"17","name":"散石灣村","lat":"22.23892800","long":"113.96677200","street":"嶼南道","fare":"6.5","fareHoliday":"12.9"},{"id":"18","name":"女青年會梁紹榮度假村","lat":"22.23748400","long":"113.96400100","street":"嶼南道","fare":"6.5","fareHoliday":"12.9"},{"id":"179","name":"東涌道","lat":"22.23791800","long":"113.96292000","street":"嶼南道","fare":"6.5","fareHoliday":"12.9"},{"id":"64","name":"長沙引水道","lat":"22.23981400","long":"113.95721600","street":"東涌道","fare":"6.5","fareHoliday":"12.9"},{"id":"65","name":"伯公坳","lat":"22.24805400","long":"113.94313900","street":"東涌道","fare":"6.5","fareHoliday":"12.9"},{"id":"66","name":"東涌坳管理站","lat":"22.26400600","long":"113.93715500","street":"東涌道","fare":"6.5","fareHoliday":"12.9"},{"id":"67","name":"十八區墳場","lat":"22.26546600","long":"113.93646300","street":"東涌道","fare":"6.5","fareHoliday":"12.9"},{"id":"68","name":"石門甲道","lat":"22.26991800","long":"113.93424300","street":"東涌道","fare":"2.6","fareHoliday":"5.1"},{"id":"69","name":"龍井頭","lat":"22.27597500","long":"113.93337700","street":"東涌道","fare":"2.6","fareHoliday":"5.1"},{"id":"70","name":"黃家圍","lat":"22.27716200","long":"113.93381200","street":"東涌道","fare":"2.6","fareHoliday":"5.1"},{"id":"71","name":"下嶺皮","lat":"22.27873100","long":"113.93547500","street":"東涌道","fare":"2.6","fareHoliday":"5.1"},{"id":"72","name":"上嶺皮","lat":"22.27891200","long":"113.93685600","street":"東涌道","fare":"2.6","fareHoliday":"5.1"},{"id":"73","name":"東涌鄉事委員會","lat":"22.27913800","long":"113.93929900","street":"東涌道","fare":"2.6","fareHoliday":"5.1"},{"id":"74","name":"馬灣新村","lat":"22.27986500","long":"113.94024300","street":"松仁路","fare":"2.6","fareHoliday":"5.1"},{"id":"185","name":"北大嶼山醫院(北行), 逸東邨美逸樓","lat":"22.28129500","long":"113.93882200","street":"松仁路","fare":"2.6","fareHoliday":"5.1"},{"id":"76","name":"北大嶼山醫院(南行)","lat":"22.28186100","long":"113.93880300","street":"松仁路","fare":"2.6","fareHoliday":"5.1"},{"id":"77","name":"東涌消防局","lat":"22.28603000","long":"113.94105700","street":"順東路","fare":"2.6","fareHoliday":"5.1"},{"id":"78","name":"東涌纜車站","lat":"22.28930100","long":"113.93873300","street":"達東路","fare":"2.6","fareHoliday":"5.1"},{"id":"79","name":"東涌站巴士總站","lat":"22.28986200","long":"113.93961600","street":"達東路","fare":"0.0","fareHoliday":"0.0"}],"routeId":"7"}]