[{"company":"nwfb","route":"4","routeType":null,"dir":"I","orig":"中環","dest":"黃竹坑／華富 (南)","stopList":[{"id":"001032","name":"中環 (交易廣場)","lat":"22.283695952091","long":"114.15803274053"},{"id":"001034","name":"砵典乍街, 干諾道中","lat":"22.283587582091","long":"114.15730419053"},{"id":"001028","name":"港澳碼頭, 干諾道中","lat":"22.287714882091","long":"114.15133682053"},{"id":"001108","name":"中環 (林士街)","lat":"22.286725242091","long":"114.15443116053"},{"id":"001035","name":"恒生銀行總行, 干諾道中","lat":"22.284812302091","long":"114.15631844053"},{"id":"001124","name":"中環中心, 皇后大道中","lat":"22.284328902091","long":"114.15390976053"},{"id":"001126","name":"荷李活華庭, 皇后大道中","lat":"22.284443202091","long":"114.15115814053"},{"id":"001127","name":"上環文娛中心, 皇后大道中","lat":"22.285970352091","long":"114.14910338053"},{"id":"001134","name":"帝后華庭, 皇后大道西","lat":"22.286525342091","long":"114.14736012053"},{"id":"001134","name":"帝后華庭, 皇后大道西","lat":"22.286525342091","long":"114.14736012053"},{"id":"001135","name":"修打蘭街, 皇后大道西","lat":"22.286631802091","long":"114.14534782053"},{"id":"001130","name":"正街, 皇后大道西","lat":"22.286844142091","long":"114.14276129053"},{"id":"001131","name":"西邊街, 皇后大道西","lat":"22.286915762091","long":"114.14144558053"},{"id":"001119","name":"李陞小學, 薄扶林道","lat":"22.285487302091","long":"114.13994098053"},{"id":"001116","name":"香港大學西閘, 薄扶林道","lat":"22.283588212091","long":"114.13569933053"},{"id":"001117","name":"何東夫人堂, 薄扶林道","lat":"22.283819002091","long":"114.13341793053"},{"id":"001120","name":"蒲飛路, 薄扶林道","lat":"22.281996732091","long":"114.13241370053"},{"id":"001118","name":"薄扶林道遊樂場, 薄扶林道","lat":"22.278417902091","long":"114.13115417053"},{"id":"002234","name":"香港華人基督教聯會薄扶林道墳場, 薄扶林道","lat":"22.273395592091","long":"114.13030688053"},{"id":"002236","name":"瑪麗醫院, 薄扶林道","lat":"22.269871512091","long":"114.13046423053"},{"id":"002237","name":"心光學校, 薄扶林道","lat":"22.266653792091","long":"114.13277936053"},{"id":"002238","name":"明德村, 薄扶林道","lat":"22.264310562091","long":"114.13374006053"},{"id":"002239","name":"薄扶林水塘道, 薄扶林道","lat":"22.262572552091","long":"114.13555996053"},{"id":"002240","name":"薄扶林村, 薄扶林道","lat":"22.260617742091","long":"114.13650277053"},{"id":"002233","name":"余振強紀念第二中學, 薄扶林道","lat":"22.255951482091","long":"114.13779932053"},{"id":"002333","name":"華富邨華樂樓, 華富道","lat":"22.251701562091","long":"114.13854444053"},{"id":"002334","name":"華富商場, 華富道","lat":"22.250930762091","long":"114.13735096053"},{"id":"002341","name":"華富 (南)","lat":"22.251167732091","long":"114.13648455053"},{"id":"002342","name":"華富邨華安樓, 華富道","lat":"22.251818402091","long":"114.13866375053"},{"id":"003287","name":"興和街, 石排灣道","lat":"22.249678472091","long":"114.14790169053"},{"id":"002157","name":"聖伯多祿堂, 香港仔大道","lat":"22.249804272091","long":"114.15368046053"},{"id":"002158","name":"漁暉道, 香港仔大道","lat":"22.248585702091","long":"114.15575506053"},{"id":"002159","name":"業漁大廈, 香港仔大道","lat":"22.247578892091","long":"114.15849066053"},{"id":"002344","name":"甄沾記大廈, 黃竹坑道","lat":"22.248523252091","long":"114.16362493053"},{"id":"002224","name":"南朗山道熟食市場, 南朗山道","lat":"22.247464142091","long":"114.16666866053"},{"id":"002223","name":"黃竹坑 (南朗山)","lat":"22.245241212091","long":"114.16723559053"},{"id":"002341","name":"華富 (南)","lat":"22.251167732091","long":"114.13648455053"}],"routeId":"4","description":"正常班次"},{"company":"nwfb","route":"4","routeType":null,"dir":"O","orig":"黃竹坑／華富 (南)","dest":"中環","stopList":[{"id":"002299","name":"田灣邨","lat":"22.250655332091","long":"114.14976256053"},{"id":"002294","name":"耀中幼教學院, 田灣山道","lat":"22.250298772091","long":"114.14756291053"},{"id":"002372","name":"華貴邨","lat":"22.249877332091","long":"114.13994005053"},{"id":"002295","name":"牛奶公司冰廠及冷房, 田灣海旁道","lat":"22.248630782091","long":"114.14418340053"},{"id":"002223","name":"黃竹坑 (南朗山)","lat":"22.245241212091","long":"114.16723559053"},{"id":"002390","name":"南朗山道熟食市場, 南朗山道","lat":"22.247128452091","long":"114.16638027053"},{"id":"002357","name":"南朗山道, 黃竹坑道","lat":"22.248327512091","long":"114.16606157053"},{"id":"002358","name":"勝利工廠大廈, 黃竹坑道","lat":"22.248392422091","long":"114.16314899053"},{"id":"002160","name":"逸港居, 香港仔海傍道","lat":"22.247488362091","long":"114.15902634053"},{"id":"002161","name":"香港仔海濱公園, 香港仔海傍道","lat":"22.246983922091","long":"114.15584999053"},{"id":"002162","name":"香港仔魚類批發市場, 香港仔海傍道","lat":"22.247980382091","long":"114.15243083053"},{"id":"002163","name":"田灣街, 香港仔海傍道","lat":"22.248632712091","long":"114.14809052053"},{"id":"002341","name":"華富 (南)","lat":"22.251167732091","long":"114.13648455053"},{"id":"002342","name":"華富邨華安樓, 華富道","lat":"22.251818402091","long":"114.13866375053"},{"id":"002226","name":"余振強紀念第二中學, 薄扶林道","lat":"22.256090272091","long":"114.13753478053"},{"id":"002227","name":"薄扶林村, 薄扶林道","lat":"22.260643072091","long":"114.13612199053"},{"id":"002228","name":"薄扶林水塘道, 薄扶林道","lat":"22.262870012091","long":"114.13490606053"},{"id":"002229","name":"嘉林閣, 薄扶林道","lat":"22.264648112091","long":"114.13328494053"},{"id":"002230","name":"心光學校, 薄扶林道","lat":"22.267096712091","long":"114.13213924053"},{"id":"002231","name":"瑪麗醫院, 薄扶林道","lat":"22.269072732091","long":"114.13063329053"},{"id":"002232","name":"香港華人基督教聯會薄扶林道墳場, 薄扶林道","lat":"22.274060082091","long":"114.12987976053"},{"id":"001109","name":"摩星嶺道, 薄扶林道","lat":"22.278376602091","long":"114.13095479053"},{"id":"001110","name":"富林苑, 薄扶林道","lat":"22.280020342091","long":"114.13131470053"},{"id":"001111","name":"蒲飛路, 薄扶林道","lat":"22.282022522091","long":"114.13223321053"},{"id":"001112","name":"何東夫人堂, 薄扶林道","lat":"22.283611332091","long":"114.13295982053"},{"id":"001113","name":"香港大學百周年校園, 薄扶林道","lat":"22.284286232091","long":"114.13491292053"},{"id":"001114","name":"聖士提反堂中學, 薄扶林道","lat":"22.285287532091","long":"114.13837291053"},{"id":"001153","name":"第二街","lat":"22.286218922091","long":"114.13939512053"},{"id":"001062","name":"西區警署, 德輔道西","lat":"22.287960232091","long":"114.14034970053"},{"id":"001063","name":"正街, 德輔道西","lat":"22.287991912091","long":"114.14192498053"},{"id":"001064","name":"東邊街, 德輔道西","lat":"22.287915452091","long":"114.14422510053"},{"id":"001065","name":"修打蘭街, 德輔道西","lat":"22.287779782091","long":"114.14637128053"},{"id":"001028","name":"港澳碼頭, 干諾道中","lat":"22.287714882091","long":"114.15133682053"},{"id":"001107","name":"中區政府碼頭, 民光街","lat":"22.287395152091","long":"114.15457705053"},{"id":"001170","name":"中環 3 號碼頭, 民光街","lat":"22.287492242091","long":"114.15733493053"},{"id":"001195","name":"中環 5 號碼頭","lat":"22.286879172091","long":"114.15919907053"},{"id":"001144","name":"國際金融中心二期, 民耀街","lat":"22.285016122091","long":"114.15994519053"},{"id":"001032","name":"中環 (交易廣場)","lat":"22.283695952091","long":"114.15803274053"},{"id":"001108","name":"中環 (林士街)","lat":"22.286725242091","long":"114.15443116053"},{"id":"001035","name":"恒生銀行總行, 干諾道中","lat":"22.284812302091","long":"114.15631844053"}],"routeId":"4","description":"正常班次"},{"company":"nlb","route":"4","routeType":null,"dir":null,"orig":"梅窩碼頭","dest":"塘福 (至水口)","stopList":[{"id":"1","name":"梅窩碼頭","lat":"22.26466400","long":"114.00155400","street":"梅窩碼頭","fare":"6.1","fareHoliday":"11.9"},{"id":"2","name":"梅窩熟食市場","lat":"22.26614300","long":"114.00004900","street":"銀礦灣道","fare":"6.1","fareHoliday":"11.9"},{"id":"3","name":"銀灣邨","lat":"22.26540600","long":"113.99707400","street":"銀礦灣道","fare":"6.1","fareHoliday":"11.9"},{"id":"4","name":"梅窩街市","lat":"22.26675900","long":"113.99699900","street":"銀石街","fare":"6.1","fareHoliday":"11.9"},{"id":"5","name":"銀景中心","lat":"22.26553700","long":"113.99696500","street":"銀礦灣道","fare":"6.1","fareHoliday":"11.9"},{"id":"6","name":"銀鑛灣濾水廠","lat":"22.26296600","long":"113.99782600","street":"嶼南道","fare":"6.1","fareHoliday":"11.9"},{"id":"7","name":"荔枝園","lat":"22.26075800","long":"113.99647700","street":"嶼南道","fare":"6.1","fareHoliday":"11.9"},{"id":"8","name":"南山三屋村","lat":"22.25707200","long":"113.99010800","street":"嶼南道","fare":"6.1","fareHoliday":"11.9"},{"id":"9","name":"南山營地","lat":"22.25545100","long":"113.98681100","street":"嶼南道","fare":"6.1","fareHoliday":"11.9"},{"id":"10","name":"太古職員宿舍","lat":"22.25191800","long":"113.98488700","street":"嶼南道","fare":"6.1","fareHoliday":"11.9"},{"id":"11","name":"貝澳油站","lat":"22.24731100","long":"113.98098500","street":"嶼南道","fare":"4.6","fareHoliday":"6.8"},{"id":"12","name":"老圍村","lat":"22.24425200","long":"113.97923600","street":"嶼南道","fare":"4.6","fareHoliday":"6.8"},{"id":"13","name":"新圍村","lat":"22.24347600","long":"113.97817800","street":"嶼南道","fare":"4.6","fareHoliday":"6.8"},{"id":"14","name":"羅屋村","lat":"22.24319200","long":"113.97488500","street":"嶼南道","fare":"4.6","fareHoliday":"6.8"},{"id":"15","name":"牛坳園","lat":"22.24304100","long":"113.97254500","street":"嶼南道","fare":"4.6","fareHoliday":"6.8"},{"id":"16","name":"散石灣中蘆","lat":"22.24124400","long":"113.96910500","street":"嶼南道","fare":"4.6","fareHoliday":"6.8"},{"id":"17","name":"散石灣村","lat":"22.23892800","long":"113.96677200","street":"嶼南道","fare":"4.6","fareHoliday":"6.8"},{"id":"18","name":"女青年會梁紹榮度假村","lat":"22.23748400","long":"113.96400100","street":"嶼南道","fare":"4.6","fareHoliday":"6.8"},{"id":"83","name":"散石灣迴旋處","lat":"22.23654400","long":"113.96255000","street":"嶼南道","fare":"4.6","fareHoliday":"6.8"},{"id":"19","name":"長沙上村","lat":"22.23523800","long":"113.96173900","street":"嶼南道","fare":"2.6","fareHoliday":"5.1"},{"id":"20","name":"長沙警署","lat":"22.23377200","long":"113.96021100","street":"嶼南道","fare":"2.6","fareHoliday":"5.1"},{"id":"21","name":"長沙下村","lat":"22.23478700","long":"113.95723200","street":"嶼南道","fare":"2.6","fareHoliday":"5.1"},{"id":"22","name":"長沙消防局","lat":"22.23663200","long":"113.95434900","street":"嶼南道","fare":"2.6","fareHoliday":"5.1"},{"id":"23","name":"麗濱別墅","lat":"22.23621700","long":"113.95191600","street":"嶼南道","fare":"2.6","fareHoliday":"5.1"},{"id":"24","name":"蝶崗","lat":"22.23454000","long":"113.94884100","street":"嶼南道","fare":"2.6","fareHoliday":"5.1"},{"id":"25","name":"長沙大橋","lat":"22.23338900","long":"113.94697700","street":"嶼南道","fare":"2.6","fareHoliday":"5.1"},{"id":"26","name":"上長沙海灘","lat":"22.23087700","long":"113.94152500","street":"嶼南道","fare":"2.6","fareHoliday":"5.1"},{"id":"27","name":"塘福海灘","lat":"22.22850900","long":"113.93533900","street":"嶼南道","fare":"2.6","fareHoliday":"5.1"},{"id":"28","name":"塘福村","lat":"22.22756500","long":"113.93270600","street":"嶼南道","fare":"2.6","fareHoliday":"5.1"},{"id":"32","name":"塘福懲教所","lat":"22.22876400","long":"113.92608400","street":"嶼南道","fare":"2.6","fareHoliday":"5.1"},{"id":"30","name":"麻埔坪村","lat":"22.22992600","long":"113.92805000","street":"麻埔坪道","fare":"2.6","fareHoliday":"5.1"},{"id":"31","name":"麻埔坪道口","lat":"22.22601800","long":"113.92949500","street":"嶼南道","fare":"2.6","fareHoliday":"5.1"},{"id":"178","name":"南大嶼山海底電纜站","lat":"22.22527200","long":"113.92866100","street":"嶼南道","fare":"2.6","fareHoliday":"5.1"},{"id":"33","name":"上橫壟","lat":"22.22334800","long":"113.92062400","street":"嶼南道","fare":"2.6","fareHoliday":"5.1"},{"id":"34","name":"下橫壟","lat":"22.22230500","long":"113.91974100","street":"嶼南道","fare":"2.6","fareHoliday":"5.1"},{"id":"240","name":"水口村(東)","lat":"22.22184100","long":"113.91576300","street":"嶼南道","fare":"0.0","fareHoliday":"0.0"}],"routeId":"12","description":"正常班次"},{"company":"nlb","route":"4","routeType":null,"dir":null,"orig":"塘福","dest":"梅窩碼頭","stopList":[{"id":"181","name":"塘福","lat":"22.22761600","long":"113.93228900","street":"塘福","fare":"6.1","fareHoliday":"11.9"},{"id":"246","name":"塘福海灘","lat":"22.22894100","long":"113.93594400","street":"嶼南道","fare":"6.1","fareHoliday":"11.9"},{"id":"247","name":"上長沙海灘","lat":"22.23132900","long":"113.94176600","street":"嶼南道","fare":"6.1","fareHoliday":"11.9"},{"id":"248","name":"長沙大橋","lat":"22.23397900","long":"113.94736600","street":"嶼南道","fare":"6.1","fareHoliday":"11.9"},{"id":"249","name":"蝶崗","lat":"22.23506200","long":"113.94929800","street":"嶼南道","fare":"4.6","fareHoliday":"6.8"},{"id":"250","name":"麗濱別墅","lat":"22.23647200","long":"113.95142400","street":"嶼南道","fare":"4.6","fareHoliday":"6.8"},{"id":"251","name":"長沙消防局","lat":"22.23680300","long":"113.95543400","street":"嶼南道","fare":"4.6","fareHoliday":"6.8"},{"id":"252","name":"長沙下村","lat":"22.23496500","long":"113.95717000","street":"嶼南道","fare":"4.6","fareHoliday":"6.8"},{"id":"253","name":"長沙警署","lat":"22.23396400","long":"113.96017400","street":"嶼南道","fare":"4.6","fareHoliday":"6.8"},{"id":"254","name":"長沙上村","lat":"22.23533000","long":"113.96154700","street":"嶼南道","fare":"4.6","fareHoliday":"6.8"},{"id":"255","name":"散石灣迴旋處","lat":"22.23672700","long":"113.96242400","street":"嶼南道","fare":"4.6","fareHoliday":"6.8"},{"id":"256","name":"女青年會梁紹榮度假村","lat":"22.23776800","long":"113.96397300","street":"嶼南道","fare":"4.6","fareHoliday":"6.8"},{"id":"257","name":"散石灣村","lat":"22.23902400","long":"113.96652600","street":"嶼南道","fare":"4.6","fareHoliday":"6.8"},{"id":"258","name":"散石灣中蘆","lat":"22.24125500","long":"113.96866600","street":"嶼南道","fare":"4.6","fareHoliday":"6.8"},{"id":"259","name":"羅屋村","lat":"22.24337500","long":"113.97483200","street":"嶼南道","fare":"3.4","fareHoliday":"5.5"},{"id":"260","name":"新圍村","lat":"22.24347600","long":"113.97732200","street":"嶼南道","fare":"3.4","fareHoliday":"5.5"},{"id":"261","name":"老圍村","lat":"22.24444000","long":"113.97900000","street":"嶼南道","fare":"3.4","fareHoliday":"5.5"},{"id":"262","name":"貝澳油站","lat":"22.24750100","long":"113.98077000","street":"嶼南道","fare":"3.4","fareHoliday":"5.5"},{"id":"263","name":"太古職員宿舍","lat":"22.25212000","long":"113.98474500","street":"嶼南道","fare":"3.4","fareHoliday":"5.5"},{"id":"264","name":"南山營地","lat":"22.25606700","long":"113.98747000","street":"嶼南道","fare":"3.4","fareHoliday":"5.5"},{"id":"265","name":"南山三屋村","lat":"22.25732700","long":"113.98990100","street":"嶼南道","fare":"3.4","fareHoliday":"5.5"},{"id":"56","name":"禮智園墳場","lat":"22.25932700","long":"113.99399300","street":"嶼南道","fare":"3.4","fareHoliday":"5.5"},{"id":"266","name":"荔枝園","lat":"22.26066700","long":"113.99626800","street":"嶼南道","fare":"3.4","fareHoliday":"5.5"},{"id":"57","name":"梅窩警署","lat":"22.26409300","long":"113.99890600","street":"嶼南道","fare":"3.4","fareHoliday":"5.5"},{"id":"2","name":"梅窩熟食市場","lat":"22.26614300","long":"114.00004900","street":"銀礦灣道","fare":"3.4","fareHoliday":"5.5"},{"id":"3","name":"銀灣邨","lat":"22.26540600","long":"113.99707400","street":"銀礦灣道","fare":"3.4","fareHoliday":"5.5"},{"id":"4","name":"梅窩街市","lat":"22.26675900","long":"113.99699900","street":"銀石街","fare":"3.4","fareHoliday":"5.5"},{"id":"5","name":"銀景中心","lat":"22.26553700","long":"113.99696500","street":"銀礦灣道","fare":"3.4","fareHoliday":"5.5"},{"id":"305","name":"梅窩碼頭","lat":"22.26466400","long":"114.00155400","street":"梅窩碼頭","fare":"0.0","fareHoliday":"0.0"}],"routeId":"10","description":"正常班次"},{"company":"nlb","route":"4","routeType":null,"dir":null,"orig":"塘福 (水口開)","dest":"梅窩碼頭","stopList":[{"id":"240","name":"水口村(東)","lat":"22.22184100","long":"113.91576300","street":"嶼南道","fare":"6.1","fareHoliday":"11.9"},{"id":"241","name":"下橫壟","lat":"22.22205000","long":"113.91923400","street":"嶼南道","fare":"6.1","fareHoliday":"11.9"},{"id":"242","name":"上橫壟","lat":"22.22435800","long":"113.92107700","street":"嶼南道","fare":"6.1","fareHoliday":"11.9"},{"id":"243","name":"南大嶼山海底電纜站","lat":"22.22588300","long":"113.92718000","street":"嶼南道","fare":"6.1","fareHoliday":"11.9"},{"id":"244","name":"麻埔坪道口","lat":"22.22658300","long":"113.93007700","street":"嶼南道","fare":"6.1","fareHoliday":"11.9"},{"id":"245","name":"塘福村","lat":"22.22776300","long":"113.93239700","street":"嶼南道","fare":"6.1","fareHoliday":"11.9"},{"id":"246","name":"塘福海灘","lat":"22.22894100","long":"113.93594400","street":"嶼南道","fare":"6.1","fareHoliday":"11.9"},{"id":"247","name":"上長沙海灘","lat":"22.23132900","long":"113.94176600","street":"嶼南道","fare":"6.1","fareHoliday":"11.9"},{"id":"248","name":"長沙大橋","lat":"22.23397900","long":"113.94736600","street":"嶼南道","fare":"6.1","fareHoliday":"11.9"},{"id":"249","name":"蝶崗","lat":"22.23506200","long":"113.94929800","street":"嶼南道","fare":"4.6","fareHoliday":"6.8"},{"id":"250","name":"麗濱別墅","lat":"22.23647200","long":"113.95142400","street":"嶼南道","fare":"4.6","fareHoliday":"6.8"},{"id":"251","name":"長沙消防局","lat":"22.23680300","long":"113.95543400","street":"嶼南道","fare":"4.6","fareHoliday":"6.8"},{"id":"252","name":"長沙下村","lat":"22.23496500","long":"113.95717000","street":"嶼南道","fare":"4.6","fareHoliday":"6.8"},{"id":"253","name":"長沙警署","lat":"22.23396400","long":"113.96017400","street":"嶼南道","fare":"4.6","fareHoliday":"6.8"},{"id":"254","name":"長沙上村","lat":"22.23533000","long":"113.96154700","street":"嶼南道","fare":"4.6","fareHoliday":"6.8"},{"id":"255","name":"散石灣迴旋處","lat":"22.23672700","long":"113.96242400","street":"嶼南道","fare":"4.6","fareHoliday":"6.8"},{"id":"256","name":"女青年會梁紹榮度假村","lat":"22.23776800","long":"113.96397300","street":"嶼南道","fare":"4.6","fareHoliday":"6.8"},{"id":"257","name":"散石灣村","lat":"22.23902400","long":"113.96652600","street":"嶼南道","fare":"4.6","fareHoliday":"6.8"},{"id":"258","name":"散石灣中蘆","lat":"22.24125500","long":"113.96866600","street":"嶼南道","fare":"4.6","fareHoliday":"6.8"},{"id":"259","name":"羅屋村","lat":"22.24337500","long":"113.97483200","street":"嶼南道","fare":"3.4","fareHoliday":"5.5"},{"id":"260","name":"新圍村","lat":"22.24347600","long":"113.97732200","street":"嶼南道","fare":"3.4","fareHoliday":"5.5"},{"id":"261","name":"老圍村","lat":"22.24444000","long":"113.97900000","street":"嶼南道","fare":"3.4","fareHoliday":"5.5"},{"id":"262","name":"貝澳油站","lat":"22.24750100","long":"113.98077000","street":"嶼南道","fare":"3.4","fareHoliday":"5.5"},{"id":"263","name":"太古職員宿舍","lat":"22.25212000","long":"113.98474500","street":"嶼南道","fare":"3.4","fareHoliday":"5.5"},{"id":"264","name":"南山營地","lat":"22.25606700","long":"113.98747000","street":"嶼南道","fare":"3.4","fareHoliday":"5.5"},{"id":"265","name":"南山三屋村","lat":"22.25732700","long":"113.98990100","street":"嶼南道","fare":"3.4","fareHoliday":"5.5"},{"id":"56","name":"禮智園墳場","lat":"22.25932700","long":"113.99399300","street":"嶼南道","fare":"3.4","fareHoliday":"5.5"},{"id":"266","name":"荔枝園","lat":"22.26066700","long":"113.99626800","street":"嶼南道","fare":"3.4","fareHoliday":"5.5"},{"id":"57","name":"梅窩警署","lat":"22.26409300","long":"113.99890600","street":"嶼南道","fare":"3.4","fareHoliday":"5.5"},{"id":"305","name":"梅窩碼頭","lat":"22.26466400","long":"114.00155400","street":"梅窩碼頭","fare":"0.0","fareHoliday":"0.0"}],"routeId":"11","description":"正常班次"},{"company":"nlb","route":"4","routeType":null,"dir":null,"orig":"梅窩碼頭","dest":"塘福","stopList":[{"id":"1","name":"梅窩碼頭","lat":"22.26466400","long":"114.00155400","street":"梅窩碼頭","fare":"6.1","fareHoliday":"11.9"},{"id":"6","name":"銀鑛灣濾水廠","lat":"22.26296600","long":"113.99782600","street":"嶼南道","fare":"6.1","fareHoliday":"11.9"},{"id":"7","name":"荔枝園","lat":"22.26075800","long":"113.99647700","street":"嶼南道","fare":"6.1","fareHoliday":"11.9"},{"id":"8","name":"南山三屋村","lat":"22.25707200","long":"113.99010800","street":"嶼南道","fare":"6.1","fareHoliday":"11.9"},{"id":"9","name":"南山營地","lat":"22.25545100","long":"113.98681100","street":"嶼南道","fare":"6.1","fareHoliday":"11.9"},{"id":"10","name":"太古職員宿舍","lat":"22.25191800","long":"113.98488700","street":"嶼南道","fare":"6.1","fareHoliday":"11.9"},{"id":"11","name":"貝澳油站","lat":"22.24731100","long":"113.98098500","street":"嶼南道","fare":"4.6","fareHoliday":"6.8"},{"id":"12","name":"老圍村","lat":"22.24425200","long":"113.97923600","street":"嶼南道","fare":"4.6","fareHoliday":"6.8"},{"id":"13","name":"新圍村","lat":"22.24347600","long":"113.97817800","street":"嶼南道","fare":"4.6","fareHoliday":"6.8"},{"id":"14","name":"羅屋村","lat":"22.24319200","long":"113.97488500","street":"嶼南道","fare":"4.6","fareHoliday":"6.8"},{"id":"15","name":"牛坳園","lat":"22.24304100","long":"113.97254500","street":"嶼南道","fare":"4.6","fareHoliday":"6.8"},{"id":"16","name":"散石灣中蘆","lat":"22.24124400","long":"113.96910500","street":"嶼南道","fare":"4.6","fareHoliday":"6.8"},{"id":"17","name":"散石灣村","lat":"22.23892800","long":"113.96677200","street":"嶼南道","fare":"4.6","fareHoliday":"6.8"},{"id":"18","name":"女青年會梁紹榮度假村","lat":"22.23748400","long":"113.96400100","street":"嶼南道","fare":"4.6","fareHoliday":"6.8"},{"id":"83","name":"散石灣迴旋處","lat":"22.23654400","long":"113.96255000","street":"嶼南道","fare":"4.6","fareHoliday":"6.8"},{"id":"19","name":"長沙上村","lat":"22.23523800","long":"113.96173900","street":"嶼南道","fare":"2.6","fareHoliday":"5.1"},{"id":"20","name":"長沙警署","lat":"22.23377200","long":"113.96021100","street":"嶼南道","fare":"2.6","fareHoliday":"5.1"},{"id":"21","name":"長沙下村","lat":"22.23478700","long":"113.95723200","street":"嶼南道","fare":"2.6","fareHoliday":"5.1"},{"id":"22","name":"長沙消防局","lat":"22.23663200","long":"113.95434900","street":"嶼南道","fare":"2.6","fareHoliday":"5.1"},{"id":"23","name":"麗濱別墅","lat":"22.23621700","long":"113.95191600","street":"嶼南道","fare":"2.6","fareHoliday":"5.1"},{"id":"24","name":"蝶崗","lat":"22.23454000","long":"113.94884100","street":"嶼南道","fare":"2.6","fareHoliday":"5.1"},{"id":"25","name":"長沙大橋","lat":"22.23338900","long":"113.94697700","street":"嶼南道","fare":"2.6","fareHoliday":"5.1"},{"id":"26","name":"上長沙海灘","lat":"22.23087700","long":"113.94152500","street":"嶼南道","fare":"2.6","fareHoliday":"5.1"},{"id":"27","name":"塘福海灘","lat":"22.22850900","long":"113.93533900","street":"嶼南道","fare":"2.6","fareHoliday":"5.1"},{"id":"181","name":"塘福","lat":"22.22761600","long":"113.93228900","street":"塘福","fare":"0.0","fareHoliday":"0.0"}],"routeId":"9","description":"正常班次"}]