[{"company":"kmb","route":"40S","routeType":"1","dir":"O","orig":"泥涌","dest":"葵涌(葵芳邨)","stopList":[{"id":"B493CF03406C0B5E","name":"泥涌","lat":"22.431682","long":"114.255293"},{"id":"F63D25B428F1C1D9","name":"樟木頭帝琴灣","lat":"22.430095","long":"114.251168"},{"id":"9AD30F8EDBC3F139","name":"烏溪沙站","lat":"22.428394","long":"114.243732"},{"id":"8337F935242C5CC3","name":"利安邨","lat":"22.427459","long":"114.240591"},{"id":"0D4E07F475845DB3","name":"錦龍苑","lat":"22.425786","long":"114.239845"},{"id":"B071B60F5566934B","name":"錦英苑","lat":"22.423882","long":"114.238591"},{"id":"8507CD56EB29D1CF","name":"新港城","lat":"22.422831","long":"114.233013"},{"id":"2ADCFCFCCDDF2C9B","name":"馬鞍山市中心","lat":"22.424577","long":"114.231660"},{"id":"2F163186FB995E0B","name":"福安花園","lat":"22.423113","long":"114.228334"},{"id":"1F1A440137854ABF","name":"耀安邨耀謙樓","lat":"22.418190","long":"114.230528"},{"id":"763D73BAB7E2A1AE","name":"富安花園","lat":"22.407042","long":"114.222731"},{"id":"34740DD5ABC36F12","name":"亞公角","lat":"22.402205","long":"114.216004"},{"id":"25E1BAE2C272ED4C","name":"沙田醫院","lat":"22.398915","long":"114.212447"},{"id":"823E3EE2413E40E2","name":"新界鄉議局大樓","lat":"22.391352","long":"114.206356"},{"id":"45AB0EC4F195CA7A","name":"沙田第一城","lat":"22.388409","long":"114.201794"},{"id":"9D3BCB233237C32C","name":"禾輋邨","lat":"22.387544","long":"114.196445"},{"id":"4E56DD827C1F571A","name":"瀝源邨","lat":"22.384248","long":"114.193347"},{"id":"620E14F31DA31490","name":"城門隧道轉車站 (B6)","lat":"22.381181","long":"114.138129"},{"id":"32F5F33FA68B77D6","name":"城門隧道轉車站 (B1)","lat":"22.381495","long":"114.137657"},{"id":"0A1DAEAFFDFF0B66","name":"可風中學","lat":"22.380443","long":"114.135135"},{"id":"3A2924B2461D053B","name":"梨木樹邨","lat":"22.377275","long":"114.136891"},{"id":"066AA1A504714A20","name":"和宜合道運動場","lat":"22.374018","long":"114.136465"},{"id":"1423FCFF61709EAC","name":"昌榮路","lat":"22.370511","long":"114.134739"},{"id":"0E65D3EC41A1D34B","name":"葵俊苑","lat":"22.364682","long":"114.132892"},{"id":"9217F5E1950F12BF","name":"新葵興花園","lat":"22.362571","long":"114.132174"},{"id":"DA17B01A4A61A358","name":"葵芳邨","lat":"22.359821","long":"114.131178"}],"routeId":"40S","description":"正常班次"}]