[{"company":"KMB","route":"43B","routeType":"1","dir":"O","orig":"青衣(長青邨)","dest":"荃灣西站","stopList":[{"id":"E4B8EC0E7170AF9B","name":"長青巴士總站","lat":"22.348323","long":"114.107079"},{"id":"13458794A52910B0","name":"青盛苑","lat":"22.348861","long":"114.103381"},{"id":"67DFAB691BECE339","name":"長康邨康順樓","lat":"22.349838","long":"114.100522"},{"id":"6D016EBFA090D535","name":"職安健學院","lat":"22.351037","long":"114.102936"},{"id":"04D3244DD2B38746","name":"長康邨康富樓","lat":"22.350587","long":"114.105885"},{"id":"59B81980AC8F7878","name":"青衣警署","lat":"22.351792","long":"114.107458"},{"id":"1FEDF7B1A82A432A","name":"青衣碼頭總站","lat":"22.353777","long":"114.108913"},{"id":"3D1F700E1D244C5A","name":"綠悠雅苑","lat":"22.352449","long":"114.105116"},{"id":"C78F66DF6FA871B6","name":"青衣邨宜業樓","lat":"22.353967","long":"114.102140"},{"id":"8D7CB6C3D48258D6","name":"楓樹窩體育館","lat":"22.355589","long":"114.102107"},{"id":"36858102881A0839","name":"長安巴士總站","lat":"22.361455","long":"114.102925"},{"id":"3A99869DB9D31D45","name":"尚翠苑","lat":"22.367524","long":"114.120504"},{"id":"1C179AC6FE83C808","name":"寶石大廈","lat":"22.368857","long":"114.118050"},{"id":"E8B842CC3AB62056","name":"戴麟趾夫人診所","lat":"22.369949","long":"114.116026"},{"id":"56982DE125174FCD","name":"荃灣西站巴士總站","lat":"22.367869","long":"114.110781"}],"routeId":"43B"},{"company":"KMB","route":"43B","routeType":"1","dir":"I","orig":"荃灣西站","dest":"青衣(長青邨)","stopList":[{"id":"56982DE125174FCD","name":"荃灣西站巴士總站","lat":"22.367869","long":"114.110781"},{"id":"73E530058FD534D3","name":"荃灣鹹田街","lat":"22.369482","long":"114.117352"},{"id":"3357B55DE2539CA3","name":"荃灣聯仁街","lat":"22.367588","long":"114.117633"},{"id":"7F8529494720703C","name":"荃灣橫窩仔街","lat":"22.366539","long":"114.118734"},{"id":"F9F4E00007242BED","name":"長安巴士總站","lat":"22.361381","long":"114.103025"},{"id":"4E870B220826BEE0","name":"楓樹窩體育館","lat":"22.355604","long":"114.102353"},{"id":"5AD2A4D21C226335","name":"青衣邨宜業樓","lat":"22.354345","long":"114.102443"},{"id":"A454170B2B59B587","name":"綠悠雅苑","lat":"22.352641","long":"114.105149"},{"id":"6129FAE857E1D5F0","name":"青衣碼頭","lat":"22.353312","long":"114.108981"},{"id":"D6E7412666B1175B","name":"翠怡花園","lat":"22.351712","long":"114.107879"},{"id":"AB87BD2749FFEACA","name":"長青邨青梅樓","lat":"22.350044","long":"114.106997"},{"id":"43398296F1D1BD48","name":"長康邨康富樓","lat":"22.350407","long":"114.105638"},{"id":"65D1B50CC2E45985","name":"長康邨康盛樓","lat":"22.350723","long":"114.103816"},{"id":"67F3E54FF145BA65","name":"長康邨康豐樓","lat":"22.350826","long":"114.101846"},{"id":"F93448A5F1168FB1","name":"長康邨康祥樓","lat":"22.349570","long":"114.101158"},{"id":"DFB7FD5832A4BA4E","name":"青盛苑","lat":"22.348985","long":"114.103555"},{"id":"E4B8EC0E7170AF9B","name":"長青巴士總站","lat":"22.348323","long":"114.107079"}],"routeId":"43B"}]