[{"company":"kmb","route":"43D","routeType":"1","dir":"O","orig":"青衣(長宏邨)","dest":"葵盛","stopList":[{"id":"26AC2D471648CA0C","name":"長宏巴士總站","lat":"22.357309","long":"114.096206"},{"id":"2E734BC49E03D3D7","name":"長亨邨商場","lat":"22.354472","long":"114.097539"},{"id":"88E5894981B2D9D8","name":"長康邨康順樓","lat":"22.349619","long":"114.100004"},{"id":"3A9EE9221AB3E27C","name":"青盛苑","lat":"22.348985","long":"114.103555"},{"id":"42827007F74D36EA","name":"長青巴士總站","lat":"22.348426","long":"114.107168"},{"id":"1A37A52F97A04C81","name":"長青邨青槐樓","lat":"22.345714","long":"114.107914"},{"id":"B085DDE8E381E370","name":"長青邨青桃樓","lat":"22.344906","long":"114.109575"},{"id":"DE99B27530D1A3C4","name":"葵涌葵泰路","lat":"22.350766","long":"114.118611"},{"id":"A25160BA84EE09F7","name":"葵青交滙處","lat":"22.354847","long":"114.122178"},{"id":"DC28E30AF099D339","name":"葵涌運動場","lat":"22.357822","long":"114.125780"},{"id":"9985A4A51DFA3079","name":"葵芳智芳街","lat":"22.359261","long":"114.127747"},{"id":"45A499CD3132E90A","name":"林士德體育館","lat":"22.361069","long":"114.129536"},{"id":"434BB67EF7BCA912","name":"葵康苑","lat":"22.363164","long":"114.130480"},{"id":"B596DF51C1BDDB19","name":"林護紀念中學","lat":"22.365139","long":"114.130103"},{"id":"7FE0FCDBF45276EF","name":"葵盛邨盛豐樓","lat":"22.363759","long":"114.129266"},{"id":"7D41FC4EE12CB8FD","name":"葵盛東巴士總站","lat":"22.363364","long":"114.127104"},{"id":"9CF00A30796B6B2B","name":"葵聯邨","lat":"22.361595","long":"114.124451"},{"id":"3350CE851FCC56A3","name":"葵盛西邨","lat":"22.361200","long":"114.122477"},{"id":"C9B1C3B9D0BA0D14","name":"葵盛游泳池","lat":"22.359713","long":"114.122265"},{"id":"9F13E4D02222A819","name":"南葵涌分科診所","lat":"22.360978","long":"114.124826"}],"routeId":"43D"}]