[{"company":"kmb","route":"44","routeType":"1","dir":"O","orig":"青衣邨","dest":"旺角東站","stopList":[{"id":"78DC181D85FB2B3A","name":"青衣邨巴士總站","lat":"22.354120","long":"114.103646"},{"id":"5736A90A7D7E8F66","name":"青衣街市","lat":"22.354494","long":"114.106015"},{"id":"61D7306AC40C4FB8","name":"青衣碼頭總站","lat":"22.353834","long":"114.108896"},{"id":"3D1F700E1D244C5A","name":"綠悠雅苑","lat":"22.352449","long":"114.105116"},{"id":"42AC6356E7A6D159","name":"青衣邨宜業樓","lat":"22.354091","long":"114.102243"},{"id":"8D7CB6C3D48258D6","name":"楓樹窩體育館","lat":"22.355589","long":"114.102107"},{"id":"CC13DC33AE269FB1","name":"長安巴士總站","lat":"22.361714","long":"114.102891"},{"id":"854BC3A8D4DE6AA9","name":"美孚站","lat":"22.337256","long":"114.141259"},{"id":"8BCB786E1F1A2457","name":"荔枝角站","lat":"22.337301","long":"114.147868"},{"id":"5CF51F3B971D4D56","name":"昌華街","lat":"22.338556","long":"114.152201"},{"id":"AAB25066B96C6588","name":"元州邨","lat":"22.335706","long":"114.156039"},{"id":"8CE4B83B45F22F1F","name":"九龍工業學校","lat":"22.333804","long":"114.158553"},{"id":"89F6B64B28A21D34","name":"深水埗基隆街","lat":"22.330174","long":"114.159747"},{"id":"2CAFD3D60CAA7F5B","name":"深水埗北河街","lat":"22.328783","long":"114.160429"},{"id":"B577AC1835FA7995","name":"石硤尾街","lat":"22.327234","long":"114.162427"},{"id":"2F4939964761E1FF","name":"深水埗白楊街","lat":"22.324793","long":"114.165560"},{"id":"1030A4E612B75901","name":"旺角鴉蘭街","lat":"22.323315","long":"114.167469"},{"id":"4459E386C8525C34","name":"旺角道","lat":"22.321187","long":"114.170468"},{"id":"EF2086016C214797","name":"旺角東站巴士總站","lat":"22.322500","long":"114.172220"}],"routeId":"44"},{"company":"kmb","route":"44","routeType":"2","dir":"O","orig":"青衣(長安邨)","dest":"旺角東站","stopList":[{"id":"CC13DC33AE269FB1","name":"長安巴士總站","lat":"22.361714","long":"114.102891"},{"id":"854BC3A8D4DE6AA9","name":"美孚站","lat":"22.337256","long":"114.141259"},{"id":"8BCB786E1F1A2457","name":"荔枝角站","lat":"22.337301","long":"114.147868"},{"id":"5CF51F3B971D4D56","name":"昌華街","lat":"22.338556","long":"114.152201"},{"id":"AAB25066B96C6588","name":"元州邨","lat":"22.335706","long":"114.156039"},{"id":"8CE4B83B45F22F1F","name":"九龍工業學校","lat":"22.333804","long":"114.158553"},{"id":"89F6B64B28A21D34","name":"深水埗基隆街","lat":"22.330174","long":"114.159747"},{"id":"2CAFD3D60CAA7F5B","name":"深水埗北河街","lat":"22.328783","long":"114.160429"},{"id":"B577AC1835FA7995","name":"石硤尾街","lat":"22.327234","long":"114.162427"},{"id":"2F4939964761E1FF","name":"深水埗白楊街","lat":"22.324793","long":"114.165560"},{"id":"1030A4E612B75901","name":"旺角鴉蘭街","lat":"22.323315","long":"114.167469"},{"id":"4459E386C8525C34","name":"旺角道","lat":"22.321187","long":"114.170468"},{"id":"EF2086016C214797","name":"旺角東站巴士總站","lat":"22.322500","long":"114.172220"}],"routeId":"44"},{"company":"kmb","route":"44","routeType":"1","dir":"I","orig":"旺角東站","dest":"青衣邨","stopList":[{"id":"EF2086016C214797","name":"旺角東站巴士總站","lat":"22.322500","long":"114.172220"},{"id":"EF103F0ED7C9BE45","name":"聯運街","lat":"22.321386","long":"114.172178"},{"id":"1EC9ED318297A470","name":"旺角站","lat":"22.319459","long":"114.170867"},{"id":"610F9B32EEAE091D","name":"旺角快富街 (N68)","lat":"22.320000","long":"114.169071"},{"id":"E20D7A733ECDFA05","name":"基榮小學","lat":"22.322500","long":"114.168150"},{"id":"69C45315DFA906FC","name":"旺角塘尾道","lat":"22.324417","long":"114.165700"},{"id":"BE510511B0A7344E","name":"大南街","lat":"22.326990","long":"114.163828"},{"id":"D3C41BB36EC805E0","name":"石硤尾街休憩花園","lat":"22.327994","long":"114.163798"},{"id":"A8C595F1E33B5DEF","name":"北河街","lat":"22.329064","long":"114.162397"},{"id":"BA2F4E8CB1D43CD8","name":"怡靖苑","lat":"22.332397","long":"114.159929"},{"id":"55973ABF49182097","name":"長沙灣東京街","lat":"22.334934","long":"114.156659"},{"id":"0E718C4DB85C8005","name":"長沙灣徑","lat":"22.337827","long":"114.150084"},{"id":"0CC9C5E5DBB3FF89","name":"美孚站","lat":"22.336630","long":"114.140316"},{"id":"F39F638D34947E40","name":"葵涌交滙處","lat":"22.340537","long":"114.131551"},{"id":"5D919BA157405E33","name":"長安巴士總站","lat":"22.361663","long":"114.102892"},{"id":"4E870B220826BEE0","name":"楓樹窩體育館","lat":"22.355604","long":"114.102353"},{"id":"5AD2A4D21C226335","name":"青衣邨宜業樓","lat":"22.354345","long":"114.102443"},{"id":"A454170B2B59B587","name":"綠悠雅苑","lat":"22.352641","long":"114.105149"},{"id":"6129FAE857E1D5F0","name":"青衣碼頭","lat":"22.353312","long":"114.108981"},{"id":"143D7489C808BD46","name":"青衣街市","lat":"22.354203","long":"114.106836"},{"id":"78DC181D85FB2B3A","name":"青衣邨巴士總站","lat":"22.354120","long":"114.103646"}],"routeId":"44"}]