[{"company":"kmb","route":"47A","routeType":"1","dir":"O","orig":"水泉澳","dest":"葵芳(南)","stopList":[{"id":"075A5F14CD9020D7","name":"水泉澳總站","lat":"22.374702","long":"114.197874"},{"id":"808CA5FECCC6646D","name":"多石街","lat":"22.377451","long":"114.201727"},{"id":"20B9196322225611","name":"多石","lat":"22.378241","long":"114.203787"},{"id":"2E6DB54618C13048","name":"沙田圍新村","lat":"22.378583","long":"114.197527"},{"id":"6953AEF8B3921959","name":"田園閣","lat":"22.380055","long":"114.195008"},{"id":"CF2FE4F019F51438","name":"沙田市中心總站","lat":"22.382251","long":"114.188546"},{"id":"620E14F31DA31490","name":"城門隧道轉車站 (B6)","lat":"22.381181","long":"114.138129"},{"id":"32F5F33FA68B77D6","name":"城門隧道轉車站 (B1)","lat":"22.381495","long":"114.137657"},{"id":"0A1DAEAFFDFF0B66","name":"可風中學","lat":"22.380443","long":"114.135135"},{"id":"3A2924B2461D053B","name":"梨木樹邨","lat":"22.377275","long":"114.136891"},{"id":"066AA1A504714A20","name":"和宜合道運動場","lat":"22.374018","long":"114.136465"},{"id":"1423FCFF61709EAC","name":"昌榮路","lat":"22.370511","long":"114.134739"},{"id":"B09E06FF6EF5A8C4","name":"葵俊苑","lat":"22.364634","long":"114.132876"},{"id":"9217F5E1950F12BF","name":"新葵興花園","lat":"22.362571","long":"114.132174"},{"id":"DA17B01A4A61A358","name":"葵芳邨","lat":"22.359821","long":"114.131178"},{"id":"3E8426FA1832BA50","name":"葵涌廣場","lat":"22.358435","long":"114.127814"},{"id":"7420DF52F1B42C9F","name":"新都會廣場","lat":"22.357777","long":"114.126133"},{"id":"EA0A89C7D56C46DF","name":"葵芳(南)總站","lat":"22.354641","long":"114.126501"}],"routeId":"47A"},{"company":"kmb","route":"47A","routeType":"3","dir":"O","orig":"水泉澳","dest":"葵芳(南)","stopList":[{"id":"075A5F14CD9020D7","name":"水泉澳總站","lat":"22.374702","long":"114.197874"},{"id":"808CA5FECCC6646D","name":"多石街","lat":"22.377451","long":"114.201727"},{"id":"20B9196322225611","name":"多石","lat":"22.378241","long":"114.203787"},{"id":"2E6DB54618C13048","name":"沙田圍新村","lat":"22.378583","long":"114.197527"},{"id":"6953AEF8B3921959","name":"田園閣","lat":"22.380055","long":"114.195008"},{"id":"620E14F31DA31490","name":"城門隧道轉車站 (B6)","lat":"22.381181","long":"114.138129"},{"id":"32F5F33FA68B77D6","name":"城門隧道轉車站 (B1)","lat":"22.381495","long":"114.137657"},{"id":"0A1DAEAFFDFF0B66","name":"可風中學","lat":"22.380443","long":"114.135135"},{"id":"3A2924B2461D053B","name":"梨木樹邨","lat":"22.377275","long":"114.136891"},{"id":"066AA1A504714A20","name":"和宜合道運動場","lat":"22.374018","long":"114.136465"},{"id":"1423FCFF61709EAC","name":"昌榮路","lat":"22.370511","long":"114.134739"},{"id":"B09E06FF6EF5A8C4","name":"葵俊苑","lat":"22.364634","long":"114.132876"},{"id":"9217F5E1950F12BF","name":"新葵興花園","lat":"22.362571","long":"114.132174"},{"id":"DA17B01A4A61A358","name":"葵芳邨","lat":"22.359821","long":"114.131178"},{"id":"3E8426FA1832BA50","name":"葵涌廣場","lat":"22.358435","long":"114.127814"},{"id":"7420DF52F1B42C9F","name":"新都會廣場","lat":"22.357777","long":"114.126133"},{"id":"EA0A89C7D56C46DF","name":"葵芳(南)總站","lat":"22.354641","long":"114.126501"}],"routeId":"47A"},{"company":"kmb","route":"47A","routeType":"1","dir":"I","orig":"葵芳(南)","dest":"水泉澳","stopList":[{"id":"EA0A89C7D56C46DF","name":"葵芳(南)總站","lat":"22.354641","long":"114.126501"},{"id":"7EA4C557505395EF","name":"葵芳站巴士總站","lat":"22.357064","long":"114.128765"},{"id":"BA4CD6F5C93BB59E","name":"葵芳邨","lat":"22.360075","long":"114.130954"},{"id":"140E4137EAC319B5","name":"光輝圍","lat":"22.367927","long":"114.133665"},{"id":"8C6EF1266E4EE05B","name":"昌榮路","lat":"22.370532","long":"114.134301"},{"id":"257A6E19DD7F156C","name":"和宜合道運動場","lat":"22.373954","long":"114.136349"},{"id":"28A57C043C111604","name":"石圍角新村","lat":"22.375875","long":"114.136250"},{"id":"E00E92F19002ED3E","name":"梨木樹邨","lat":"22.378590","long":"114.137242"},{"id":"DEDD6247441C8C05","name":"可風中學","lat":"22.380167","long":"114.135129"},{"id":"81B719F7DC3F0FAD","name":"城門隧道轉車站 (A5)","lat":"22.381888","long":"114.137620"},{"id":"C27FCAD44F743B0B","name":"城門隧道轉車站 (A2)","lat":"22.381678","long":"114.138125"},{"id":"05EE261A65F9B7ED","name":"沙田市中心總站","lat":"22.382159","long":"114.188174"},{"id":"9179E2F718D0F436","name":"好運中心","lat":"22.382824","long":"114.190537"},{"id":"19521C0A1CA93C52","name":"田園閣","lat":"22.379777","long":"114.195822"},{"id":"72936E1AD7A19462","name":"崗背街休憩花園","lat":"22.378981","long":"114.197357"},{"id":"48AEC9FC61C77E03","name":"李嘉誠專科診所","lat":"22.378014","long":"114.200902"},{"id":"ECB8FB3328B3E1F5","name":"多石街","lat":"22.377441","long":"114.202092"},{"id":"075A5F14CD9020D7","name":"水泉澳總站","lat":"22.374702","long":"114.197874"}],"routeId":"47A"}]