[{"company":"KMB","route":"47X","routeType":"1","dir":"O","orig":"秦石","dest":"葵盛(東)","stopList":[{"id":"A371827CA951848F","name":"秦石巴士總站","lat":"22.373068","long":"114.187222"},{"id":"F139E189918C1F86","name":"秦石邨石瑩樓","lat":"22.372972","long":"114.185542"},{"id":"52B02EAC7AAB23C1","name":"秦石邨","lat":"22.374551","long":"114.186748"},{"id":"3F6F5DC1DDA5F68E","name":"乙明邨街","lat":"22.376150","long":"114.191508"},{"id":"242122B5F1B7E9C0","name":"沙角邨","lat":"22.377242","long":"114.194709"},{"id":"6953AEF8B3921959","name":"田園閣","lat":"22.380055","long":"114.195008"},{"id":"CF2FE4F019F51438","name":"沙田市中心總站","lat":"22.382251","long":"114.188546"},{"id":"620E14F31DA31490","name":"城門隧道轉車站 (B6)","lat":"22.381181","long":"114.138129"},{"id":"26D2833891C00F40","name":"城門隧道轉車站 (B2)","lat":"22.381478","long":"114.137785"},{"id":"0A1DAEAFFDFF0B66","name":"可風中學","lat":"22.380443","long":"114.135135"},{"id":"3A2924B2461D053B","name":"梨木樹邨","lat":"22.377275","long":"114.136891"},{"id":"066AA1A504714A20","name":"和宜合道運動場","lat":"22.374018","long":"114.136465"},{"id":"1423FCFF61709EAC","name":"昌榮路","lat":"22.370511","long":"114.134739"},{"id":"898337E6181E5E66","name":"葵俊苑","lat":"22.364874","long":"114.132965"},{"id":"9217F5E1950F12BF","name":"新葵興花園","lat":"22.362571","long":"114.132174"},{"id":"9985A4A51DFA3079","name":"葵芳智芳街","lat":"22.359261","long":"114.127747"},{"id":"45A499CD3132E90A","name":"林士德體育館","lat":"22.361069","long":"114.129536"},{"id":"434BB67EF7BCA912","name":"葵康苑","lat":"22.363164","long":"114.130480"},{"id":"B596DF51C1BDDB19","name":"林護紀念中學","lat":"22.365139","long":"114.130103"},{"id":"7FE0FCDBF45276EF","name":"葵盛邨盛豐樓","lat":"22.363759","long":"114.129266"},{"id":"7D41FC4EE12CB8FD","name":"葵盛東巴士總站","lat":"22.363364","long":"114.127104"},{"id":"9CF00A30796B6B2B","name":"葵聯邨","lat":"22.361595","long":"114.124451"},{"id":"FB948853081A003E","name":"葵盛西邨","lat":"22.361199","long":"114.122434"},{"id":"4C5AD92665CBCF5D","name":"盧光輝紀念學校","lat":"22.363288","long":"114.122631"},{"id":"29EC0D6F48E5BCDA","name":"高盛臺","lat":"22.365010","long":"114.123767"},{"id":"4242A06B3D8849D9","name":"葵盛邨盛安樓","lat":"22.365246","long":"114.125892"},{"id":"DB0C71DA23871216","name":"葵盛東巴士總站","lat":"22.363464","long":"114.127081"}],"routeId":"47X"},{"company":"KMB","route":"47X","routeType":"2","dir":"O","orig":"秦石","dest":"葵盛(東)","stopList":[{"id":"A371827CA951848F","name":"秦石巴士總站","lat":"22.373068","long":"114.187222"},{"id":"F139E189918C1F86","name":"秦石邨石瑩樓","lat":"22.372972","long":"114.185542"},{"id":"52B02EAC7AAB23C1","name":"秦石邨","lat":"22.374551","long":"114.186748"},{"id":"3F6F5DC1DDA5F68E","name":"乙明邨街","lat":"22.376150","long":"114.191508"},{"id":"242122B5F1B7E9C0","name":"沙角邨","lat":"22.377242","long":"114.194709"},{"id":"6953AEF8B3921959","name":"田園閣","lat":"22.380055","long":"114.195008"},{"id":"620E14F31DA31490","name":"城門隧道轉車站 (B6)","lat":"22.381181","long":"114.138129"},{"id":"26D2833891C00F40","name":"城門隧道轉車站 (B2)","lat":"22.381478","long":"114.137785"},{"id":"0A1DAEAFFDFF0B66","name":"可風中學","lat":"22.380443","long":"114.135135"},{"id":"3A2924B2461D053B","name":"梨木樹邨","lat":"22.377275","long":"114.136891"},{"id":"066AA1A504714A20","name":"和宜合道運動場","lat":"22.374018","long":"114.136465"},{"id":"1423FCFF61709EAC","name":"昌榮路","lat":"22.370511","long":"114.134739"},{"id":"898337E6181E5E66","name":"葵俊苑","lat":"22.364874","long":"114.132965"},{"id":"9217F5E1950F12BF","name":"新葵興花園","lat":"22.362571","long":"114.132174"},{"id":"9985A4A51DFA3079","name":"葵芳智芳街","lat":"22.359261","long":"114.127747"},{"id":"45A499CD3132E90A","name":"林士德體育館","lat":"22.361069","long":"114.129536"},{"id":"434BB67EF7BCA912","name":"葵康苑","lat":"22.363164","long":"114.130480"},{"id":"B596DF51C1BDDB19","name":"林護紀念中學","lat":"22.365139","long":"114.130103"},{"id":"7FE0FCDBF45276EF","name":"葵盛邨盛豐樓","lat":"22.363759","long":"114.129266"},{"id":"7D41FC4EE12CB8FD","name":"葵盛東巴士總站","lat":"22.363364","long":"114.127104"},{"id":"9CF00A30796B6B2B","name":"葵聯邨","lat":"22.361595","long":"114.124451"},{"id":"FB948853081A003E","name":"葵盛西邨","lat":"22.361199","long":"114.122434"},{"id":"4C5AD92665CBCF5D","name":"盧光輝紀念學校","lat":"22.363288","long":"114.122631"},{"id":"29EC0D6F48E5BCDA","name":"高盛臺","lat":"22.365010","long":"114.123767"},{"id":"4242A06B3D8849D9","name":"葵盛邨盛安樓","lat":"22.365246","long":"114.125892"},{"id":"DB0C71DA23871216","name":"葵盛東巴士總站","lat":"22.363464","long":"114.127081"}],"routeId":"47X"},{"company":"KMB","route":"47X","routeType":"4","dir":"O","orig":"新田圍","dest":"葵盛(東)","stopList":[{"id":"E43D7EE404F2F7AC","name":"新田圍巴士總站","lat":"22.370881","long":"114.186140"},{"id":"29A3E07CD93FD350","name":"富圍樓","lat":"22.369814","long":"114.187599"},{"id":"A371827CA951848F","name":"秦石巴士總站","lat":"22.373068","long":"114.187222"},{"id":"F139E189918C1F86","name":"秦石邨石瑩樓","lat":"22.372972","long":"114.185542"},{"id":"52B02EAC7AAB23C1","name":"秦石邨","lat":"22.374551","long":"114.186748"},{"id":"3F6F5DC1DDA5F68E","name":"乙明邨街","lat":"22.376150","long":"114.191508"},{"id":"242122B5F1B7E9C0","name":"沙角邨","lat":"22.377242","long":"114.194709"},{"id":"6953AEF8B3921959","name":"田園閣","lat":"22.380055","long":"114.195008"},{"id":"620E14F31DA31490","name":"城門隧道轉車站 (B6)","lat":"22.381181","long":"114.138129"},{"id":"26D2833891C00F40","name":"城門隧道轉車站 (B2)","lat":"22.381478","long":"114.137785"},{"id":"0A1DAEAFFDFF0B66","name":"可風中學","lat":"22.380443","long":"114.135135"},{"id":"3A2924B2461D053B","name":"梨木樹邨","lat":"22.377275","long":"114.136891"},{"id":"066AA1A504714A20","name":"和宜合道運動場","lat":"22.374018","long":"114.136465"},{"id":"1423FCFF61709EAC","name":"昌榮路","lat":"22.370511","long":"114.134739"},{"id":"898337E6181E5E66","name":"葵俊苑","lat":"22.364874","long":"114.132965"},{"id":"9217F5E1950F12BF","name":"新葵興花園","lat":"22.362571","long":"114.132174"},{"id":"9985A4A51DFA3079","name":"葵芳智芳街","lat":"22.359261","long":"114.127747"},{"id":"45A499CD3132E90A","name":"林士德體育館","lat":"22.361069","long":"114.129536"},{"id":"434BB67EF7BCA912","name":"葵康苑","lat":"22.363164","long":"114.130480"},{"id":"B596DF51C1BDDB19","name":"林護紀念中學","lat":"22.365139","long":"114.130103"},{"id":"7FE0FCDBF45276EF","name":"葵盛邨盛豐樓","lat":"22.363759","long":"114.129266"},{"id":"7D41FC4EE12CB8FD","name":"葵盛東巴士總站","lat":"22.363364","long":"114.127104"},{"id":"9CF00A30796B6B2B","name":"葵聯邨","lat":"22.361595","long":"114.124451"},{"id":"FB948853081A003E","name":"葵盛西邨","lat":"22.361199","long":"114.122434"},{"id":"4C5AD92665CBCF5D","name":"盧光輝紀念學校","lat":"22.363288","long":"114.122631"},{"id":"29EC0D6F48E5BCDA","name":"高盛臺","lat":"22.365010","long":"114.123767"},{"id":"4242A06B3D8849D9","name":"葵盛邨盛安樓","lat":"22.365246","long":"114.125892"},{"id":"DB0C71DA23871216","name":"葵盛東巴士總站","lat":"22.363464","long":"114.127081"}],"routeId":"47X"},{"company":"KMB","route":"47X","routeType":"1","dir":"I","orig":"葵盛(東)","dest":"秦石","stopList":[{"id":"DB0C71DA23871216","name":"葵盛東巴士總站","lat":"22.363464","long":"114.127081"},{"id":"B6D14224CAD90288","name":"葵聯邨","lat":"22.361737","long":"114.124474"},{"id":"6BB872F7294FEB23","name":"葵盛西邨","lat":"22.361200","long":"114.122477"},{"id":"2111E15DA3CEFEC4","name":"葵青劇院","lat":"22.356258","long":"114.125948"},{"id":"7EA4C557505395EF","name":"葵芳站巴士總站","lat":"22.357064","long":"114.128765"},{"id":"BA4CD6F5C93BB59E","name":"葵芳邨","lat":"22.360075","long":"114.130954"},{"id":"140E4137EAC319B5","name":"光輝圍","lat":"22.367927","long":"114.133665"},{"id":"8C6EF1266E4EE05B","name":"昌榮路","lat":"22.370532","long":"114.134301"},{"id":"257A6E19DD7F156C","name":"和宜合道運動場","lat":"22.373954","long":"114.136349"},{"id":"28A57C043C111604","name":"石圍角新村","lat":"22.375875","long":"114.136250"},{"id":"E00E92F19002ED3E","name":"梨木樹邨","lat":"22.378590","long":"114.137242"},{"id":"DEDD6247441C8C05","name":"可風中學","lat":"22.380167","long":"114.135129"},{"id":"81B719F7DC3F0FAD","name":"城門隧道轉車站 (A5)","lat":"22.381888","long":"114.137620"},{"id":"C27FCAD44F743B0B","name":"城門隧道轉車站 (A2)","lat":"22.381678","long":"114.138125"},{"id":"05EE261A65F9B7ED","name":"沙田市中心總站","lat":"22.382159","long":"114.188174"},{"id":"9179E2F718D0F436","name":"好運中心","lat":"22.382824","long":"114.190537"},{"id":"19521C0A1CA93C52","name":"田園閣","lat":"22.379777","long":"114.195822"},{"id":"5E75DC46C55ED246","name":"博康邨","lat":"22.377197","long":"114.194948"},{"id":"A7AFBCA40D458E0D","name":"田家炳學校","lat":"22.375523","long":"114.192175"},{"id":"45001DA558E03CF0","name":"秦石邨","lat":"22.374235","long":"114.186536"},{"id":"B818259F753A3BE2","name":"秦石邨石瑩樓","lat":"22.373437","long":"114.185537"},{"id":"A371827CA951848F","name":"秦石巴士總站","lat":"22.373068","long":"114.187222"}],"routeId":"47X"}]