[{"company":"gmb","route":"481B","routeType":1,"orig":"荃灣街市街","dest":"大圍銅鑼灣山路","stopList":[{"id":1,"name":"荃灣街市街","lat":22.371666975382862,"long":22.371666975382862},{"id":2,"name":"大圍道美林邨美楓樓對面","lat":22.37615718551708,"long":22.37615718551708},{"id":3,"name":"美田路金禧花園外","lat":22.373863430244207,"long":22.373863430244207},{"id":4,"name":"大圍站公共運輸交匯處","lat":22.372788777920473,"long":22.372788777920473},{"id":5,"name":"美田路北行海福花園外","lat":22.373493178425427,"long":22.373493178425427},{"id":6,"name":"大埔公路-大圍段美林邨美桃樓外","lat":22.37636488676169,"long":22.37636488676169},{"id":7,"name":"銅鑼灣山路","lat":22.38100653614093,"long":22.38100653614093}],"routeId":2003214,"description":"輔助服務"},{"company":"gmb","route":"481B","routeType":2,"orig":"大圍銅鑼灣山路","dest":"荃灣街市街","stopList":[{"id":1,"name":"銅鑼灣山路","lat":22.380419548487353,"long":22.380419548487353},{"id":2,"name":"松嶺路銅鑼灣村外","lat":22.37778262699547,"long":22.37778262699547},{"id":3,"name":"美田路金禧花園外","lat":22.373863430244207,"long":22.373863430244207},{"id":4,"name":"大圍站公共運輸交匯處","lat":22.372788777920473,"long":22.372788777920473},{"id":5,"name":"美田路海福花園外","lat":22.373493178425427,"long":22.373493178425427},{"id":6,"name":"大圍道, 美林邨美楓樓外","lat":22.37636488676169,"long":22.37636488676169},{"id":7,"name":"荃灣街市街","lat":22.371666975382862,"long":22.371666975382862}],"routeId":2003214,"description":"輔助服務"}]