[{"company":"gmb","route":"481B","routeType":1,"orig":"荃灣街市街","dest":"大圍銅鑼灣山路","stopList":[{"id":20002178,"name":"荃灣街市街","lat":22.371666975382862,"long":114.11698564373452},{"id":20002180,"name":"大圍道美林邨美楓樓對面","lat":22.37615718551708,"long":114.17662192071289},{"id":20003167,"name":"美田路金禧花園外","lat":22.373863430244207,"long":114.17702002355917},{"id":20001573,"name":"大圍站公共運輸交匯處","lat":22.372788777920473,"long":114.17930179370258},{"id":20003166,"name":"美田路北行海福花園外","lat":22.373493178425427,"long":114.17692292591533},{"id":20007375,"name":"大埔公路-大圍段美林邨美桃樓外","lat":22.37636488676169,"long":114.17623352382529},{"id":20003328,"name":"銅鑼灣山路","lat":22.38100653614093,"long":114.18058368980061}],"routeId":2003214,"description":"輔助服務"},{"company":"gmb","route":"481B","routeType":2,"orig":"大圍銅鑼灣山路","dest":"荃灣街市街","stopList":[{"id":20007253,"name":"銅鑼灣山路","lat":22.380419548487353,"long":114.18072932700777},{"id":20003165,"name":"松嶺路銅鑼灣村外","lat":22.37778262699547,"long":114.18102055399578},{"id":20003167,"name":"美田路金禧花園外","lat":22.373863430244207,"long":114.17702002355917},{"id":20001573,"name":"大圍站公共運輸交匯處","lat":22.372788777920473,"long":114.17930179370258},{"id":20003166,"name":"美田路海福花園外","lat":22.373493178425427,"long":114.17692292591533},{"id":20007375,"name":"大圍道, 美林邨美楓樓外","lat":22.37636488676169,"long":114.17623352382529},{"id":20002178,"name":"荃灣街市街","lat":22.371666975382862,"long":114.11698564373452}],"routeId":2003214,"description":"輔助服務"}]