[{"company":"gmb","route":"48M","routeType":1,"orig":"柴灣站(利眾街)","dest":"東區尤德夫人那打素醫院","stopList":[{"id":1,"name":"利眾街近華廈邨","lat":22.265106087611013,"long":22.265106087611013},{"id":2,"name":"泰民街近高威閣","lat":22.26624214143983,"long":22.26624214143983},{"id":3,"name":"泰民街, 樂翠臺外","lat":22.267635317660808,"long":22.267635317660808},{"id":4,"name":"東區尤德夫人那打素醫院","lat":22.269137269803817,"long":22.269137269803817}],"routeId":2003902,"description":"正常班次"},{"company":"gmb","route":"48M","routeType":2,"orig":"東區尤德夫人那打素醫院","dest":"柴灣站(利眾街)","stopList":[{"id":1,"name":"東區尤德夫人那打素醫院","lat":22.269137269803817,"long":22.269137269803817},{"id":2,"name":"泰民街, 樂翠臺外","lat":22.267635317660808,"long":22.267635317660808},{"id":3,"name":"祥利街近華廈村(下車站)","lat":22.264464925665976,"long":22.264464925665976},{"id":4,"name":"利眾街近華廈邨","lat":22.265106087611013,"long":22.265106087611013}],"routeId":2003902,"description":"正常班次"}]