[{"company":"kmb","route":"48X","routeType":"1","dir":"O","orig":"禾輋","dest":"荃灣(灣景花園)","stopList":[{"id":"9ED89AFC5ACA9A00","name":"禾輋巴士總站","lat":"22.388561","long":"114.194454"},{"id":"838E1F95E4AE1657","name":"豐順街","lat":"22.386723","long":"114.193046"},{"id":"4E56DD827C1F571A","name":"瀝源邨","lat":"22.384248","long":"114.193347"},{"id":"05D5B529DB497B99","name":"沙田市中心總站","lat":"22.382045","long":"114.188338"},{"id":"620E14F31DA31490","name":"城門隧道轉車站 (B6)","lat":"22.381181","long":"114.138129"},{"id":"09B4297CB90AF3EC","name":"城門隧道轉車站 (B3)","lat":"22.381358","long":"114.137510"},{"id":"97BB9CE7A058E809","name":"可風中學","lat":"22.380443","long":"114.135135"},{"id":"9FD6AAFA1318E3D9","name":"梨木樹邨","lat":"22.377716","long":"114.137097"},{"id":"03A5552B84E8214B","name":"和宜合道運動場","lat":"22.374165","long":"114.136527"},{"id":"0B4807A5C0DAF24A","name":"昌榮路","lat":"22.370602","long":"114.134772"},{"id":"40A8EA2850B0979B","name":"葵涌健全街","lat":"22.370465","long":"114.130938"},{"id":"B943DBEE65B0B18F","name":"大窩口站","lat":"22.370365","long":"114.124962"},{"id":"7019D5AE9C63EE72","name":"荃灣眾安街","lat":"22.371124","long":"114.119312"},{"id":"4E224310C4B46C9A","name":"荃灣建明街","lat":"22.373608","long":"114.115574"},{"id":"3F545756160D7BEA","name":"福來邨永康樓","lat":"22.374433","long":"114.113771"},{"id":"BFA3460955AC820C","name":"荃景圍天橋","lat":"22.375396","long":"114.108571"},{"id":"5FB1FCAF80F3D97D","name":"荃灣柴灣角街","lat":"22.374766","long":"114.105738"},{"id":"FF4785270078B487","name":"麗城花園第三期","lat":"22.372105","long":"114.103000"},{"id":"90A65F742FE7D728","name":"灣景花園總站","lat":"22.370231","long":"114.099460"}],"routeId":"48X","description":"正常班次"},{"company":"kmb","route":"48X","routeType":"1","dir":"I","orig":"荃灣(灣景花園)","dest":"禾輋","stopList":[{"id":"90A65F742FE7D728","name":"灣景花園總站","lat":"22.370231","long":"114.099460"},{"id":"B8B04CD1E568B8F6","name":"麗城花園第一期","lat":"22.373334","long":"114.103062"},{"id":"D8F172EF79F3414D","name":"荃景圍天橋","lat":"22.375738","long":"114.106898"},{"id":"CAEEAD91F339D3DA","name":"大涌道福來邨","lat":"22.374014","long":"114.111383"},{"id":"20E8B4520A802912","name":"滿樂大廈","lat":"22.372073","long":"114.112494"},{"id":"E368E68412AB685C","name":"荃灣大河道","lat":"22.372164","long":"114.115802"},{"id":"CA793BE80FF68AE2","name":"荃灣眾安街","lat":"22.371951","long":"114.118897"},{"id":"C9E264A3F9D4CEB3","name":"大窩口站","lat":"22.370561","long":"114.123847"},{"id":"094D2EBC017EE61A","name":"國瑞路公園","lat":"22.371039","long":"114.130268"},{"id":"8C6EF1266E4EE05B","name":"昌榮路","lat":"22.370532","long":"114.134301"},{"id":"257A6E19DD7F156C","name":"和宜合道運動場","lat":"22.373954","long":"114.136349"},{"id":"28A57C043C111604","name":"石圍角新村","lat":"22.375875","long":"114.136250"},{"id":"E00E92F19002ED3E","name":"梨木樹邨","lat":"22.378590","long":"114.137242"},{"id":"DEDD6247441C8C05","name":"可風中學","lat":"22.380167","long":"114.135129"},{"id":"81B719F7DC3F0FAD","name":"城門隧道轉車站 (A5)","lat":"22.381888","long":"114.137620"},{"id":"9E8E99C5BB698AC2","name":"城門隧道轉車站 (A4)","lat":"22.381827","long":"114.137783"},{"id":"05EE261A65F9B7ED","name":"沙田市中心總站","lat":"22.382159","long":"114.188174"},{"id":"EEDFC5EC1DD36179","name":"瀝源邨壽全樓","lat":"22.386183","long":"114.192851"},{"id":"458D2C951A759CAD","name":"豐和邨","lat":"22.387087","long":"114.193315"},{"id":"9ED89AFC5ACA9A00","name":"禾輋巴士總站","lat":"22.388561","long":"114.194454"}],"routeId":"48X","description":"正常班次"}]