[{"company":"nwfb","route":"4S","routeType":null,"dir":"O","orig":"中環碼頭","dest":"黃竹坑","stopList":[{"id":"001145","name":"中環碼頭","lat":"22.286355062091","long":"114.15973537053"},{"id":"001144","name":"國際金融中心二期, 民耀街","lat":"22.285016122091","long":"114.15994519053"},{"id":"001032","name":"中環 (交易廣場)","lat":"22.283695952091","long":"114.15803274053"},{"id":"001034","name":"砵典乍街, 干諾道中","lat":"22.283587582091","long":"114.15730419053"},{"id":"001191","name":"高樂花園, 干諾道西","lat":"22.288542812091","long":"114.14171663053"},{"id":"001119","name":"李陞小學, 薄扶林道","lat":"22.285487302091","long":"114.13994098053"},{"id":"001116","name":"香港大學西閘, 薄扶林道","lat":"22.283588212091","long":"114.13569933053"},{"id":"001120","name":"蒲飛路, 薄扶林道","lat":"22.281996732091","long":"114.13241370053"},{"id":"002236","name":"瑪麗醫院, 薄扶林道","lat":"22.269871512091","long":"114.13046423053"},{"id":"002237","name":"心光學校, 薄扶林道","lat":"22.266653792091","long":"114.13277936053"},{"id":"002239","name":"薄扶林水塘道, 薄扶林道","lat":"22.262572552091","long":"114.13555996053"},{"id":"002240","name":"薄扶林村, 薄扶林道","lat":"22.260617742091","long":"114.13650277053"},{"id":"002188","name":"富明苑, 置富道","lat":"22.259047752091","long":"114.13793962053"},{"id":"002189","name":"富仁苑, 置富道","lat":"22.257086322091","long":"114.13985908053"},{"id":"002190","name":"雅緻洋房, 置富道","lat":"22.255219652091","long":"114.13987808053"},{"id":"002333","name":"華富邨華樂樓, 華富道","lat":"22.251701562091","long":"114.13854444053"},{"id":"002334","name":"華富商場, 華富道","lat":"22.250930762091","long":"114.13735096053"},{"id":"002341","name":"華富 (南)","lat":"22.251167732091","long":"114.13648455053"},{"id":"002342","name":"華富邨華安樓, 華富道","lat":"22.251818402091","long":"114.13866375053"},{"id":"003287","name":"興和街, 石排灣道","lat":"22.249678472091","long":"114.14790169053"},{"id":"002157","name":"聖伯多祿堂, 香港仔大道","lat":"22.249804272091","long":"114.15368046053"},{"id":"002158","name":"漁暉道, 香港仔大道","lat":"22.248585702091","long":"114.15575506053"},{"id":"002159","name":"業漁大廈, 香港仔大道","lat":"22.247578892091","long":"114.15849066053"},{"id":"002344","name":"甄沾記大廈, 黃竹坑道","lat":"22.248523252091","long":"114.16362493053"},{"id":"002224","name":"南朗山道熟食市場, 南朗山道","lat":"22.247464142091","long":"114.16666866053"},{"id":"002223","name":"黃竹坑 (南朗山)","lat":"22.245241212091","long":"114.16723559053"}],"routeId":"4S","description":"正常班次"},{"company":"gmb","route":"4S","routeType":1,"orig":"石排灣","dest":"香港仔(循環線)","stopList":[{"id":20011318,"name":"石排灣邨公共運輸交匯處","lat":22.249991478750136,"long":114.15725180080364},{"id":20011646,"name":"香港仔水塘道","lat":22.251536676388877,"long":114.15664866680346},{"id":20011642,"name":"西安街, 利港中心外","lat":22.24884907732303,"long":114.15514916192478},{"id":20011644,"name":"漁光道, 石排灣邨外","lat":22.249703059433763,"long":114.1590571404595},{"id":20011318,"name":"石排灣邨公共運輸交匯處","lat":22.249991478750136,"long":114.15725180080364}],"routeId":2004099,"description":"正常班次"}]