[{"company":"gmb","route":"501K","routeType":1,"orig":"欣盛苑","dest":"聯和墟 (循環線)","stopList":[{"id":20002183,"name":"偉明街, 花都廣場對面","lat":22.486180362176587,"long":22.486180362176587},{"id":20002184,"name":"百和路, 欣盛苑外","lat":22.487065309173897,"long":22.487065309173897},{"id":20002185,"name":"一鳴路, 百福田心遊樂場外","lat":22.488266385902996,"long":22.488266385902996},{"id":20002187,"name":"一鳴路, 牽晴間外","lat":22.486677625201942,"long":22.486677625201942},{"id":20004532,"name":"和合石新村","lat":22.485134012390912,"long":22.485134012390912},{"id":20004530,"name":"馬會道西行近油站的巴士站","lat":22.490958485941903,"long":22.490958485941903},{"id":20001457,"name":"粉嶺站專綫小巴總站","lat":22.492970739688495,"long":22.492970739688495},{"id":20001460,"name":"聯興街","lat":22.49822735794365,"long":22.49822735794365},{"id":20004529,"name":"聯發街,燈柱EA8498外","lat":22.497730611606833,"long":22.497730611606833},{"id":20001455,"name":"和滿街小巴總站 (和滿街公共小型巴士(專線)停車處)","lat":22.50029000952079,"long":22.50029000952079},{"id":20003322,"name":"樂業路","lat":22.49527457380003,"long":22.49527457380003},{"id":20007951,"name":"和興路, 和興村對面","lat":22.484539973298126,"long":22.484539973298126},{"id":20002181,"name":"一鳴路, 碧湖花園對面","lat":22.487219257137113,"long":22.487219257137113},{"id":20002182,"name":"華明路, 欣盛苑欣暉閣外","lat":22.48601746470695,"long":22.48601746470695},{"id":20002183,"name":"偉明街, 花都廣場對面","lat":22.486180362176587,"long":22.486180362176587}],"routeId":2001063,"description":"正常班次"}]