[{"company":"gmb","route":"505","routeType":1,"orig":"上水新發街","dest":"沙田圓洲角","stopList":[{"id":20017389,"name":"新發街小巴總站","lat":22.50317974031878,"long":114.12724264001508},{"id":20001473,"name":"龍琛路, 上水花園第一號對面","lat":22.503669459236814,"long":114.12983553085591},{"id":20001474,"name":"馬會道, 天平邨外","lat":22.501963627828687,"long":114.1330724198672},{"id":20017390,"name":"馬適路, 近皇府山","lat":22.50345642393737,"long":114.1368569017008},{"id":20015432,"name":"和滿街小巴總站","lat":22.50044363461401,"long":114.14433494210245},{"id":20017391,"name":"沙頭角道, 近樂和街","lat":22.496799416966457,"long":114.14271788593884},{"id":20017392,"name":"沙頭角道, 近粉嶺消防局","lat":22.494068332336443,"long":114.13990811338533},{"id":20014456,"name":"新運路,近祥華邨祥頌樓","lat":22.49265495691476,"long":114.14005482819177},{"id":20017393,"name":"新運路,近粉嶺中心","lat":22.4911225934321,"long":114.14265056697914},{"id":20017394,"name":"馬會道, 近塘坑","lat":22.49036255701508,"long":114.14613879372124},{"id":20017331,"name":"安明街, 近碩門邨健碩樓","lat":22.387373068459887,"long":114.20874927571731},{"id":20017330,"name":"插桅杆街, 近小瀝源消防局","lat":22.383958256395882,"long":114.20526266098024},{"id":20017395,"name":"插桅杆街, 近威爾斯親王醫院急症室","lat":22.38118192950187,"long":114.20206120252607},{"id":20017396,"name":"牛皮沙街小巴總站","lat":22.381687052090435,"long":114.20626023044407}],"routeId":2009147,"description":"正常班次"},{"company":"gmb","route":"505","routeType":2,"orig":"沙田圓洲角","dest":"上水新發街","stopList":[{"id":20017587,"name":"牛皮沙街小巴總站","lat":22.38170630690252,"long":114.20626162219854},{"id":20016370,"name":"銀城街, 聖羅撒書院外","lat":22.380795692579888,"long":114.20306597090303},{"id":20017395,"name":"插桅杆街, 近威爾斯親王醫院急症室","lat":22.38118192950187,"long":114.20206120252607},{"id":20002274,"name":"插桅杆街, 第一城站外","lat":22.382720156109503,"long":114.2036555393339},{"id":20017422,"name":"插桅杆街, 近沙田工業中心","lat":22.384135231070932,"long":114.20513100135811},{"id":20017331,"name":"安明街, 近碩門邨健碩樓","lat":22.387373068459887,"long":114.20874927571731},{"id":20017423,"name":"馬會道, 近塘坑","lat":22.49087224308902,"long":114.14566664593285},{"id":20017424,"name":"新運路,近粉嶺中心","lat":22.49087019835072,"long":114.14241667695264},{"id":20017425,"name":"沙頭角道, 近粉嶺消防局","lat":22.494207598537358,"long":114.13989577021326},{"id":20014618,"name":"沙頭角公路, 近聯和墟遊樂場","lat":22.497448889762627,"long":114.1430000038356},{"id":20017426,"name":"沙頭角公路, 近逸峯","lat":22.500831616127158,"long":114.14634922231727},{"id":20017455,"name":"粉嶺和睦路西行海聯廣聯廣場巴士站","lat":22.50071108868651,"long":114.1424083480623},{"id":20014455,"name":"和睦路,近海聯廣場","lat":22.500454223970806,"long":114.14154062306358},{"id":20017427,"name":"粉嶺樓路","lat":22.500585952588505,"long":114.14002726503156},{"id":20017428,"name":"馬適路, 近皇府山","lat":22.502933329286982,"long":114.13657577855605},{"id":20001480,"name":"馬會道, 順欣花園外","lat":22.50178298833198,"long":114.13295585298371},{"id":20017429,"name":"符興街","lat":22.503939291044063,"long":114.12779129361915},{"id":20017389,"name":"新發街小巴總站","lat":22.50317974031878,"long":114.12724264001508}],"routeId":2009147,"description":"正常班次"}]