[{"company":"gmb","route":"50A","routeType":1,"orig":"上水站","dest":"古洞(南)","stopList":[{"id":1,"name":"上水站小巴總站","lat":22.5020433782143,"long":22.5020433782143},{"id":2,"name":"新豐路,近石湖墟郵政局","lat":22.503840086979775,"long":22.503840086979775},{"id":3,"name":"寶石湖路,近彩蒲苑彩顏閣","lat":22.501175553649194,"long":22.501175553649194},{"id":4,"name":"青山公路　－　古洞段,　近　香港哥爾夫球會場地部","lat":22.50133200553881,"long":22.50133200553881},{"id":5,"name":"青山公路　－　古洞段,　近　沙爾德聖保祿女修會聖保祿樂靜院","lat":22.50318554770127,"long":22.50318554770127},{"id":6,"name":"古洞路,　近　天巒","lat":22.502164615786345,"long":22.502164615786345},{"id":7,"name":"金錢路,　近　金錢","lat":22.500764539134938,"long":22.500764539134938},{"id":8,"name":"古洞路,　近　何東麥夫人醫局","lat":22.502229043751353,"long":22.502229043751353}],"routeId":2005322,"description":"額外班次"},{"company":"gmb","route":"50A","routeType":2,"orig":"古洞(南)","dest":"上水站","stopList":[{"id":1,"name":"古洞路,　近　何東麥夫人醫局","lat":22.502229043751353,"long":22.502229043751353},{"id":2,"name":"金錢路,　近　金錢","lat":22.500764539134938,"long":22.500764539134938},{"id":3,"name":"青山公路　－　古洞段,　近　沙爾德聖保祿女修會聖保祿樂靜院","lat":22.50318554770127,"long":22.50318554770127},{"id":4,"name":"青山公路　－　古洞段,　近　高爾夫景園第三座","lat":22.501396433891635,"long":22.501396433891635},{"id":5,"name":"寶石湖路,近彩蒲苑彩顏閣","lat":22.50153149885346,"long":22.50153149885346},{"id":6,"name":"新豐路,近石湖墟郵政局","lat":22.50382206549488,"long":22.50382206549488},{"id":7,"name":"上水站小巴總站","lat":22.5020433782143,"long":22.5020433782143}],"routeId":2005322,"description":"額外班次"}]