[{"company":"ctb","route":"50M","routeType":null,"dir":"I","orig":"屯門站","dest":"和田邨","stopList":[{"id":"003361","name":"屯門站","lat":"22.395505672091","long":"113.97368690053"},{},{},{},{"id":"003257","name":"新圍苑, 田景路","lat":"22.405391612091","long":"113.96403801053"},{"id":"003258","name":"兆邦苑, 田景路","lat":"22.407656542091","long":"113.96603583053"},{},{"id":"003267","name":"建生邨樂生樓, 青田路","lat":"22.405113002091","long":"113.96885044053"},{},{"id":"003206","name":"麒麟圍, 青麟路","lat":"22.410991742091","long":"113.97650641053"},{},{},{}],"routeId":"50M","description":"正常班次"},{"company":"ctb","route":"50M","routeType":null,"dir":"O","orig":"和田邨","dest":"屯門站","stopList":[{},{},{},{"id":"003210","name":"兆康苑兆賢閣, 青麟路","lat":"22.410157122091","long":"113.97649963053"},{"id":"003211","name":"屯門醫院, 青麟路","lat":"22.408502142091","long":"113.97545383053"},{},{"id":"003256","name":"保良局莊啟程第二小學, 青田路","lat":"22.404895512091","long":"113.96886186053"},{},{},{"id":"003266","name":"田景邨田裕樓, 田景路","lat":"22.405457462091","long":"113.96448834053"},{},{},{},{"id":"003361","name":"屯門站","lat":"22.395505672091","long":"113.97368690053"}],"routeId":"50M","description":"正常班次"}]