[{"company":"gmb","route":"51A","routeType":1,"orig":"華貴邨","dest":"田灣村(循環線)","stopList":[{"id":1,"name":"華貴邨巴士總站","lat":22.249760657177948,"long":22.249760657177948},{"id":2,"name":"石排灣道 53 號","lat":22.24961122014702,"long":22.24961122014702},{"id":3,"name":"田灣街, 近嘉和街","lat":22.24991609215966,"long":22.24991609215966},{"id":4,"name":"田灣邨道, 田康樓外","lat":22.252179743283637,"long":22.252179743283637},{"id":5,"name":"田灣邨道, 田澤樓外","lat":22.252634565700614,"long":22.252634565700614},{"id":6,"name":"田灣邨道, 田康樓對面","lat":22.252219049868042,"long":22.252219049868042},{"id":7,"name":"田灣邨道, 鴻澤閣外","lat":22.251207638767212,"long":22.251207638767212},{"id":8,"name":"田灣街, 田灣商場外","lat":22.251176828096934,"long":22.251176828096934},{"id":9,"name":"田灣海旁道7號, 興偉中心外","lat":22.248723462612997,"long":22.248723462612997},{"id":10,"name":"華貴邨巴士總站","lat":22.249760657177948,"long":22.249760657177948}],"routeId":2002812,"description":"額外班次"}]