[{"company":"gmb","route":"51A","routeType":1,"orig":"華貴邨","dest":"田灣村(循環線)","stopList":[{"id":20000272,"name":"華貴邨巴士總站","lat":22.249760657177948,"long":114.13974798921996},{"id":20000273,"name":"石排灣道 53 號","lat":22.24961122014702,"long":114.1481634061711},{"id":20003273,"name":"田灣街, 近嘉和街","lat":22.24991609215966,"long":114.14939091370596},{"id":20009931,"name":"田灣邨道, 田康樓外","lat":22.252179743283637,"long":114.15029346942903},{"id":20000275,"name":"田灣邨道, 田澤樓外","lat":22.252634565700614,"long":114.15086499090242},{"id":20000274,"name":"田灣邨道, 田康樓對面","lat":22.252219049868042,"long":114.15021507828752},{"id":20000276,"name":"田灣邨道, 鴻澤閣外","lat":22.251207638767212,"long":114.15036078831122},{"id":20009865,"name":"田灣街, 田灣商場外","lat":22.251176828096934,"long":114.14966315031053},{"id":20006901,"name":"田灣海旁道7號, 興偉中心外","lat":22.248723462612997,"long":114.14614128066623},{"id":20000272,"name":"華貴邨巴士總站","lat":22.249760657177948,"long":114.13974798921996}],"routeId":2002812,"description":"額外班次"}]