[{"company":"gmb","route":"51A","routeType":1,"orig":"華貴邨","dest":"田灣村(循環線)","stopList":[{"id":20000272,"name":"華貴邨巴士總站","lat":22.249760657177948,"long":22.249760657177948},{"id":20000273,"name":"石排灣道 53 號","lat":22.24961122014702,"long":22.24961122014702},{"id":20003273,"name":"田灣街, 近嘉和街","lat":22.24991609215966,"long":22.24991609215966},{"id":20009931,"name":"田灣邨道, 田康樓外","lat":22.252179743283637,"long":22.252179743283637},{"id":20000275,"name":"田灣邨道, 田澤樓外","lat":22.252634565700614,"long":22.252634565700614},{"id":20000274,"name":"田灣邨道, 田康樓對面","lat":22.252219049868042,"long":22.252219049868042},{"id":20000276,"name":"田灣邨道, 鴻澤閣外","lat":22.251207638767212,"long":22.251207638767212},{"id":20009865,"name":"田灣街, 田灣商場外","lat":22.251176828096934,"long":22.251176828096934},{"id":20006901,"name":"田灣海旁道7號, 興偉中心外","lat":22.248723462612997,"long":22.248723462612997},{"id":20000272,"name":"華貴邨巴士總站","lat":22.249760657177948,"long":22.249760657177948}],"routeId":2002812,"description":"額外班次"}]