[{"company":"gmb","route":"51K","routeType":1,"orig":"上水站","dest":"河上鄉","stopList":[{"id":20001384,"name":"上水站小巴總站","lat":22.5020433782143,"long":22.5020433782143},{"id":20012274,"name":"寶石湖路,近彩蒲苑彩顏閣","lat":22.501175553649194,"long":22.501175553649194},{"id":20013048,"name":"青山公路　－　古洞段,　近　可愛忠實之家","lat":22.50380038053314,"long":22.50380038053314},{"id":20013034,"name":"河上鄉排峰路,　近　河上鄉　居石侯公祠","lat":22.511033761615064,"long":22.511033761615064}],"routeId":2005325,"description":"正常班次 "},{"company":"gmb","route":"51K","routeType":2,"orig":"河上鄉","dest":"上水站","stopList":[{"id":20013034,"name":"河上鄉排峰路,　近　河上鄉　居石侯公祠","lat":22.511033761615064,"long":22.511033761615064},{"id":20013033,"name":"青山公路　－　古洞段,　近　可愛忠實之家","lat":22.503785217788373,"long":22.503785217788373},{"id":20012281,"name":"寶石湖路,近彩蒲苑彩顏閣","lat":22.50153149885346,"long":22.50153149885346},{"id":20007525,"name":"新豐路,近石湖墟郵政局","lat":22.50382206549488,"long":22.50382206549488},{"id":20001384,"name":"上水站小巴總站","lat":22.5020433782143,"long":22.5020433782143}],"routeId":2005325,"description":"正常班次 "},{"company":"gmb","route":"51K","routeType":1,"orig":"上水站","dest":"羅湖懲教所(循環線)","stopList":[{"id":20001384,"name":"上水站小巴總站","lat":22.5020433782143,"long":22.5020433782143},{"id":20003205,"name":"新豐路,近石湖墟郵政局","lat":22.503840086979775,"long":22.503840086979775},{"id":20012274,"name":"寶石湖路,近彩蒲苑彩顏閣","lat":22.501175553649194,"long":22.501175553649194},{"id":20013004,"name":"青山公路　－　古洞段,　近　香港哥爾夫球會場地部","lat":22.50133200553881,"long":22.50133200553881},{"id":20013005,"name":"青山公路　－　古洞段,　近　沙爾德聖保祿女修會聖保祿樂靜院","lat":22.50318554770127,"long":22.50318554770127},{"id":20013048,"name":"青山公路　－　古洞段,　近　可愛忠實之家","lat":22.50380038053314,"long":22.50380038053314},{"id":20013045,"name":"河上鄉路,　近　羅湖懲教所","lat":22.516001071210813,"long":22.516001071210813},{"id":20013034,"name":"河上鄉排峰路,　近　河上鄉　居石侯公祠","lat":22.511033761615064,"long":22.511033761615064},{"id":20013033,"name":"青山公路　－　古洞段,　近　可愛忠實之家","lat":22.503785217788373,"long":22.503785217788373},{"id":20013005,"name":"青山公路　－　古洞段,　近　沙爾德聖保祿女修會聖保祿樂靜院","lat":22.50318554770127,"long":22.50318554770127},{"id":20013009,"name":"青山公路　－　古洞段,　近　高爾夫景園第三座","lat":22.501396433891635,"long":22.501396433891635},{"id":20012281,"name":"寶石湖路,近彩蒲苑彩顏閣","lat":22.50153149885346,"long":22.50153149885346},{"id":20007525,"name":"新豐路,近石湖墟郵政局","lat":22.50382206549488,"long":22.50382206549488},{"id":20001384,"name":"上水站小巴總站","lat":22.5020433782143,"long":22.5020433782143}],"routeId":2005327,"description":"額外班次"}]