[{"company":"gmb","route":"52A","routeType":1,"orig":"粉嶺站","dest":"和滿街公共小型巴士總站","stopList":[{"id":1,"name":"粉嶺車站路, 粉嶺站外","lat":22.491553222108536,"long":22.491553222108536},{"id":2,"name":"沙頭角公路－龍躍頭段,上水警署對面","lat":22.495597761949476,"long":22.495597761949476},{"id":3,"name":"粉嶺樓路, 粉嶺禮賢會中學對面","lat":22.496673876109462,"long":22.496673876109462},{"id":4,"name":"和睦路,近榮福中心","lat":22.500219372711506,"long":22.500219372711506},{"id":5,"name":"和滿街,近綠悠軒第五座","lat":22.50124279700072,"long":22.50124279700072},{"id":6,"name":"和滿街小巴總站","lat":22.50029000952079,"long":22.50029000952079}],"routeId":2006342,"description":"正常班次"},{"company":"gmb","route":"52A","routeType":2,"orig":"和滿街公共小型巴士總站","dest":"粉嶺站","stopList":[{"id":1,"name":"和滿街小巴總站","lat":22.50029000952079,"long":22.50029000952079},{"id":2,"name":"和睦路,近海聯廣場","lat":22.500454223970806,"long":22.500454223970806},{"id":3,"name":"新運路,近祥華邨祥頌樓","lat":22.49265495691476,"long":22.49265495691476},{"id":4,"name":"粉嶺車站路, 粉嶺站外","lat":22.491553222108536,"long":22.491553222108536}],"routeId":2006342,"description":"正常班次"},{"company":"gmb","route":"52A","routeType":1,"orig":"和滿街公共小型巴士總站","dest":"粉嶺站","stopList":[{"id":1,"name":"和滿街小巴總站","lat":22.50029000952079,"long":22.50029000952079},{"id":2,"name":"新運路,近祥華邨祥頌樓","lat":22.49265495691476,"long":22.49265495691476},{"id":3,"name":"粉嶺車站路, 粉嶺站外","lat":22.491553222108536,"long":22.491553222108536}],"routeId":2006343,"description":"(早上特別服務)(不經粉嶺樓路)"}]