[{"company":"gmb","route":"52B","routeType":1,"orig":"粉嶺站","dest":"鶴藪","stopList":[{"id":20014457,"name":"粉嶺車站路,近粉嶺名都嘉麗閣","lat":22.49302971022653,"long":22.49302971022653},{"id":20014618,"name":"沙頭角公路－龍躍頭段,近聯和墟遊樂場","lat":22.497448889762627,"long":22.497448889762627},{"id":20003249,"name":"新屋村/覲龍圍, 沙頭角公路","lat":22.503863613033168,"long":22.503863613033168},{"id":20014619,"name":"沙頭角公路－龍躍頭段,近軍地","lat":22.51084942386004,"long":22.51084942386004},{"id":20014620,"name":"鶴藪圍小巴總站","lat":22.502440602448765,"long":22.502440602448765}],"routeId":2006573,"description":"正常班次"},{"company":"gmb","route":"52B","routeType":2,"orig":"鶴藪","dest":"粉嶺站","stopList":[{"id":20014620,"name":"鶴藪圍小巴總站","lat":22.502440602448765,"long":22.502440602448765},{"id":20014621,"name":"沙頭角公路－龍躍頭段,近軍地","lat":22.510679557419625,"long":22.510679557419625},{"id":20003250,"name":"新屋村/覲龍圍, 沙頭角公路","lat":22.503502382566584,"long":22.503502382566584},{"id":20014465,"name":"聯和道,近聯和墟遊樂場","lat":22.498096851987132,"long":22.498096851987132},{"id":20014456,"name":"新運路,近祥華邨祥頌樓","lat":22.49265495691476,"long":22.49265495691476},{"id":20014457,"name":"粉嶺車站路,近粉嶺名都嘉麗閣","lat":22.49302971022653,"long":22.49302971022653}],"routeId":2006573,"description":"正常班次"}]