[{"company":"gmb","route":"52B","routeType":1,"orig":"粉嶺站","dest":"鶴藪","stopList":[{"id":20014457,"name":"粉嶺車站路,近粉嶺名都嘉麗閣","lat":22.49302971022653,"long":114.138509483979},{"id":20014618,"name":"沙頭角公路－龍躍頭段,近聯和墟遊樂場","lat":22.497448889762627,"long":114.1430000038356},{"id":20003249,"name":"新屋村/覲龍圍, 沙頭角公路","lat":22.503863613033168,"long":114.14937023250596},{"id":20014619,"name":"沙頭角公路－龍躍頭段,近軍地","lat":22.51084942386004,"long":114.16181124138133},{"id":20014620,"name":"鶴藪圍小巴總站","lat":22.502440602448765,"long":114.17507212709977}],"routeId":2006573,"description":"正常班次"},{"company":"gmb","route":"52B","routeType":2,"orig":"鶴藪","dest":"粉嶺站","stopList":[{"id":20014620,"name":"鶴藪圍小巴總站","lat":22.502440602448765,"long":114.17507212709977},{"id":20014621,"name":"沙頭角公路－龍躍頭段,近軍地","lat":22.510679557419625,"long":114.1618429137627},{"id":20003250,"name":"新屋村/覲龍圍, 沙頭角公路","lat":22.503502382566584,"long":114.14928283496961},{"id":20014465,"name":"聯和道,近聯和墟遊樂場","lat":22.498096851987132,"long":114.14331756556999},{"id":20014456,"name":"新運路,近祥華邨祥頌樓","lat":22.49265495691476,"long":114.14005482819177},{"id":20014457,"name":"粉嶺車站路,近粉嶺名都嘉麗閣","lat":22.49302971022653,"long":114.138509483979}],"routeId":2006573,"description":"正常班次"}]