[{"company":"gmb","route":"54A","routeType":1,"orig":"粉嶺站","dest":"和滿街公共小型巴士總站","stopList":[{"id":20001453,"name":"粉嶺車站路, 粉嶺站外","lat":22.491553222108536,"long":114.13959642543061},{"id":20015431,"name":"沙頭角公路, 上水警署對面","lat":22.4953796874932,"long":114.14105594158174},{"id":20001469,"name":"和睦路, 榮福中心商場外","lat":22.50088210511437,"long":114.14175145319744},{"id":20001455,"name":"和滿街小巴總站","lat":22.50029000952079,"long":114.14420001785403}],"routeId":2007432,"description":"正常班次"},{"company":"gmb","route":"54A","routeType":2,"orig":"和滿街公共小型巴士總站","dest":"粉嶺站","stopList":[{"id":20015432,"name":"和滿街小巴總站","lat":22.50044363461401,"long":114.14433494210245},{"id":20001470,"name":"和睦路,海聯廣場第三座外","lat":22.500502779861307,"long":114.14152802211895},{"id":20014456,"name":"新運路, 近祥華邨祥頌樓","lat":22.49265495691476,"long":114.14005482819177},{"id":20001453,"name":"粉嶺車站路, 粉嶺站外","lat":22.491553222108536,"long":114.13959642543061}],"routeId":2007432,"description":"正常班次"},{"company":"gmb","route":"54A","routeType":1,"orig":"和滿街公共小型巴士總站","dest":"粉嶺站","stopList":[{"id":20015432,"name":"和滿街小巴總站","lat":22.50044363461401,"long":114.14433494210245},{"id":20014456,"name":"新運路, 近祥華邨祥頌樓","lat":22.49265495691476,"long":114.14005482819177},{"id":20001453,"name":"粉嶺車站路, 粉嶺站外","lat":22.491553222108536,"long":114.13959642543061}],"routeId":2007434,"description":"(早上特別服務)(不經粉嶺樓路)"}]