[{"company":"ctb","route":"55","routeType":null,"dir":"I","orig":"觀塘碼頭","dest":"屯門 (菁田及和田)","stopList":[{"id":"003590","name":"觀塘碼頭","lat":"22.307696182091","long":"114.22147382053"},{"id":"003575","name":"勵業街, 海濱道","lat":"22.313598262091","long":"114.21619778053"},{"id":"003576","name":"觀塘海濱花園, 海濱道","lat":"22.315230882091","long":"114.21450495053"},{"id":"001649","name":"常悅道, 宏照道","lat":"22.321241952091","long":"114.20897841053"},{"id":"001607","name":"臨華街, 宏照道","lat":"22.322591022091","long":"114.20883070053"},{"id":"001695","name":"鑽石山站, 龍翔道","lat":"22.339272392091","long":"114.20228739053"},{"id":"001690","name":"沙田坳道, 龍翔道","lat":"22.341586742091","long":"114.19546107053"},{"id":"001524","name":"摩士公園游泳池, 龍翔道","lat":"22.341541322091","long":"114.19151762053"},{"id":"001724","name":"五旬節聖潔會永光書院, 龍翔道","lat":"22.342346632091","long":"114.18854505053"},{"id":"001765","name":"豐力樓, 龍翔道","lat":"22.342559752091","long":"114.17294742053"},{"id":"001725","name":"畢架山花園, 龍翔道","lat":"22.341581972091","long":"114.16679537053"},{"id":"003359","name":"屯門公路巴士轉乘站, 屯門公路","lat":"22.358003322091","long":"114.01931176053"},{"id":"003153","name":"新墟街市, 屯門公路","lat":"22.398930732091","long":"113.97659859053"},{"id":"003192","name":"紅橋, 屯門公路","lat":"22.402526362091","long":"113.97729510053"},{"id":"003431","name":"虎地, 屯門公路","lat":"22.413265072091","long":"113.97983169053"},{"id":"003351","name":"五柳路, 青麟路","lat":"22.415444592091","long":"113.97967649053"},{"id":"003209","name":"欣田邨, 青麟路","lat":"22.414752742091","long":"113.97739414053"},{"id":"003760","name":"菁田邨","lat":"22.412914412091","long":"113.97240998053"},{"id":"003767","name":"塘亨路, 欣寶路","lat":"22.411996442091","long":"113.97034985053"},{"id":"003752","name":"和田邨","lat":"22.412549252091","long":"113.96862576053"},{"id":"003753","name":"塘亨路, 欣寶路","lat":"22.412257952091","long":"113.97055056053"},{"id":"003760","name":"菁田邨","lat":"22.412914412091","long":"113.97240998053"}],"routeId":"55","description":"正常班次"},{"company":"ctb","route":"55","routeType":null,"dir":"O","orig":"屯門 (菁田及和田)","dest":"觀塘碼頭","stopList":[{"id":"003760","name":"菁田邨","lat":"22.412914412091","long":"113.97240998053"},{"id":"003752","name":"和田邨","lat":"22.412549252091","long":"113.96862576053"},{"id":"003753","name":"塘亨路, 欣寶路","lat":"22.412257952091","long":"113.97055056053"},{"id":"003754","name":"紫田村, 欣寶路","lat":"22.414424532091","long":"113.97389275053"},{"id":"003207","name":"欣田邨, 青麟路","lat":"22.414224942091","long":"113.97713451053"},{"id":"003350","name":"五柳路, 青麟路","lat":"22.415551182091","long":"113.97975789053"},{"id":"003656","name":"虎地, 屯門公路","lat":"22.413721722091","long":"113.98055707053"},{"id":"003193","name":"紅橋, 屯門公路","lat":"22.401808972091","long":"113.97739842053"},{"id":"003358","name":"屯門公路巴士轉乘站, 屯門公路","lat":"22.362538042091","long":"114.01580908053"},{"id":"001766","name":"畢架山花園, 龍翔道","lat":"22.341561202091","long":"114.16732372053"},{"id":"001767","name":"豐力樓, 龍翔道","lat":"22.343045712091","long":"114.17286134053"},{"id":"001734","name":"天馬苑, 龍翔道","lat":"22.342635352091","long":"114.18641726053"},{"id":"001523","name":"黃大仙站, 龍翔道","lat":"22.341815742091","long":"114.19217929053"},{"id":"001688","name":"沙田坳道, 龍翔道","lat":"22.341786682091","long":"114.19549949053"},{"id":"001697","name":"牛池灣村, 龍翔道","lat":"22.336768802091","long":"114.20701576053"},{"id":"003036","name":"香港輔助警察隊總部, 啟祥道","lat":"22.325209412091","long":"114.20694292053"},{"id":"003046","name":"臨華街遊樂場, 宏光道","lat":"22.322470092091","long":"114.20629242053"},{"id":"001657","name":"常怡道","lat":"22.320843992091","long":"114.20772571053"},{"id":"003592","name":"順業街, 偉業街","lat":"22.316020722091","long":"114.21504782053"},{"id":"003593","name":"勵業街, 偉業街","lat":"22.314822142091","long":"114.21636114053"},{"id":"003594","name":"巧明街, 偉業街","lat":"22.311967172091","long":"114.21956168053"},{"id":"003590","name":"觀塘碼頭","lat":"22.307696182091","long":"114.22147382053"}],"routeId":"55","description":"正常班次"},{"company":"gmb","route":"55","routeType":1,"orig":"瑪麗醫院","dest":"中環站(干諾道中)(循環線)","stopList":[{"id":20010493,"name":"瑪麗醫院","lat":22.270782195787596,"long":114.13102341390011},{"id":20000012,"name":"薄扶林道, 近香港大學站C出口","lat":22.28422912554159,"long":114.13357716043275},{"id":20003517,"name":"第三街, 近廣豐里","lat":22.286036390965997,"long":114.13808880737835},{"id":20003518,"name":"德輔道西, 近東邊街","lat":22.287562752842277,"long":114.13887439198248},{"id":20003090,"name":"德輔道西51號外","lat":22.28781716356253,"long":114.14622979275862},{"id":20000294,"name":"干諾道中, 信德中心外","lat":22.287863143351416,"long":114.15098463944372},{"id":20003083,"name":"干諾道中, 近砵甸乍街","lat":22.283718955955226,"long":114.15721505038805},{"id":20003519,"name":"皇后大道中138號外","lat":22.28412494317925,"long":114.1542068989742},{"id":20000297,"name":"皇后大道西62號外","lat":22.286462768687848,"long":114.14730719738337},{"id":20000298,"name":"皇后大道西, 近正街","lat":22.28685917180245,"long":114.14250377293804},{"id":20000299,"name":"皇后大道西, 近西邊街","lat":22.286904036272364,"long":114.14116464828153},{"id":20000300,"name":"薄扶林道, 李陞小學外","lat":22.2853956258815,"long":114.13984533880983},{"id":20000008,"name":"薄扶林道, 香港大學西閘","lat":22.283453250310362,"long":114.13652725814067},{"id":20000009,"name":"薄扶林道, 寶翠園對面","lat":22.28405757453576,"long":114.13369365550388},{"id":20000010,"name":"薄扶林道近蒲飛路","lat":22.28207053520232,"long":114.1325783753736},{"id":20004546,"name":"薄扶林道近摩星嶺道","lat":22.278322429443353,"long":114.13116289772238},{"id":20010493,"name":"瑪麗醫院","lat":22.270782195787596,"long":114.13102341390011}],"routeId":2003771,"description":"正常班次"}]