[{"company":"gmb","route":"55","routeType":1,"orig":"瑪麗醫院","dest":"中環站(干諾道中)(循環線)","stopList":[{"id":20010493,"name":"瑪麗醫院","lat":22.270618919791037,"long":22.270618919791037},{"id":20012373,"name":"薄扶林道, 近香港大學站C1出口 ","lat":22.284437760910063,"long":22.284437760910063},{"id":20003517,"name":"第三街, 近廣豐里","lat":22.286036390965997,"long":22.286036390965997},{"id":20003518,"name":"德輔道西, 近東邊街","lat":22.287562752842277,"long":22.287562752842277},{"id":20003090,"name":"德輔道西51號外","lat":22.28781716356253,"long":22.28781716356253},{"id":20000294,"name":"干諾道中, 信德中心外","lat":22.287863143351416,"long":22.287863143351416},{"id":20003083,"name":"中環站 (干諾道中), 近砵甸乍街 ","lat":22.283718955955226,"long":22.283718955955226},{"id":20003519,"name":"皇后大道中140號外","lat":22.28412494317925,"long":22.28412494317925},{"id":20000297,"name":"皇后大道西62號外","lat":22.286462768687848,"long":22.286462768687848},{"id":20000298,"name":"皇后大道西, 近正街","lat":22.28685917180245,"long":22.28685917180245},{"id":20000299,"name":"皇后大道西, 近西邊街","lat":22.286904036272364,"long":22.286904036272364},{"id":20000300,"name":"薄扶林道, 李陞小學外","lat":22.2853956258815,"long":22.2853956258815},{"id":20000008,"name":"薄扶林道, 香港大學西閘","lat":22.283453250310362,"long":22.283453250310362},{"id":20000009,"name":"薄扶林道, 寶翠園對面","lat":22.28405757453576,"long":22.28405757453576},{"id":20000010,"name":"薄扶林道近蒲飛路","lat":22.28207053520232,"long":22.28207053520232},{"id":20004546,"name":"薄扶林道近摩星嶺道","lat":22.278322429443353,"long":22.278322429443353},{"id":20010493,"name":"瑪麗醫院","lat":22.270618919791037,"long":22.270618919791037}],"routeId":2003771,"description":"正常班次"}]