[{"company":"CTB","route":"592","routeType":null,"dir":"I","orig":"銅鑼灣 (摩頓台)","dest":"海怡半島","stopList":[{"id":"002536","name":"銅鑼灣 (摩頓台)","lat":"22.278739572091","long":"114.18998843053"},{"id":"002439","name":"希慎廣場, 軒尼詩道","lat":"22.279999772091","long":"114.18335916053"},{"id":"002404","name":"堅拿道巴士專用線","lat":"22.278043882091","long":"114.18120688053"},{"id":"002470","name":"跑馬地馬場, 摩理臣山道","lat":"22.275360852091","long":"114.18042067053"},{"id":"002348","name":"香港仔隧道收費廣場","lat":"22.249770482091","long":"114.17533612053"},{"id":"002355","name":"黃竹坑遊樂場, 黃竹坑道","lat":"22.250122902091","long":"114.16985106053"},{"id":"002356","name":"業興街, 黃竹坑道","lat":"22.249175622091","long":"114.16779618053"},{"id":"002358","name":"勝利工廠大廈, 黃竹坑道","lat":"22.248392422091","long":"114.16314899053"},{"id":"002167","name":"鴨脷洲徑, 鴨脷洲橋道","lat":"22.243437112091","long":"114.15652985053"},{"id":"002168","name":"利枝道, 鴨脷洲橋道","lat":"22.243012942091","long":"114.15500259053"},{"id":"002169","name":"御庭園, 鴨脷洲橋道","lat":"22.244095462091","long":"114.14969945053"},{"id":"002936","name":"海怡半島怡韻閣, 海怡路","lat":"22.243391432091","long":"114.14632115053"},{"id":"002263","name":"海怡半島海韻閣, 海怡路","lat":"22.244439312091","long":"114.14732855053"},{"id":"002364","name":"海怡半島","lat":"22.242733542091","long":"114.14933054053"}],"routeId":"592"},{"company":"CTB","route":"592","routeType":null,"dir":"O","orig":"海怡半島","dest":"銅鑼灣 (摩頓台)","stopList":[{"id":"002364","name":"海怡半島","lat":"22.242733542091","long":"114.14933054053"},{"id":"002262","name":"海怡半島美暉閣, 海怡路","lat":"22.243157002091","long":"114.14715151053"},{"id":"002263","name":"海怡半島海韻閣, 海怡路","lat":"22.244439312091","long":"114.14732855053"},{"id":"002170","name":"鴨脷洲邨利澤樓, 鴨脷洲橋道","lat":"22.244216852091","long":"114.14986319053"},{"id":"002171","name":"鴨脷洲邨, 鴨脷洲橋道","lat":"22.244050472091","long":"114.15065886053"},{"id":"002172","name":"利枝道, 鴨脷洲橋道","lat":"22.243305822091","long":"114.15525315053"},{"id":"002173","name":"鴨脷洲徑, 鴨脷洲橋道","lat":"22.243626692091","long":"114.15653776053"},{"id":"002343","name":"香港仔工業學校, 黃竹坑道","lat":"22.248699582091","long":"114.16253441053"},{"id":"002344","name":"甄沾記大廈, 黃竹坑道","lat":"22.248523252091","long":"114.16362493053"},{"id":"002345","name":"黃竹坑遊樂場, 黃竹坑道","lat":"22.250546142091","long":"114.17056977053"},{"id":"002347","name":"香港仔隧道收費廣場","lat":"22.249960892091","long":"114.17585543053"},{"id":"002467","name":"立德里, 摩理臣山道","lat":"22.276064312091","long":"114.18020849053"},{"id":"002436","name":"馬師道, 軒尼詩道","lat":"22.279098672091","long":"114.18022050053"},{"id":"002555","name":"百德新街, 怡和街","lat":"22.279935442091","long":"114.18558549053"},{"id":"002535","name":"聖保祿醫院, 銅鑼灣道","lat":"22.278919992091","long":"114.18806171053"},{"id":"002536","name":"銅鑼灣 (摩頓台)","lat":"22.278739572091","long":"114.18998843053"}],"routeId":"592"}]