[{"company":"kmb","route":"59A","routeType":"1","dir":"O","orig":"屯門碼頭","dest":"葵芳(葵翠邨)","stopList":[{"id":"8D6792FF38584BE0","name":"屯門碼頭總站","lat":"22.372714","long":"113.966656"},{"id":"015AD88813C61900","name":"美樂花園","lat":"22.375412","long":"113.960844"},{"id":"B88E6F52E2BC2E34","name":"蝴蝶站","lat":"22.378219","long":"113.961708"},{"id":"3FAE59A79C8BCC93","name":"新屯門中心","lat":"22.381791","long":"113.963366"},{"id":"A1D3216AF158C117","name":"龍門站","lat":"22.385573","long":"113.965241"},{"id":"ED364A58F885DC92","name":"荃景圍天橋","lat":"22.375761","long":"114.107956"},{"id":"5941DC3E9FA7BE8B","name":"愉景新城","lat":"22.375009","long":"114.112917"},{"id":"85B0E39398B91605","name":"荃灣站","lat":"22.374120","long":"114.115025"},{"id":"1F934873940D1F49","name":"荃灣眾安街","lat":"22.372659","long":"114.118190"},{"id":"AAB411C52D067AD1","name":"大窩口站","lat":"22.370533","long":"114.124151"},{"id":"6ED65F69CDBFDEB6","name":"昌榮路迴旋處","lat":"22.370145","long":"114.132069"},{"id":"0E65D3EC41A1D34B","name":"葵俊苑","lat":"22.364682","long":"114.132892"},{"id":"4E3FEA4E559A5D16","name":"新葵興花園","lat":"22.362423","long":"114.132128"},{"id":"DA17B01A4A61A358","name":"葵芳邨","lat":"22.359821","long":"114.131178"},{"id":"376B94FDBA371A25","name":"葵芳(葵翠邨)總站","lat":"22.356476","long":"114.128697"}],"routeId":"59A"},{"company":"kmb","route":"59A","routeType":"1","dir":"I","orig":"葵芳(葵翠邨)","dest":"屯門碼頭","stopList":[{"id":"376B94FDBA371A25","name":"葵芳(葵翠邨)總站","lat":"22.356476","long":"114.128697"},{"id":"3CB45560769AA11A","name":"葵芳邨","lat":"22.358482","long":"114.130387"},{"id":"2351E4570FFCE620","name":"光輝圍","lat":"22.368143","long":"114.133736"},{"id":"AB10F01039440464","name":"葵涌健全街","lat":"22.370324","long":"114.131214"},{"id":"354A2C15BD189228","name":"大窩口站","lat":"22.370356","long":"114.124855"},{"id":"5AF593F7A11180E2","name":"荃灣眾安街","lat":"22.371566","long":"114.118883"},{"id":"A8430DB27637D95F","name":"福來邨永樂樓","lat":"22.373874","long":"114.114919"},{"id":"E083D2189A733B79","name":"荃景圍天橋","lat":"22.375398","long":"114.108928"},{"id":"C0E4673A18CF6D06","name":"龍逸邨","lat":"22.387145","long":"113.968011"},{"id":"AD25F24A6E6ACEE3","name":"富健花園","lat":"22.383870","long":"113.964718"},{"id":"83A02749D0CB2EE8","name":"新屯門中心","lat":"22.381790","long":"113.963853"},{"id":"3104B2FBA1EEE592","name":"兆山苑柳景閣","lat":"22.377425","long":"113.961420"},{"id":"86D1BF834F627D5C","name":"蝴蝶邨蝶心樓","lat":"22.374166","long":"113.962277"},{"id":"1D944152BA58ABF3","name":"湖景邨湖碧樓","lat":"22.373681","long":"113.964085"},{"id":"722B3DD3D7BCFA21","name":"屯門碼頭(兆禧苑)","lat":"22.373120","long":"113.966618"},{"id":"8D6792FF38584BE0","name":"屯門碼頭總站","lat":"22.372714","long":"113.966656"}],"routeId":"59A"}]