[{"company":"gmb","route":"59B","routeType":1,"orig":"香港仔(東勝道)","dest":"深灣道公共交通總站(經葛量洪醫院)(循環線)","stopList":[{"id":20000341,"name":"東勝道, 裕景中心外 ","lat":22.248047626470388,"long":22.248047626470388},{"id":20000327,"name":"香港仔大道178號","lat":22.248968822474296,"long":22.248968822474296},{"id":20000240,"name":"黃竹坑道 49-51號外, 近消防局","lat":22.249367280637806,"long":22.249367280637806},{"id":20007311,"name":"葛量洪醫院","lat":22.251345209093387,"long":22.251345209093387},{"id":20000159,"name":"警校道, 近新加坡國際學校","lat":22.24542090969044,"long":22.24542090969044},{"id":20000343,"name":"深灣道, 南濤閣第3座外","lat":22.24486085766214,"long":22.24486085766214},{"id":20000160,"name":"深灣道公共交通總站","lat":22.243137411689396,"long":22.243137411689396},{"id":20002734,"name":"深灣道, 南濤閣第3座對面","lat":22.245167904597075,"long":22.245167904597075},{"id":20000161,"name":"南朗山道, 南朗山道熟食巿場外","lat":22.247290150200527,"long":22.247290150200527},{"id":20002735,"name":"黃竹坑道, 南朗山道休憩處外","lat":22.24840994310779,"long":22.24840994310779},{"id":20000361,"name":"香港仔海傍道, 逸港居外","lat":22.24756948944506,"long":22.24756948944506},{"id":20000169,"name":"香港仔海傍道, 香港仔海濱公園外","lat":22.246954996200248,"long":22.246954996200248},{"id":20000341,"name":"東勝道, 裕景中心外 ","lat":22.248047626470388,"long":22.248047626470388}],"routeId":2002714,"description":"特别班次"}]