[{"company":"kmb","route":"59M","routeType":"1","dir":"O","orig":"屯門碼頭","dest":"荃灣站","stopList":[{"id":"ED380ED65FFA508C","name":"屯門碼頭總站","lat":"22.372706","long":"113.966721"},{"id":"015AD88813C61900","name":"美樂花園","lat":"22.375412","long":"113.960844"},{"id":"B88E6F52E2BC2E34","name":"蝴蝶站","lat":"22.378219","long":"113.961708"},{"id":"3FAE59A79C8BCC93","name":"新屯門中心","lat":"22.381791","long":"113.963366"},{"id":"A1D3216AF158C117","name":"龍門站","lat":"22.385573","long":"113.965241"},{"id":"2560149CE75EABA0","name":"屯門公路轉車站 (A6)","lat":"22.362751","long":"114.015706"},{"id":"CA6AB8446B694566","name":"屯門公路轉車站 (A5)","lat":"22.362630","long":"114.015810"},{"id":"D893FD9E88E2A98D","name":"荃景圍天橋","lat":"22.375764","long":"114.107846"},{"id":"81C7DC25FD107DD2","name":"愉景新城","lat":"22.375033","long":"114.112864"},{"id":"0653C07D043A0E97","name":"荃灣站巴士總站","lat":"22.373948","long":"114.116140"}],"routeId":"59M","description":"特別班次"},{"company":"kmb","route":"59M","routeType":"2","dir":"O","orig":"悅湖山莊","dest":"荃灣站","stopList":[{"id":"11FCA01F6AF8D08A","name":"悅湖山莊總站","lat":"22.374816","long":"113.968628"},{"id":"40F7A5D10A2CBE9E","name":"兆山苑椰景閣","lat":"22.378458","long":"113.963776"},{"id":"3FAE59A79C8BCC93","name":"新屯門中心","lat":"22.381791","long":"113.963366"},{"id":"A1D3216AF158C117","name":"龍門站","lat":"22.385573","long":"113.965241"},{"id":"2560149CE75EABA0","name":"屯門公路轉車站 (A6)","lat":"22.362751","long":"114.015706"},{"id":"CA6AB8446B694566","name":"屯門公路轉車站 (A5)","lat":"22.362630","long":"114.015810"},{"id":"D893FD9E88E2A98D","name":"荃景圍天橋","lat":"22.375764","long":"114.107846"},{"id":"81C7DC25FD107DD2","name":"愉景新城","lat":"22.375033","long":"114.112864"},{"id":"0653C07D043A0E97","name":"荃灣站巴士總站","lat":"22.373948","long":"114.116140"}],"routeId":"59M","description":"特別班次"},{"company":"kmb","route":"59M","routeType":"3","dir":"O","orig":"新屯門中心","dest":"荃灣站","stopList":[{"id":"F8EBC8391EB73776","name":"新屯門中心","lat":"22.380926","long":"113.964273"},{"id":"3FAE59A79C8BCC93","name":"新屯門中心","lat":"22.381791","long":"113.963366"},{"id":"A1D3216AF158C117","name":"龍門站","lat":"22.385573","long":"113.965241"},{"id":"2560149CE75EABA0","name":"屯門公路轉車站 (A6)","lat":"22.362751","long":"114.015706"},{"id":"CA6AB8446B694566","name":"屯門公路轉車站 (A5)","lat":"22.362630","long":"114.015810"},{"id":"D893FD9E88E2A98D","name":"荃景圍天橋","lat":"22.375764","long":"114.107846"},{"id":"81C7DC25FD107DD2","name":"愉景新城","lat":"22.375033","long":"114.112864"},{"id":"0653C07D043A0E97","name":"荃灣站巴士總站","lat":"22.373948","long":"114.116140"}],"routeId":"59M","description":"特別班次"},{"company":"kmb","route":"59M","routeType":"1","dir":"I","orig":"荃灣站","dest":"屯門碼頭","stopList":[{"id":"0653C07D043A0E97","name":"荃灣站巴士總站","lat":"22.373948","long":"114.116140"},{"id":"36C3B12BD3112CCB","name":"福來邨永康樓","lat":"22.374590","long":"114.113206"},{"id":"E083D2189A733B79","name":"荃景圍天橋","lat":"22.375398","long":"114.108928"},{"id":"0269A1F9D98C737E","name":"屯門公路轉車站 (B7)","lat":"22.357963","long":"114.019242"},{"id":"A8B22902BD665766","name":"屯門公路轉車站 (B4)","lat":"22.358465","long":"114.018779"},{"id":"C0E4673A18CF6D06","name":"龍逸邨","lat":"22.387145","long":"113.968011"},{"id":"AD25F24A6E6ACEE3","name":"富健花園","lat":"22.383870","long":"113.964718"},{"id":"83A02749D0CB2EE8","name":"新屯門中心","lat":"22.381790","long":"113.963853"},{"id":"3104B2FBA1EEE592","name":"兆山苑柳景閣","lat":"22.377425","long":"113.961420"},{"id":"86D1BF834F627D5C","name":"蝴蝶邨蝶心樓","lat":"22.374166","long":"113.962277"},{"id":"1D944152BA58ABF3","name":"湖景邨湖碧樓","lat":"22.373681","long":"113.964085"},{"id":"722B3DD3D7BCFA21","name":"屯門碼頭(兆禧苑)","lat":"22.373120","long":"113.966618"},{"id":"ED380ED65FFA508C","name":"屯門碼頭總站","lat":"22.372706","long":"113.966721"}],"routeId":"59M","description":"特別班次"},{"company":"gmb","route":"59M","routeType":1,"orig":"翠屏南邨","dest":"福塘道(循環線)","stopList":[{"id":20012539,"name":"翠屏南邨翠松樓外","lat":22.31306155183017,"long":22.31306155183017},{"id":20012076,"name":"翠屏南邨翠桐樓外","lat":22.312780705581233,"long":22.312780705581233},{"id":20012077,"name":"翠屏南邨翠榮樓外","lat":22.312527604718916,"long":22.312527604718916},{"id":20012089,"name":"福塘道, 港鐵站","lat":22.311912303009066,"long":22.311912303009066},{"id":20012090,"name":"翠屏道, 基督教家庭服務中心賽馬會大樓外","lat":22.31171370863985,"long":22.31171370863985},{"id":20012091,"name":"翠屏北邨翠梓樓外","lat":22.31340104889151,"long":22.31340104889151},{"id":20012098,"name":"翠屏南邨翠樂樓對面","lat":22.312780705581233,"long":22.312780705581233},{"id":20012094,"name":"翠屏南邨翠杏樓對面","lat":22.31243083073853,"long":22.31243083073853},{"id":20012095,"name":"翠屏南邨翠榮樓對面","lat":22.312597083432692,"long":22.312597083432692},{"id":20012096,"name":"翠屏南邨翠桐樓對面","lat":22.312832814525347,"long":22.312832814525347},{"id":20012097,"name":"翠屏南邨翠松樓外","lat":22.31307350796715,"long":22.31307350796715}],"routeId":2004398,"description":"特別班次"}]