[{"company":"gmb","route":"59S","routeType":1,"orig":"香港仔 (東勝道)","dest":"海洋公園 (水上樂園)","stopList":[{"id":1,"name":"東勝道, 裕景中心外 ","lat":22.248047626470388,"long":22.248047626470388},{"id":2,"name":"南朗山道, 南朗山道熟食市場對面","lat":22.24748930154742,"long":22.24748930154742},{"id":3,"name":"深灣道, 水上樂園","lat":22.23610368704093,"long":22.23610368704093}],"routeId":2004230,"description":"特別班次"},{"company":"gmb","route":"59S","routeType":2,"orig":"海洋公園 (水上樂園)","dest":"香港仔 (東勝道)","stopList":[{"id":1,"name":"深灣道, 水上樂園","lat":22.23610368704093,"long":22.23610368704093},{"id":2,"name":"深灣道公共交通總站","lat":22.243137411689396,"long":22.243137411689396},{"id":3,"name":"深灣道, 南濤閣第3座對面","lat":22.245167904597075,"long":22.245167904597075},{"id":4,"name":"南朗山道, 南朗山道熟食市場外","lat":22.247167869657563,"long":22.247167869657563},{"id":5,"name":"黃竹坑道, 南朗山道休憩處外","lat":22.248399812920372,"long":22.248399812920372},{"id":6,"name":"香港仔海傍道, 逸港居外","lat":22.24756948944506,"long":22.24756948944506},{"id":7,"name":"香港仔海傍道, 香港仔海濱公園外","lat":22.246954996200248,"long":22.246954996200248},{"id":8,"name":"東勝道, 裕景中心外 ","lat":22.248047626470388,"long":22.248047626470388}],"routeId":2004230,"description":"特別班次"}]