[{"company":"ctb","route":"5B","routeType":null,"dir":"I","orig":"銅鑼灣／香港大球場","dest":"堅尼地城","stopList":[{"id":"001333","name":"皇仁書院, 銅鑼灣道","lat":"22.280980392091","long":"114.19206074053"},{"id":"001334","name":"中華游樂會, 銅鑼灣道","lat":"22.279131322091","long":"114.19176929053"},{"id":"002465","name":"香港中央圖書館, 摩頓台","lat":"22.279536862091","long":"114.18897018053"},{"id":"002410","name":"香港大球場, 東院道","lat":"22.274111452091","long":"114.18868033053"},{"id":"002556","name":"加路連山道","lat":"22.275647122091","long":"114.18603942053"},{"id":"002474","name":"邊寧頓街","lat":"22.278458822091","long":"114.18603081053"},{"id":"002554","name":"怡和街","lat":"22.279929702091","long":"114.18500787053"},{"id":"002439","name":"希慎廣場, 軒尼詩道","lat":"22.279999772091","long":"114.18335916053"},{"id":"002440","name":"堅拿道東, 軒尼詩道","lat":"22.279528242091","long":"114.18192401053"},{"id":"002441","name":"天樂里, 軒尼詩道","lat":"22.278925922091","long":"114.18029774053"},{"id":"002443","name":"廣生行大廈, 軒尼詩道","lat":"22.278031482091","long":"114.17743852053"},{"id":"002446","name":"修頓球場, 軒尼詩道","lat":"22.277433042091","long":"114.17187855053"},{"id":"002449","name":"晏頓街, 軒尼詩道","lat":"22.277666072091","long":"114.16883945053"},{"id":"001140","name":"太古廣場, 金鐘道","lat":"22.278070732091","long":"114.16486695053"},{"id":"001142","name":"中銀大廈, 金鐘道","lat":"22.279480102091","long":"114.16214434053"},{"id":"001054","name":"置地廣場, 德輔道中","lat":"22.281316152091","long":"114.15825054053"},{"id":"001056","name":"中環街市, 德輔道中","lat":"22.284855172091","long":"114.15539392053"},{"id":"001175","name":"急庇利街, 德輔道中","lat":"22.286597682091","long":"114.15157623053"},{"id":"001040","name":"西港城, 干諾道西","lat":"22.287710712091","long":"114.14980124053"},{"id":"001066","name":"皇后街, 德輔道西","lat":"22.287617562091","long":"114.14686036053"},{"id":"001067","name":"高陞街, 德輔道西","lat":"22.287746752091","long":"114.14541645053"},{"id":"001068","name":"正街, 德輔道西","lat":"22.287878642091","long":"114.14161842053"},{"id":"001069","name":"水街, 德輔道西","lat":"22.287186722091","long":"114.13806360053"},{"id":"001070","name":"山道, 德輔道西","lat":"22.286627542091","long":"114.13607459053"},{"id":"001082","name":"堅尼地城游泳池, 堅彌地城海旁","lat":"22.285484642091","long":"114.13174773053"},{"id":"001083","name":"山市街, 堅彌地城海旁","lat":"22.284330652091","long":"114.13037010053"},{"id":"001005","name":"聯邦新樓, 卑路乍街","lat":"22.282463392091","long":"114.12760792053"},{"id":"001164","name":"加惠民道, 域多利道","lat":"22.282072692091","long":"114.12493465053"},{"id":"001152","name":"堅尼地城","lat":"22.282034062091","long":"114.12264943053"}],"routeId":"5B","description":"正常班次"},{"company":"ctb","route":"5B","routeType":null,"dir":"O","orig":"堅尼地城","dest":"銅鑼灣／香港大球場","stopList":[{"id":"001152","name":"堅尼地城","lat":"22.282034062091","long":"114.12264943053"},{"id":"001163","name":"西市街, 域多利道","lat":"22.282182852091","long":"114.12521679053"},{"id":"001022","name":"爹核士街, 吉席街","lat":"22.283220932091","long":"114.12755609053"},{"id":"001080","name":"卑路乍灣公園, 堅彌地城海旁","lat":"22.284354042091","long":"114.13017716053"},{"id":"001079","name":"歌連臣街, 堅彌地城海旁","lat":"22.286364162091","long":"114.13202184053"},{"id":"001059","name":"堅尼地城游泳池休憩處, 德輔道西","lat":"22.287202282091","long":"114.13257171053"},{"id":"001060","name":"山道, 德輔道西","lat":"22.287192342091","long":"114.13433789053"},{"id":"001061","name":"嘉安街, 德輔道西","lat":"22.287117792091","long":"114.13734316053"},{"id":"001062","name":"西區警署, 德輔道西","lat":"22.287960232091","long":"114.14034970053"},{"id":"001063","name":"正街, 德輔道西","lat":"22.287991912091","long":"114.14192498053"},{"id":"001064","name":"東邊街, 德輔道西","lat":"22.287915452091","long":"114.14422510053"},{"id":"001065","name":"修打蘭街, 德輔道西","lat":"22.287779782091","long":"114.14637128053"},{"id":"001187","name":"永安中心, 德輔道中","lat":"22.286401352091","long":"114.15288294053"},{"id":"001173","name":"恒生銀行總行, 德輔道中","lat":"22.284360062091","long":"114.15596819053"},{"id":"001049","name":"德忌利士街, 德輔道中","lat":"22.282866402091","long":"114.15717776053"},{"id":"001025","name":"皇后像廣場, 遮打道","lat":"22.281482342091","long":"114.16005494053"},{"id":"001050","name":"歷山大廈, 德輔道中","lat":"22.281459032091","long":"114.15830013053"},{"id":"001052","name":"遮打花園, 德輔道中","lat":"22.280108962091","long":"114.16064635053"},{"id":"001136","name":"金鐘站, 金鐘道","lat":"22.278462002091","long":"114.16453368053"},{"id":"002430","name":"盧押道, 軒尼詩道","lat":"22.277681222091","long":"114.17099800053"},{"id":"002434","name":"史釗域道, 軒尼詩道","lat":"22.278009642091","long":"114.17617122053"},{"id":"002435","name":"杜老誌道, 軒尼詩道","lat":"22.278720922091","long":"114.17909682053"},{"id":"002438","name":"崇光百貨, 軒尼詩道","lat":"22.280207632091","long":"114.18417804053"},{"id":"002535","name":"聖保祿醫院, 銅鑼灣道","lat":"22.278919992091","long":"114.18806171053"},{"id":"002408","name":"聖光堂, 東院道","lat":"22.276781362091","long":"114.18907948053"},{"id":"002409","name":"東華東院, 東院道","lat":"22.274783552091","long":"114.18983539053"},{"id":"002410","name":"香港大球場, 東院道","lat":"22.274111452091","long":"114.18868033053"}],"routeId":"5B","description":"正常班次"}]