[{"company":"kmb","route":"5X","routeType":"1","dir":"O","orig":"慈雲山(中)","dest":"尖沙咀碼頭","stopList":[{"id":"688797454F595B1F","name":"慈雲山(中)巴士總站","lat":"22.348375","long":"114.200471"},{"id":"31317843D8BA833F","name":"正暉樓","lat":"22.350255","long":"114.201077"},{"id":"FDFC87BC94515900","name":"正康樓","lat":"22.348703","long":"114.202724"},{"id":"E778E67CBC095B0C","name":"德愛中學","lat":"22.348039","long":"114.204250"},{"id":"29F7954D216356E1","name":"貫華里","lat":"22.347134","long":"114.202250"},{"id":"1FEA0FF1E4CB57E8","name":"樂滿樓","lat":"22.347198","long":"114.200596"},{"id":"95067FE712E8ACEA","name":"崇華街","lat":"22.346357","long":"114.198400"},{"id":"20709808D79F1BB9","name":"金鳳街休憩處","lat":"22.344944","long":"114.197735"},{"id":"E81E4649EB1D5B02","name":"美德樓","lat":"22.343510","long":"114.197989"},{"id":"23362ED34834C5F0","name":"黃大仙警署","lat":"22.338933","long":"114.197161"},{"id":"38BDB19C8D7B8DF8","name":"彩虹道遊樂場","lat":"22.337502","long":"114.195595"},{"id":"319CA16456A9010D","name":"新蒲崗寧遠街","lat":"22.333911","long":"114.195054"},{"id":"558599642E78BB9B","name":"香港理工大學","lat":"22.303475","long":"114.177976"},{"id":"BEEBDDB542A7E709","name":"香港科學館","lat":"22.301475","long":"114.176613"},{"id":"48184733EFE9D3E3","name":"尖沙咀麼地道","lat":"22.298487","long":"114.175834"},{"id":"8E8DB91C885F1230","name":"尖東站","lat":"22.294724","long":"114.174189"},{"id":"DCFF4041D0C0ACF8","name":"尖沙咀碼頭","lat":"22.293816","long":"114.168797"}],"routeId":"5X","description":"正常班次"},{"company":"kmb","route":"5X","routeType":"1","dir":"I","orig":"尖沙咀碼頭","dest":"慈雲山(中)","stopList":[{"id":"4D5FBE4639E869E3","name":"尖沙咀碼頭","lat":"22.294478","long":"114.169249"},{"id":"5D75A800F823B45D","name":"尖東站","lat":"22.295152","long":"114.174392"},{"id":"C175ACB534E8C15C","name":"尖沙咀麼地道","lat":"22.297822","long":"114.175434"},{"id":"4139F73177AF267D","name":"加連威老道","lat":"22.299774","long":"114.175855"},{"id":"BB073EF1DACCA6E4","name":"香港科學館","lat":"22.301411","long":"114.176325"},{"id":"33033960343A57A8","name":"紅磡山谷道","lat":"22.309321","long":"114.183816"},{"id":"661FEE32A0D73EB0","name":"王仲銘中學","lat":"22.333958","long":"114.194661"},{"id":"D446D1EA79502BF2","name":"泰東樓","lat":"22.336357","long":"114.194529"},{"id":"DE9BE04046C197C4","name":"黃大仙警署","lat":"22.339206","long":"114.197196"},{"id":"88E23CD2F1AB7AF9","name":"富祐大廈","lat":"22.344130","long":"114.198779"},{"id":"0B160DE955F3AE10","name":"蒲慈里","lat":"22.345923","long":"114.199854"},{"id":"830FACA208087E37","name":"蒲蘅里","lat":"22.346291","long":"114.201905"},{"id":"964AA1DCAAD06512","name":"德愛中學","lat":"22.347594","long":"114.204096"},{"id":"D237B30F94B6065D","name":"慈民邨","lat":"22.348542","long":"114.202610"},{"id":"7D025E77F4B35266","name":"慈安苑","lat":"22.348661","long":"114.201216"},{"id":"EE3B5ABCB87027E7","name":"正暉樓","lat":"22.350378","long":"114.200715"},{"id":"CF2071A75162D381","name":"慈雲山(中)巴士總站","lat":"22.348599","long":"114.200399"}],"routeId":"5X","description":"正常班次"},{"company":"ctb","route":"5X","routeType":null,"dir":"I","orig":"銅鑼灣 (威非路道)","dest":"堅尼地城","stopList":[{"id":"001342","name":"銅鑼灣 (威非路道)","lat":"22.286037612091","long":"114.19055883053"},{"id":"001374","name":"永興街","lat":"22.285345432091","long":"114.19236143053"},{"id":"001333","name":"皇仁書院, 銅鑼灣道","lat":"22.280980392091","long":"114.19206074053"},{"id":"001334","name":"中華游樂會, 銅鑼灣道","lat":"22.279131322091","long":"114.19176929053"},{"id":"002465","name":"香港中央圖書館, 摩頓台","lat":"22.279536862091","long":"114.18897018053"},{"id":"002554","name":"怡和街","lat":"22.279929702091","long":"114.18500787053"},{"id":"002440","name":"堅拿道東, 軒尼詩道","lat":"22.279528242091","long":"114.18192401053"},{"id":"002441","name":"天樂里, 軒尼詩道","lat":"22.278925922091","long":"114.18029774053"},{"id":"002443","name":"廣生行大廈, 軒尼詩道","lat":"22.278031482091","long":"114.17743852053"},{"id":"002446","name":"修頓球場, 軒尼詩道","lat":"22.277433042091","long":"114.17187855053"},{"id":"002449","name":"晏頓街, 軒尼詩道","lat":"22.277666072091","long":"114.16883945053"},{"id":"001140","name":"太古廣場, 金鐘道","lat":"22.278070732091","long":"114.16486695053"},{"id":"001142","name":"中銀大廈, 金鐘道","lat":"22.279480102091","long":"114.16214434053"},{"id":"001122","name":"滙豐總行大廈, 皇后大道中","lat":"22.279919512091","long":"114.15903769053"},{"id":"001106","name":"畢打街","lat":"22.281823852091","long":"114.15738082053"},{"id":"001053","name":"滙豐總行大廈, 德輔道中","lat":"22.280739462091","long":"114.15905007053"},{"id":"001076","name":"歷山大廈, 雪廠街","lat":"22.281372022091","long":"114.15884246053"},{"id":"001034","name":"砵典乍街, 干諾道中","lat":"22.283587582091","long":"114.15730419053"},{"id":"001183","name":"西祥街","lat":"22.285065892091","long":"114.13168092053"},{"id":"001003","name":"山市街, 卑路乍街","lat":"22.283632272091","long":"114.13063421053"},{"id":"001005","name":"聯邦新樓, 卑路乍街","lat":"22.282463392091","long":"114.12760792053"},{"id":"001164","name":"加惠民道, 域多利道","lat":"22.282072692091","long":"114.12493465053"},{"id":"001152","name":"堅尼地城","lat":"22.282034062091","long":"114.12264943053"}],"routeId":"5X","description":"正常班次"},{"company":"ctb","route":"5X","routeType":null,"dir":"O","orig":"堅尼地城","dest":"銅鑼灣 (威非路道)","stopList":[{"id":"001152","name":"堅尼地城","lat":"22.282034062091","long":"114.12264943053"},{"id":"001163","name":"西市街, 域多利道","lat":"22.282182852091","long":"114.12521679053"},{"id":"001022","name":"爹核士街, 吉席街","lat":"22.283220932091","long":"114.12755609053"},{"id":"001080","name":"卑路乍灣公園, 堅彌地城海旁","lat":"22.284354042091","long":"114.13017716053"},{"id":"001081","name":"西祥街, 堅彌地城海旁","lat":"22.284984992091","long":"114.13095631053"},{"id":"001079","name":"歌連臣街, 堅彌地城海旁","lat":"22.286364162091","long":"114.13202184053"},{"id":"001059","name":"堅尼地城游泳池休憩處, 德輔道西","lat":"22.287202282091","long":"114.13257171053"},{"id":"001060","name":"山道, 德輔道西","lat":"22.287192342091","long":"114.13433789053"},{"id":"001061","name":"嘉安街, 德輔道西","lat":"22.287117792091","long":"114.13734316053"},{"id":"001190","name":"水街","lat":"22.287790952091","long":"114.13863698053"},{"id":"002678","name":"中山紀念公園, 干諾道西","lat":"22.289040662091","long":"114.14434647053"},{"id":"001144","name":"國際金融中心二期, 民耀街","lat":"22.285016122091","long":"114.15994519053"},{"id":"001180","name":"郵政總局, 康樂廣場","lat":"22.283258052091","long":"114.15961761053"},{"id":"001031","name":"大會堂, 干諾道中","lat":"22.281868122091","long":"114.16153245053"},{"id":"001136","name":"金鐘站, 金鐘道","lat":"22.278462002091","long":"114.16453368053"},{"id":"002430","name":"盧押道, 軒尼詩道","lat":"22.277681222091","long":"114.17099800053"},{"id":"002434","name":"史釗域道, 軒尼詩道","lat":"22.278009642091","long":"114.17617122053"},{"id":"002435","name":"杜老誌道, 軒尼詩道","lat":"22.278720922091","long":"114.17909682053"},{"id":"002438","name":"崇光百貨, 軒尼詩道","lat":"22.280207632091","long":"114.18417804053"},{"id":"001213","name":"維多利亞公園, 高士威道","lat":"22.281133262091","long":"114.19006592053"},{"id":"001251","name":"興發街","lat":"22.283573922091","long":"114.19109346053"},{"id":"001342","name":"銅鑼灣 (威非路道)","lat":"22.286037612091","long":"114.19055883053"}],"routeId":"5X","description":"正常班次"}]