[{"company":"CTB","route":"608","routeType":null,"dir":"I","orig":"九龍城 (盛德街)","dest":"筲箕灣","stopList":[{"id":"001207","name":"筲箕灣","lat":"22.278421122091","long":"114.22833128053"},{"id":"001301","name":"新成街, 筲箕灣道","lat":"22.278724872091","long":"114.22622512053"},{"id":"001302","name":"海晏街, 筲箕灣道","lat":"22.280716692091","long":"114.22345551053"},{"id":"001303","name":"西灣河文娛中心, 筲箕灣道","lat":"22.281794772091","long":"114.22202073053"},{"id":"001367","name":"太富街, 筲箕灣道","lat":"22.283156802091","long":"114.22094909053"},{"id":"001288","name":"康怡廣場, 康山道","lat":"22.284499762091","long":"114.21671745053"},{"id":"001271","name":"寶峰園, 英皇道","lat":"22.284594642091","long":"114.21416959053"},{"id":"001365","name":"新威園, 英皇道","lat":"22.285529212091","long":"114.21108139053"},{"id":"001274","name":"民新街, 英皇道","lat":"22.289926312091","long":"114.20930325053"},{"id":"001276","name":"健康村, 英皇道","lat":"22.291912702091","long":"114.20634072053"},{"id":"001323","name":"電照街","lat":"22.292956022091","long":"114.20312743053"},{"id":"001464","name":"東區海底隧道收費廣場","lat":"22.301175862091","long":"114.23338190053"},{"id":"001649","name":"常悅道, 宏照道","lat":"22.321241952091","long":"114.20897841053"},{"id":"001607","name":"臨華街, 宏照道","lat":"22.322591022091","long":"114.20883070053"},{"id":"001608","name":"九龍灣運動場, 宏照道","lat":"22.326599152091","long":"114.20842271053"},{"id":"001645","name":"麗晶花園第 18 座, 宏照道","lat":"22.329777772091","long":"114.20810420053"},{"id":"001609","name":"麗晶花園第 13 座, 宏照道","lat":"22.330826612091","long":"114.20684023053"},{"id":"003537","name":"德朗邨, 承啟道","lat":"22.329424582091","long":"114.20487963053"},{"id":"003507","name":"天寰, 沐安街","lat":"22.328876902091","long":"114.20198678053"},{"id":"003611","name":"機電工程署總部, 承啟道","lat":"22.326170162091","long":"114.20259762053"},{"id":"001811","name":"翔龍灣, 土瓜灣道","lat":"22.319877362091","long":"114.19312049053"},{"id":"001812","name":"貴州街, 土瓜灣道","lat":"22.318293832091","long":"114.19163321053"},{"id":"001813","name":"落山道, 土瓜灣道","lat":"22.317070972091","long":"114.19047281053"},{"id":"003538","name":"銀漢街, 土瓜灣道","lat":"22.314961322091","long":"114.18847609053"},{"id":"001534","name":"落山道, 馬頭圍道","lat":"22.316614492091","long":"114.18747797053"},{"id":"001535","name":"天光道, 馬頭圍道","lat":"22.319316112091","long":"114.18745764053"},{"id":"001536","name":"馬頭圍邨洋葵樓, 馬頭圍道","lat":"22.322094642091","long":"114.18743596053"},{"id":"003536","name":"九龍城 (盛德街)","lat":"22.323834302091","long":"114.18760630053"}],"routeId":"608"},{"company":"CTB","route":"608","routeType":null,"dir":"O","orig":"九龍城 (盛德街)","dest":"筲箕灣","stopList":[{"id":"003536","name":"九龍城 (盛德街)","lat":"22.323834302091","long":"114.18760630053"},{"id":"002981","name":"宋皇臺道, 馬頭涌道","lat":"22.324129252091","long":"114.18864144053"},{"id":"001809","name":"北帝街, 木廠街","lat":"22.322934342091","long":"114.19009001053"},{"id":"001810","name":"香港盲人輔導會, 木廠街","lat":"22.321440002091","long":"114.19356059053"},{"id":"003708","name":"沐泰街, 承啟道","lat":"22.324878602091","long":"114.19971627053"},{"id":"003612","name":"機電工程署總部, 承啟道","lat":"22.326253402091","long":"114.20237693053"},{"id":"003504","name":"天寰, 沐安街","lat":"22.328841932091","long":"114.20220607053"},{"id":"003369","name":"德朗邨, 承啟道","lat":"22.330536462091","long":"114.20469159053"},{"id":"001610","name":"麗晶花園第 8 座, 宏照道","lat":"22.331369192091","long":"114.20583246053"},{"id":"001611","name":"啟業邨, 宏照道","lat":"22.328732482091","long":"114.20838013053"},{"id":"003036","name":"香港輔助警察隊總部, 啟祥道","lat":"22.325209412091","long":"114.20694292053"},{"id":"003404","name":"宏展街, 啟祥道","lat":"22.324995262091","long":"114.20461531053"},{"id":"003365","name":"九龍灣國際展貿中心, 啟福道","lat":"22.322713872091","long":"114.20383420053"},{"id":"003366","name":"宏通街, 啟福道","lat":"22.319799482091","long":"114.20722886053"},{"id":"001463","name":"東區海底隧道收費廣場","lat":"22.300498232091","long":"114.23351297053"},{"id":"001265","name":"健康村, 英皇道","lat":"22.292089592091","long":"114.20652344053"},{"id":"002677","name":"模範邨, 英皇道","lat":"22.291670382091","long":"114.20785144053"},{"id":"001267","name":"北角官立小學, 英皇道","lat":"22.288825782091","long":"114.20986716053"},{"id":"001268","name":"新威園, 英皇道","lat":"22.285544382091","long":"114.21133814053"},{"id":"001393","name":"船塢里, 英皇道","lat":"22.284773752091","long":"114.21420833053"},{"id":"001270","name":"太古城中心, 英皇道","lat":"22.285287892091","long":"114.21758355053"},{"id":"001313","name":"太康樓, 太康街","lat":"22.283340892091","long":"114.22177946053"},{"id":"001293","name":"鯉景灣, 鯉景道","lat":"22.284069312091","long":"114.22354484053"},{"id":"001316","name":"西灣河站, 太安街","lat":"22.282354632091","long":"114.22239868053"},{"id":"001297","name":"海晏街, 筲箕灣道","lat":"22.280776032091","long":"114.22363882053"},{"id":"001298","name":"愛秩序灣道, 筲箕灣道","lat":"22.280349712091","long":"114.22504094053"},{"id":"001380","name":"南康街, 筲箕灣道","lat":"22.278882572091","long":"114.22627158053"},{"id":"001207","name":"筲箕灣","lat":"22.278421122091","long":"114.22833128053"}],"routeId":"608"}]