[{"company":"gmb","route":"609","routeType":1,"orig":"元朗大球場","dest":"博愛醫院(循環線)","stopList":[{"id":20011845,"name":"元朗大球場","lat":22.443199463499532,"long":22.443199463499532},{"id":20001263,"name":"青山公路元朗段, 澤榮閣外","lat":22.444628527598113,"long":22.444628527598113},{"id":20001606,"name":"青山公路元朗段, 開心廣場外","lat":22.44459414231771,"long":22.44459414231771},{"id":20001281,"name":"青山公路元朗段, 金豐大廈外","lat":22.44456936461265,"long":22.44456936461265},{"id":20001282,"name":"元朗站(北)公共運輸交匯處","lat":22.446450801758296,"long":22.446450801758296},{"id":20002216,"name":"博愛醫院南翼外","lat":22.44495793941498,"long":22.44495793941498},{"id":20001280,"name":"青山公路, 近凹頭迴旋處","lat":22.443878169813285,"long":22.443878169813285},{"id":20002217,"name":"朗善邨","lat":22.44212510386072,"long":22.44212510386072},{"id":20001286,"name":"青山公路, 近楊屋村","lat":22.444173224968,"long":22.444173224968},{"id":20004199,"name":"青山公路元朗段60號","lat":22.44433338245848,"long":22.44433338245848},{"id":20001289,"name":"青山公路, 大棠路","lat":22.444368961604518,"long":22.444368961604518},{"id":20002218,"name":"青山公路元朗段200號","lat":22.444402477006992,"long":22.444402477006992},{"id":20001248,"name":"元朗商會小學","lat":22.444355296505957,"long":22.444355296505957},{"id":20011845,"name":"元朗大球場","lat":22.443199463499532,"long":22.443199463499532}],"routeId":2001196,"description":"正常班次"}]