[{"company":"KMB","route":"613A","routeType":"1","dir":"O","orig":"安泰(西)","dest":"杏花邨","stopList":[{"id":"FBE07247C3FDB904","name":"安泰(西)(和泰樓)","lat":"22.328027","long":"114.227750"},{"id":"EC1E1868D370F3D9","name":"安泰邨","lat":"22.326704","long":"114.230921"},{"id":"057B2DCE8BE58FFA","name":"愛達樓","lat":"22.323193","long":"114.231750"},{"id":"4A91A327C9FC745E","name":"安達邨","lat":"22.320244","long":"114.234400"},{"id":"EA2CFF27310EAEC3","name":"寶達邨","lat":"22.318256","long":"114.237594"},{"id":"3C0AF6BA82588E2F","name":"秀程樓","lat":"22.320022","long":"114.233232"},{"id":"F8DEE1D5F9A349AD","name":"秀康樓","lat":"22.323034","long":"114.230584"},{"id":"4A14A012710E80B1","name":"秀樂樓","lat":"22.321801","long":"114.230416"},{"id":"3216F11DA45B80D7","name":"秀茂坪商場","lat":"22.319064","long":"114.231863"},{"id":"6F106FD26B684372","name":"秀安樓","lat":"22.316738","long":"114.233354"},{"id":"26305AF62FBEE2BC","name":"秀明樓","lat":"22.315095","long":"114.234630"},{"id":"D83C4CC1305E35E9","name":"上秀茂坪","lat":"22.315073","long":"114.235696"},{"id":"5BDD5F9F4C89D3E1","name":"藍田站","lat":"22.307106","long":"114.233517"},{"id":"9535298A652873DB","name":"東區海底隧道","lat":"22.300285","long":"114.233264"},{"id":"57FA25A4EF6DC06B","name":"健康村","lat":"22.292185","long":"114.206168"},{"id":"A49CD3D666BD82B3","name":"模範邨","lat":"22.291653","long":"114.207838"},{"id":"85CACCFD0C731C5B","name":"北角官立小學","lat":"22.288917","long":"114.209889"},{"id":"A77FC2D2F11EC88B","name":"新威園","lat":"22.285820","long":"114.211232"},{"id":"3D72573A84FB828E","name":"船塢里","lat":"22.284791","long":"114.214125"},{"id":"FDEC48CF813DC294","name":"太古城中心","lat":"22.285357","long":"114.217490"},{"id":"7D9DEEF866E001C7","name":"太安樓","lat":"22.282487","long":"114.221810"},{"id":"5AA2B931E2B0351D","name":"海晏街","lat":"22.280796","long":"114.223727"},{"id":"DA08A866466BF360","name":"愛秩序灣道","lat":"22.280352","long":"114.225182"},{"id":"C240222368E20D66","name":"南安里","lat":"22.277896","long":"114.226911"},{"id":"EF17411CD85807EE","name":"阿公岩道","lat":"22.274977","long":"114.231063"},{"id":"D9C6E05CF96CEEAE","name":"鯉魚門公園","lat":"22.273972","long":"114.231542"},{"id":"F35D6943E16A8DB0","name":"大潭道","lat":"22.271611","long":"114.233266"},{"id":"19EC738CA52DEFBF","name":"東區醫院","lat":"22.268443","long":"114.233719"},{"id":"2C86CB44C20CCC97","name":"高威閣","lat":"22.266651","long":"114.233785"},{"id":"6EC0583BAD08CA5A","name":"康民街","lat":"22.264620","long":"114.234507"},{"id":"EFA71508B2EBD9B9","name":"怡泰街","lat":"22.263346","long":"114.238949"},{"id":"5E77ADDA52B97105","name":"漁灣邨","lat":"22.265312","long":"114.241787"},{"id":"A3A9BF4F24607EA4","name":"常安街","lat":"22.266015","long":"114.245230"},{"id":"A07D1CF3E65DA64F","name":"富欣花園","lat":"22.264888","long":"114.248010"},{"id":"2CC23C7A21A51FFF","name":"富欣道","lat":"22.265030","long":"114.249435"},{"id":"298976EDF9DF1004","name":"小西灣運動場","lat":"22.266386","long":"114.248631"},{"id":"E34948ABDF8285ED","name":"富城閣","lat":"22.265767","long":"114.245620"},{"id":"6546B62F4E723EB6","name":"翠灣邨翠壽樓","lat":"22.268620","long":"114.240685"},{"id":"6DCB4A578EFF1986","name":"香港專業教育學院","lat":"22.270353","long":"114.239877"},{"id":"C9071710C1DEE3C7","name":"杏花邨總站","lat":"22.275356","long":"114.241023"}],"routeId":"613A"}]