[{"company":"gmb","route":"616S","routeType":1,"orig":"旺角","dest":"落馬洲管制站","stopList":[{"id":20012427,"name":"西洋菜南街,近始創中心","lat":22.322288322687438,"long":114.16918909683694},{"id":20012428,"name":"旺角道, 捷利大廈外","lat":22.321067285616348,"long":114.16982761679593},{"id":20012429,"name":"洗衣街, 建煌華廈外","lat":22.320624084802006,"long":114.17155135268244},{"id":20000912,"name":"亞皆老街, 嘉麗園外","lat":22.320158629867134,"long":114.17334136941656},{"id":20012430,"name":"窩打老道","lat":22.333426231517773,"long":114.17870593121579},{"id":20012431,"name":"新深路","lat":22.50486872597546,"long":114.07838556347997},{"id":20011698,"name":"落馬洲管制站","lat":22.506719103376746,"long":114.0761307284343}],"routeId":2004762,"description":"通宵班次"},{"company":"gmb","route":"616S","routeType":2,"orig":"落馬洲管制站","dest":"旺角","stopList":[{"id":20011698,"name":"落馬洲管制站","lat":22.506719103376746,"long":114.0761307284343},{"id":20012433,"name":"新深路","lat":22.504798379645944,"long":114.07877342348837},{"id":20012434,"name":"窩打老道","lat":22.333491451196448,"long":114.17899114444339},{"id":20000469,"name":"亞皆老街, 嘉麗園外","lat":22.319968992244526,"long":114.17357431832743},{"id":20000715,"name":"奶路臣街, 麥花臣遊樂場外","lat":22.318801339302595,"long":114.17232229621733},{"id":20000717,"name":"洗衣街, 建煌華廈外","lat":22.320583014037734,"long":114.17139044268337},{"id":20012427,"name":"西洋菜南街,近始創中心","lat":22.322288322687438,"long":114.16918909683694}],"routeId":2004762,"description":"通宵班次"}]