[{"company":"kmb","route":"619","routeType":"1","dir":"O","orig":"順利","dest":"中環(港澳碼頭)","stopList":[{"id":"ECCCAB1120D6B6C6","name":"順利總站","lat":"22.331331","long":"114.226410"},{"id":"A28048B524056C9D","name":"利明樓","lat":"22.331578","long":"114.224804"},{"id":"484F835517494767","name":"安逸樓","lat":"22.328625","long":"114.227099"},{"id":"2CFCDB6EA2892637","name":"順天總站","lat":"22.326262","long":"114.226668"},{"id":"E308599CF719FE37","name":"天韻樓","lat":"22.326009","long":"114.228653"},{"id":"6765DD696FA8BF8D","name":"寧波第二中學","lat":"22.323885","long":"114.227862"},{"id":"0CA3C6C38D2F3F75","name":"康寧道公園","lat":"22.321413","long":"114.224419"},{"id":"FAF9EF8853A3B65E","name":"樂華南邨","lat":"22.320642","long":"114.222775"},{"id":"C9F3531BB5050372","name":"樂雅苑","lat":"22.321831","long":"114.220956"},{"id":"9D431DF484149B75","name":"安基苑","lat":"22.322840","long":"114.217634"},{"id":"5358062C769CEC05","name":"牛頭角上邨","lat":"22.320611","long":"114.215750"},{"id":"C32B9494869D5BBF","name":"喜鵲樓","lat":"22.317173","long":"114.217511"},{"id":"A880D4A7E3310AEB","name":"創紀之城 (U7)","lat":"22.314630","long":"114.220789"},{"id":"F2127FD781019971","name":"觀塘轉車站 - 觀塘市中心 (T2)","lat":"22.313042","long":"114.224931"},{"id":"114381B039350CBB","name":"觀塘站","lat":"22.311431","long":"114.227935"},{"id":"5AAC6A858427D04E","name":"觀塘游泳池 (R3)","lat":"22.310432","long":"114.229545"},{"id":"5BDD5F9F4C89D3E1","name":"藍田站","lat":"22.307106","long":"114.233517"},{"id":"E0558D2901ECC032","name":"東隧轉車站 (K1)","lat":"22.300400","long":"114.233560"},{"id":"745B539CC1A71251","name":"港運城","lat":"22.291453","long":"114.202388"},{"id":"DDAA6CA9D68D3BA5","name":"美麗閣","lat":"22.290644","long":"114.198396"},{"id":"DA2677E4FF848D7C","name":"炮台山站","lat":"22.288858","long":"114.194230"},{"id":"5B0682EF0C8397A2","name":"清風街天橋","lat":"22.286387","long":"114.193069"},{"id":"A68AAD43AC1A238F","name":"百德新街","lat":"22.282487","long":"114.185193"},{"id":"68A16FFD6C0EC2A2","name":"伊利莎伯大廈","lat":"22.280958","long":"114.181248"},{"id":"C2B8BCB3CC0D2214","name":"杜老誌道","lat":"22.279823","long":"114.178001"},{"id":"93D084D7713119D8","name":"柯布連道","lat":"22.279123","long":"114.173685"},{"id":"9B01BEC701652627","name":"分域街","lat":"22.279064","long":"114.171201"},{"id":"4395252CFDC7AB1F","name":"皇后像廣場","lat":"22.281928","long":"114.160194"},{"id":"52C01B7F122297BD","name":"砵典乍街","lat":"22.283712","long":"114.157197"},{"id":"B42222C6800A33A2","name":"租庇利街","lat":"22.285203","long":"114.156015"},{"id":"A8CD8C1198907526","name":"林士街","lat":"22.286471","long":"114.154022"},{"id":"3E2E0FF05B36999C","name":"港澳碼頭巴士總站","lat":"22.288579","long":"114.150069"}],"routeId":"619","description":"正常班次"},{"company":"kmb","route":"619","routeType":"1","dir":"I","orig":"中環(港澳碼頭)","dest":"順利","stopList":[{"id":"3E2E0FF05B36999C","name":"港澳碼頭巴士總站","lat":"22.288579","long":"114.150069"},{"id":"89ED5D96534CED83","name":"中環街市","lat":"22.285077","long":"114.155435"},{"id":"5298A15B8CCAEF42","name":"德忌利士街","lat":"22.283274","long":"114.156906"},{"id":"A9069A17B1474D76","name":"皇后像廣場","lat":"22.280854","long":"114.159427"},{"id":"3007D34FB91FB27E","name":"金鐘站","lat":"22.278270","long":"114.165080"},{"id":"255401DABB64289D","name":"盧押道","lat":"22.277721","long":"114.171104"},{"id":"16CE9E8D17681839","name":"菲林明道","lat":"22.277778","long":"114.173601"},{"id":"A71457854D13E9DE","name":"史釗域道","lat":"22.278055","long":"114.176009"},{"id":"2B9DA1FE14596F2E","name":"杜老誌道","lat":"22.278543","long":"114.178441"},{"id":"A07CC0A6D462A579","name":"灣仔消防局","lat":"22.279790","long":"114.181986"},{"id":"4EE6F43CF8D6217D","name":"百德新街","lat":"22.280005","long":"114.185477"},{"id":"9541036143D6CCF1","name":"維多利亞公園","lat":"22.281144","long":"114.190058"},{"id":"1A0BCDF4BDC3E1A9","name":"銀幕街","lat":"22.283562","long":"114.192415"},{"id":"A4EBD881BA65C831","name":"七海商業中心","lat":"22.287699","long":"114.192943"},{"id":"05C0C27B083F2C00","name":"電廠街","lat":"22.289997","long":"114.195036"},{"id":"322A5914FD96DE4B","name":"新光戲院","lat":"22.291222","long":"114.200013"},{"id":"33D2B3AB9D2CCDF3","name":"港運城","lat":"22.291733","long":"114.202568"},{"id":"D678B3364437D16B","name":"東隧轉車站 (L1)","lat":"22.301070","long":"114.232925"},{"id":"2EF9764BE18FC290","name":"藍田站","lat":"22.305354","long":"114.234128"},{"id":"5B04604E989BBDF0","name":"觀塘法院 (F1)","lat":"22.310012","long":"114.229524"},{"id":"CCD89A67612BB17B","name":"裕民坊","lat":"22.313719","long":"114.224679"},{"id":"DBEA3F848C7981F2","name":"牛頭角站","lat":"22.315272","long":"114.219744"},{"id":"84BACA14B0C50790","name":"觀塘官立小學","lat":"22.316752","long":"114.217683"},{"id":"9C4CA9F8953C0C88","name":"牛頭角下邨","lat":"22.320741","long":"114.215545"},{"id":"921C19F6147C74A6","name":"振華苑","lat":"22.322426","long":"114.218357"},{"id":"47C3597662B81B47","name":"樂雅苑","lat":"22.322730","long":"114.220872"},{"id":"7EF64469471FE344","name":"樂華南邨","lat":"22.320826","long":"114.222941"},{"id":"0A03521DFD20FEA9","name":"康寧道公園","lat":"22.320977","long":"114.224024"},{"id":"0511A6AC2CBC9A21","name":"寧波第二中學","lat":"22.324359","long":"114.228816"},{"id":"6E113B962058A553","name":"順天總站","lat":"22.326367","long":"114.226727"},{"id":"62F953A6FC5652BE","name":"順安邨","lat":"22.328777","long":"114.227035"},{"id":"ECCCAB1120D6B6C6","name":"順利總站","lat":"22.331331","long":"114.226410"}],"routeId":"619","description":"正常班次"},{"company":"ctb","route":"619","routeType":null,"dir":"I","orig":"順利邨","dest":"中環 (港澳碼頭)","stopList":[{"id":"001664","name":"順利邨","lat":"22.331334592091","long":"114.22640594053"},{"id":"001786","name":"順利邨利明樓, 順清街","lat":"22.331738642091","long":"114.22452414053"},{"id":"001744","name":"順安邨安逸樓, 利安道","lat":"22.327285442091","long":"114.22676750053"},{"id":"001663","name":"順天邨","lat":"22.326370052091","long":"114.22674623053"},{"id":"001745","name":"順天邨天韻樓, 順安道","lat":"22.326063382091","long":"114.22836333053"},{"id":"001665","name":"寧波第二中學, 秀茂坪道","lat":"22.323814362091","long":"114.22771112053"},{"id":"001756","name":"康寧道公園, 康寧道","lat":"22.321442732091","long":"114.22444475053"},{"id":"001666","name":"樂華南邨, 振華道","lat":"22.320782172091","long":"114.22260176053"},{"id":"001667","name":"樂雅苑, 振華道","lat":"22.321900602091","long":"114.22087366053"},{"id":"001668","name":"安基苑, 振華道","lat":"22.322754872091","long":"114.21714177053"},{"id":"001669","name":"牛頭角上邨, 牛頭角道","lat":"22.320624872091","long":"114.21569085053"},{"id":"001656","name":"花園大廈喜鵲樓, 牛頭角道","lat":"22.317085042091","long":"114.21761447053"},{"id":"003458","name":"創紀之城, 觀塘道","lat":"22.314560622091","long":"114.22091911053"},{"id":"001509","name":"觀塘市中心, 觀塘道","lat":"22.313441392091","long":"114.22397362053"},{"id":"001510","name":"觀塘站","lat":"22.311633112091","long":"114.22761751053"},{"id":"001518","name":"觀塘游泳池, 鯉魚門道","lat":"22.310380582091","long":"114.22952246053"},{"id":"001519","name":"藍田站","lat":"22.307091882091","long":"114.23347123053"},{"id":"001463","name":"東區海底隧道收費廣場","lat":"22.300498232091","long":"114.23351297053"},{"id":"001278","name":"港運城, 英皇道","lat":"22.291505782091","long":"114.20241339053"},{"id":"001281","name":"美麗閣, 英皇道","lat":"22.290567652091","long":"114.19788360053"},{"id":"001283","name":"炮台山站, 英皇道","lat":"22.288146742091","long":"114.19355472053"},{"id":"001285","name":"清風街天橋, 英皇道","lat":"22.286174722091","long":"114.19303544053"},{"id":"002568","name":"百德新街, 告士打道","lat":"22.282502402091","long":"114.18503389053"},{"id":"002415","name":"伊利莎伯大廈, 告士打道","lat":"22.281055962091","long":"114.18141062053"},{"id":"002564","name":"杜老誌道, 告士打道","lat":"22.279901382091","long":"114.17813598053"},{"id":"002418","name":"柯布連道, 告士打道","lat":"22.279144192091","long":"114.17345730053"},{"id":"002420","name":"分域街, 告士打道","lat":"22.279104112091","long":"114.17085514053"},{"id":"001033","name":"皇后像廣場, 干諾道中","lat":"22.281992192091","long":"114.16003822053"},{"id":"001034","name":"砵典乍街, 干諾道中","lat":"22.283587582091","long":"114.15730419053"},{"id":"001036","name":"租庇利街, 干諾道中","lat":"22.285203642091","long":"114.15604393053"},{"id":"001037","name":"林士街, 干諾道中","lat":"22.286484072091","long":"114.15404315053"},{"id":"001027","name":"中環 (港澳碼頭)","lat":"22.288274152091","long":"114.15042248053"}],"routeId":"619","description":"正常班次"},{"company":"ctb","route":"619","routeType":null,"dir":"O","orig":"中環 (港澳碼頭)","dest":"順利邨","stopList":[{"id":"001027","name":"中環 (港澳碼頭)","lat":"22.288274152091","long":"114.15042248053"},{"id":"001046","name":"中環街市, 德輔道中","lat":"22.285207892091","long":"114.15517314053"},{"id":"001047","name":"德忌利士街, 德輔道中","lat":"22.283301982091","long":"114.15683404053"},{"id":"001051","name":"皇后像廣場, 德輔道中","lat":"22.280748762091","long":"114.15964401053"},{"id":"001137","name":"金鐘站, 金鐘道","lat":"22.278348592091","long":"114.16493918053"},{"id":"002430","name":"盧押道, 軒尼詩道","lat":"22.277681222091","long":"114.17099800053"},{"id":"002432","name":"菲林明道, 軒尼詩道","lat":"22.277753192091","long":"114.17369502053"},{"id":"002434","name":"史釗域道, 軒尼詩道","lat":"22.278009642091","long":"114.17617122053"},{"id":"002435","name":"杜老誌道, 軒尼詩道","lat":"22.278720922091","long":"114.17909682053"},{"id":"002437","name":"灣仔消防局, 軒尼詩道","lat":"22.279686862091","long":"114.18178779053"},{"id":"002555","name":"百德新街, 怡和街","lat":"22.279935442091","long":"114.18558549053"},{"id":"001213","name":"維多利亞公園, 高士威道","lat":"22.281133262091","long":"114.19006592053"},{"id":"001259","name":"銀幕街, 英皇道","lat":"22.283615512091","long":"114.19246041053"},{"id":"001260","name":"七海商業中心, 英皇道","lat":"22.287742812091","long":"114.19296558053"},{"id":"001261","name":"電廠街, 英皇道","lat":"22.290056622091","long":"114.19505769053"},{"id":"001263","name":"新光戲院, 英皇道","lat":"22.291180532091","long":"114.19990139053"},{"id":"001264","name":"港運城, 英皇道","lat":"22.291703622091","long":"114.20248986053"},{"id":"001464","name":"東區海底隧道收費廣場","lat":"22.301175862091","long":"114.23338190053"},{"id":"001522","name":"藍田站, 鯉魚門道","lat":"22.305529462091","long":"114.23413329053"},{"id":"001521","name":"觀塘法院, 鯉魚門道","lat":"22.309748242091","long":"114.22987703053"},{"id":"001647","name":"裕民坊","lat":"22.313588222091","long":"114.22464493053"},{"id":"001648","name":"牛頭角站, 牛頭角道","lat":"22.315247332091","long":"114.21981384053"},{"id":"001650","name":"觀塘官立小學, 牛頭角道","lat":"22.316965702091","long":"114.21762044053"},{"id":"001658","name":"牛頭角下邨, 牛頭角道","lat":"22.320517942091","long":"114.21553243053"},{"id":"001659","name":"振華苑, 振華道","lat":"22.322402402091","long":"114.21842320053"},{"id":"001660","name":"樂雅苑, 振華道","lat":"22.322760312091","long":"114.22091779053"},{"id":"001661","name":"樂華南邨, 振華道","lat":"22.320919272091","long":"114.22261615053"},{"id":"001799","name":"康寧道公園, 康寧道","lat":"22.320838542091","long":"114.22402514053"},{"id":"001662","name":"寧波第二中學, 順安道","lat":"22.324597472091","long":"114.22886305053"},{"id":"001663","name":"順天邨","lat":"22.326370052091","long":"114.22674623053"},{"id":"001722","name":"順安邨, 利安道","lat":"22.328818692091","long":"114.22697823053"},{"id":"001664","name":"順利邨","lat":"22.331334592091","long":"114.22640594053"}],"routeId":"619","description":"正常班次"}]