[{"company":"kmb","route":"619P","routeType":"1","dir":"O","orig":"順利","dest":"中環(港澳碼頭)","stopList":[{"id":"ECCCAB1120D6B6C6","name":"順利總站","lat":"22.331331","long":"114.226410"},{"id":"A28048B524056C9D","name":"利明樓","lat":"22.331578","long":"114.224804"},{"id":"484F835517494767","name":"安逸樓","lat":"22.328625","long":"114.227099"},{"id":"2CFCDB6EA2892637","name":"順天總站","lat":"22.326262","long":"114.226668"},{"id":"6765DD696FA8BF8D","name":"寧波第二中學","lat":"22.323885","long":"114.227862"},{"id":"0CA3C6C38D2F3F75","name":"康寧道公園","lat":"22.321413","long":"114.224419"},{"id":"FAF9EF8853A3B65E","name":"樂華南邨","lat":"22.320642","long":"114.222775"},{"id":"C9F3531BB5050372","name":"樂雅苑","lat":"22.321831","long":"114.220956"},{"id":"9D431DF484149B75","name":"安基苑","lat":"22.322840","long":"114.217634"},{"id":"5358062C769CEC05","name":"牛頭角上邨","lat":"22.320611","long":"114.215750"},{"id":"C32B9494869D5BBF","name":"喜鵲樓","lat":"22.317173","long":"114.217511"},{"id":"A880D4A7E3310AEB","name":"創紀之城 (U7)","lat":"22.314630","long":"114.220789"},{"id":"F2127FD781019971","name":"觀塘市中心 (T2)","lat":"22.313042","long":"114.224931"},{"id":"9B722C2BDE8B432D","name":"觀塘站 (S2)","lat":"22.311728","long":"114.228064"},{"id":"5AAC6A858427D04E","name":"觀塘游泳池 (R3)","lat":"22.310432","long":"114.229545"},{"id":"5BDD5F9F4C89D3E1","name":"藍田站","lat":"22.307106","long":"114.233517"},{"id":"E0558D2901ECC032","name":"東區海底隧道轉車站","lat":"22.300400","long":"114.233560"},{"id":"182976403F291FE0","name":"舊灣仔警署","lat":"22.279390","long":"114.175398"},{"id":"B8760F28D7938609","name":"分域街","lat":"22.279154","long":"114.170943"},{"id":"4395252CFDC7AB1F","name":"皇后像廣場","lat":"22.281928","long":"114.160194"},{"id":"52C01B7F122297BD","name":"砵典乍街","lat":"22.283712","long":"114.157197"},{"id":"B42222C6800A33A2","name":"租庇利街","lat":"22.285203","long":"114.156015"},{"id":"A8CD8C1198907526","name":"林士街","lat":"22.286471","long":"114.154022"},{"id":"3E2E0FF05B36999C","name":"港澳碼頭巴士總站","lat":"22.288579","long":"114.150069"}],"routeId":"619P","description":"正常班次"},{"company":"ctb","route":"619P","routeType":null,"dir":"O","orig":"順利邨","dest":"中環 (港澳碼頭)","stopList":[{"id":"001664","name":"順利邨","lat":"22.331334592091","long":"114.22640594053"},{"id":"001786","name":"順利邨利明樓, 順清街","lat":"22.331738642091","long":"114.22452414053"},{"id":"001744","name":"順安邨安逸樓, 利安道","lat":"22.327285442091","long":"114.22676750053"},{"id":"001663","name":"順天邨","lat":"22.326370052091","long":"114.22674623053"},{"id":"001665","name":"寧波第二中學, 秀茂坪道","lat":"22.323814362091","long":"114.22771112053"},{"id":"001756","name":"康寧道公園, 康寧道","lat":"22.321442732091","long":"114.22444475053"},{"id":"001666","name":"樂華南邨, 振華道","lat":"22.320782172091","long":"114.22260176053"},{"id":"001667","name":"樂雅苑, 振華道","lat":"22.321900602091","long":"114.22087366053"},{"id":"001668","name":"安基苑, 振華道","lat":"22.322754872091","long":"114.21714177053"},{"id":"001669","name":"牛頭角上邨, 牛頭角道","lat":"22.320624872091","long":"114.21569085053"},{"id":"001656","name":"花園大廈喜鵲樓, 牛頭角道","lat":"22.317085042091","long":"114.21761447053"},{"id":"003458","name":"創紀之城, 觀塘道","lat":"22.314560622091","long":"114.22091911053"},{"id":"001509","name":"觀塘市中心, 觀塘道","lat":"22.313441392091","long":"114.22397362053"},{"id":"001510","name":"觀塘站","lat":"22.311531522091","long":"114.22790524053"},{"id":"001518","name":"觀塘游泳池, 鯉魚門道","lat":"22.310380582091","long":"114.22952246053"},{"id":"001519","name":"藍田站","lat":"22.307091882091","long":"114.23347123053"},{"id":"001463","name":"東區海底隧道收費廣場","lat":"22.300498232091","long":"114.23351297053"},{"id":"002417","name":"舊灣仔警署, 告士打道","lat":"22.279365262091","long":"114.17502194053"},{"id":"002421","name":"分域街, 告士打道","lat":"22.279171322091","long":"114.17096442053"},{"id":"001033","name":"皇后像廣場, 干諾道中","lat":"22.281992192091","long":"114.16003822053"},{"id":"001034","name":"砵典乍街, 干諾道中","lat":"22.283587582091","long":"114.15730419053"},{"id":"001036","name":"租庇利街, 干諾道中","lat":"22.285203642091","long":"114.15604393053"},{"id":"001037","name":"林士街, 干諾道中","lat":"22.286484072091","long":"114.15404315053"},{"id":"001027","name":"中環 (港澳碼頭)","lat":"22.288274152091","long":"114.15042248053"}],"routeId":"619P","description":"正常班次"}]