[{"company":"gmb","route":"62K","routeType":1,"orig":"沙田站","dest":"沙田山莊","stopList":[{"id":20001492,"name":"沙田站","lat":22.38315548731176,"long":114.18758493530511},{"id":20001518,"name":"源禾路,瀝源邨外的巴士停車灣","lat":22.384816597382084,"long":114.19354731033148},{"id":20001494,"name":"豐順街,　近禾輋邨香港耀能協會高福耀紀念學校","lat":22.3879772283864,"long":114.19403322391247},{"id":20001495,"name":"德厚街, 禾輋商場外","lat":22.38748947642264,"long":114.19498481117981},{"id":20006601,"name":"源禾路,禾輋邨外的巴士停車灣","lat":22.38830200188437,"long":114.19685908988885},{"id":20010671,"name":"松頭下路, 喜利佳工業大廈外","lat":22.397819975133967,"long":114.19428020835575},{"id":20001520,"name":"松頭下路, 拔子窩村對面","lat":22.399734840349247,"long":114.19507380430079},{"id":20001521,"name":"樂林路西行線, 近樂林路及松頭下路交界","lat":22.400890559755517,"long":114.19664723696707},{"id":20001522,"name":"樂楓徑, 景峰閣外","lat":22.40176650182445,"long":114.19678332458977}],"routeId":2003679,"description":"正常班次  "},{"company":"gmb","route":"62K","routeType":2,"orig":"沙田山莊","dest":"沙田站","stopList":[{"id":20001522,"name":"樂楓徑, 景峰閣外","lat":22.40176650182445,"long":114.19678332458977},{"id":20001523,"name":"樂林路及樂葵徑交界","lat":22.401197732107114,"long":114.1955110188584},{"id":20001524,"name":"樂林路東行線, 近樂林路及松頭下路交界","lat":22.400971833095802,"long":114.1966569601071},{"id":20001525,"name":"松頭下路, 拔子窩村外","lat":22.39934652863322,"long":114.19507375364427},{"id":20001505,"name":"坳背灣街, 金豪工業大廈外","lat":22.397549445807467,"long":114.19518034445262},{"id":20001513,"name":"源禾路近沙田運動場外的巴士停車灣","lat":22.387543494239107,"long":114.19640257889412},{"id":20001507,"name":"源禾路近賽馬會泳池外的巴士停車灣","lat":22.38432896418997,"long":114.19340159508133},{"id":20001492,"name":"沙田站","lat":22.38315548731176,"long":114.18758493530511}],"routeId":2003679,"description":"正常班次  "}]