[{"company":"gmb","route":"62S","routeType":1,"orig":"藍田(廣田邨)","dest":"尖沙咀","stopList":[{"id":20013061,"name":"廣田邨巴士總站","lat":22.302574421777415,"long":114.24116671068988},{"id":20012044,"name":"碧雲道, 廣田商場對面","lat":22.302490048708055,"long":114.23975855112079},{"id":20012045,"name":"碧雲道, 康柏苑龍柏閣外","lat":22.303160068736535,"long":114.2386829853058},{"id":20012046,"name":"碧雲道, 德田邨德康樓外","lat":22.307991562452553,"long":114.23928380012514},{"id":20012047,"name":"啟田道, 啟田商場外","lat":22.308378670278806,"long":114.23457384109498},{"id":20002191,"name":"裕民坊","lat":22.313803273729913,"long":114.22408230647531},{"id":20012049,"name":"牛頭角道, 寶恩大廈外","lat":22.314879936224315,"long":114.22208547592163},{"id":20000815,"name":"牛頭角道, 牛頭角港鐵站外","lat":22.315366773114366,"long":114.21974439012195},{"id":20012050,"name":"牛頭角道, 牛頭角下邨外","lat":22.32001125600935,"long":114.215304851532},{"id":20000994,"name":"牛頭角道, 淘大花園A座對面","lat":22.324488765674843,"long":114.2153890418633},{"id":20012051,"name":"宏照道, 香港輔助警察總部外","lat":22.3270479042283,"long":114.2083901166916},{"id":20012052,"name":"海防道, 海防大廈對面","lat":22.29833833443598,"long":114.17173504829408}],"routeId":2004395,"description":"正常班次 "},{"company":"gmb","route":"62S","routeType":2,"orig":"尖沙咀","dest":"藍田(廣田邨)","stopList":[{"id":20012052,"name":"海防道, 海防大廈對面","lat":22.29833833443598,"long":114.17173504829408},{"id":20012053,"name":"堪富利士道, 堪富利廣場外","lat":22.298263885355244,"long":114.17298495769502},{"id":20012054,"name":"加拿分道, 金輝大廈外","lat":22.298782546459872,"long":114.17366221547128},{"id":20012055,"name":"加連威老道, 德立大廈外","lat":22.299901755967202,"long":114.17346239089967},{"id":20012056,"name":"加連威老道, 興明樓外","lat":22.300264070205873,"long":114.17496308684352},{"id":20012057,"name":"啟禮道, 九龍灣公園外","lat":22.327504430500124,"long":114.20633018016817},{"id":20000808,"name":"牛頭角道, 牛頭角街市外","lat":22.32182451782405,"long":114.21632009882192},{"id":20012058,"name":"牛頭角道, 花園大廈外","lat":22.316656565391092,"long":114.21819090843202},{"id":20012059,"name":"牛頭角道, 寶恩大廈對面","lat":22.314964301807855,"long":114.22213375568391},{"id":20012060,"name":"裕民坊公共運輸交匯處","lat":22.314392642486943,"long":114.22509165138766},{"id":20012061,"name":"啟田道, 啟田商場對面","lat":22.30851763180084,"long":114.23432171344759},{"id":20013061,"name":"廣田邨巴士總站","lat":22.302574421777415,"long":114.24116671068988}],"routeId":2004395,"description":"正常班次 "}]