[{"company":"gmb","route":"63K","routeType":1,"orig":"美田邨公共運輸交匯處","dest":"大圍站(村南道)(循環線)","stopList":[{"id":1,"name":"美田邨, 美田商場","lat":22.37619885514911,"long":22.37619885514911},{"id":2,"name":"積存街, 近埃索－大圍加油站","lat":22.37642485435779,"long":22.37642485435779},{"id":3,"name":"村南道, 近金昌樓","lat":22.37411114629809,"long":22.37411114629809},{"id":4,"name":"村南道, 近大圍站","lat":22.373436877265814,"long":22.373436877265814},{"id":5,"name":"大圍道, 近金禧花園第６座","lat":22.374505944842795,"long":22.374505944842795},{"id":6,"name":"美田路, 近美田路休憩處","lat":22.377510900441347,"long":22.377510900441347},{"id":7,"name":"香粉寮街, 近美田邨美全樓","lat":22.37725447701061,"long":22.37725447701061},{"id":8,"name":"美田邨, 美田商場","lat":22.376184975949357,"long":22.376184975949357}],"routeId":2006144,"description":"正常班次"}]