[{"company":"gmb","route":"63K","routeType":1,"orig":"美田邨公共運輸交匯處","dest":"大圍站(村南道)(循環線)","stopList":[{"id":20014231,"name":"美田邨, 美田商場","lat":22.37619885514911,"long":114.17069392802081},{"id":20014222,"name":"積存街, 近埃索－大圍加油站","lat":22.37642485435779,"long":114.17749582956442},{"id":20014223,"name":"村南道, 近金昌樓","lat":22.37411114629809,"long":114.17945809081155},{"id":20014224,"name":"村南道, 近大圍站","lat":22.373436877265814,"long":114.17845887041865},{"id":20014225,"name":"大圍道, 近金禧花園第６座","lat":22.374505944842795,"long":114.17800087103744},{"id":20014226,"name":"美田路, 近美田路休憩處","lat":22.377126671429895,"long":114.1739429699987},{"id":20014227,"name":"香粉寮街, 近美田邨美全樓","lat":22.37725447701061,"long":114.17297350285342},{"id":20014229,"name":"美田邨, 美田商場","lat":22.376184975949357,"long":114.17065606246595}],"routeId":2006144,"description":"正常班次"}]