[{"company":"kmb","route":"65X","routeType":"1","dir":"O","orig":"天恩邨","dest":"香港科學園","stopList":[{"id":"03FC9E0BC770B677","name":"天恩邨總站","lat":"22.462265","long":"113.996616"},{"id":"73FE2D32F218DA9C","name":"天恩邨","lat":"22.464231","long":"113.997238"},{"id":"A264255E81F51111","name":"天澤邨","lat":"22.468122","long":"113.999172"},{"id":"4C86E1F44AE9C25B","name":"香港濕地公園","lat":"22.469846","long":"114.002807"},{"id":"79C0E2525F4B50FF","name":"濕地公園路","lat":"22.466136","long":"114.006311"},{"id":"324EF7E116289941","name":"天華路美湖居","lat":"22.462053","long":"114.005688"},{"id":"D2425B7147B58E1D","name":"美湖居","lat":"22.461038","long":"114.004351"},{"id":"A4607B71730E8F46","name":"景湖居","lat":"22.457409","long":"114.005641"},{"id":"021872C0E263AC46","name":"天慈邨","lat":"22.453091","long":"114.006201"},{"id":"399EF919E10C7F33","name":"太和站","lat":"22.450873","long":"114.161011"},{"id":"56F79FB1FC157E22","name":"大埔政府合署","lat":"22.450783","long":"114.164431"},{"id":"6DE63371E5E799BA","name":"大埔舊墟公園","lat":"22.451324","long":"114.165984"},{"id":"13E458C819D90940","name":"大埔廣福道","lat":"22.448685","long":"114.166993"},{"id":"3FD481FB9B9DC36C","name":"大埔運頭角里","lat":"22.447394","long":"114.169932"},{"id":"12E4BAFA2B73435B","name":"廣福邨","lat":"22.446599","long":"114.173474"},{"id":"74648B92E0E80E2E","name":"白石角變電站","lat":"22.434893","long":"114.201372"},{"id":"4DD5EC5516B360D7","name":"天賦海灣","lat":"22.431492","long":"114.201558"},{"id":"33ABA49F0E91A247","name":"雲滙","lat":"22.429805","long":"114.203323"},{"id":"B34F59A0270AEDA4","name":"創新路","lat":"22.428649","long":"114.204981"},{"id":"B644204AEDE7A031","name":"科研路","lat":"22.426442","long":"114.208450"},{"id":"5C2A974134634635","name":"科學園(第一期)","lat":"22.424272","long":"114.211589"},{"id":"9C6800DD6E0CD683","name":"香港科學園","lat":"22.424662","long":"114.212396"},{"id":"6E821768CA09E8C9","name":"香港科學園第三期","lat":"22.426589","long":"114.209304"}],"routeId":"65X","description":"正常班次"}]