[{"company":"kmb","route":"67R","routeType":"1","dir":"O","orig":"佐敦(匯民道)","dest":"洪水橋(洪福邨)","stopList":[{"id":"715C1540F21003D5","name":"匯民道","lat":"22.303758","long":"114.166168"},{"id":"DB516EC0B8DAF046","name":"屯門公路轉車站 (B9)","lat":"22.357963","long":"114.019237"},{"id":"64312A5DFF11636C","name":"豐景園","lat":"22.384009","long":"113.972822"},{"id":"CB2A65E69B2B71BE","name":"翠寧花園","lat":"22.383922","long":"113.974412"},{"id":"59081A58EA5BC728","name":"友愛邨","lat":"22.387839","long":"113.975112"},{"id":"28C36BBE416103C2","name":"屯門市廣場","lat":"22.393195","long":"113.976794"},{"id":"BC301D7E7F063331","name":"新墟街市","lat":"22.398858","long":"113.976525"},{"id":"CBE54DB551C24A02","name":"紅橋","lat":"22.402437","long":"113.977155"},{"id":"629D4E7DD9EF1AC6","name":"大興體育館","lat":"22.404141","long":"113.972812"},{"id":"B3B160F8F8017035","name":"翠林花園","lat":"22.401024","long":"113.972097"},{"id":"6AE148CA74FC4D53","name":"大興街","lat":"22.400776","long":"113.968315"},{"id":"C192BEF2264E0CC6","name":"石排站","lat":"22.401910","long":"113.967871"},{"id":"542CC0EC83BAEA01","name":"新圍苑","lat":"22.405362","long":"113.964142"},{"id":"840532B7C95DF870","name":"兆邦苑","lat":"22.407738","long":"113.965595"},{"id":"315BE0CA231DCD4F","name":"寶田 (T2)","lat":"22.409406","long":"113.967043"},{"id":"EDF4C2EAFDBD4693","name":"大興警署","lat":"22.407849","long":"113.970585"},{"id":"12CF2025741EF844","name":"麒麟圍","lat":"22.410727","long":"113.976479"},{"id":"580D52F4D93CAD9B","name":"欣田邨","lat":"22.413767","long":"113.976890"},{"id":"3199543D3AE70527","name":"五柳路","lat":"22.415601","long":"113.979372"},{"id":"7FE552E3792C9047","name":"藍地站","lat":"22.418158","long":"113.981936"},{"id":"5587F6CBEF8C74F1","name":"青磚圍","lat":"22.422507","long":"113.985394"},{"id":"468DB19F9ECA7507","name":"泥圍站","lat":"22.423445","long":"113.986270"},{"id":"030A0F57C577B5EA","name":"亦園村","lat":"22.426616","long":"113.989202"},{"id":"F1A6B3410C090751","name":"鍾屋村站","lat":"22.429686","long":"113.992324"},{"id":"0BFC5F7FC4A2D431","name":"洪水橋站","lat":"22.433880","long":"113.997787"},{"id":"55E3A1A6E995A9CB","name":"洪水橋(洪福邨)總站","lat":"22.436706","long":"113.998677"}],"routeId":"67R","description":"正常班次"}]