[{"company":"kmb","route":"67X","routeType":"1","dir":"O","orig":"屯門(兆康苑)","dest":"旺角東站","stopList":[{"id":"77FB32597CCD30F5","name":"兆康苑總站","lat":"22.414332","long":"113.978747"},{"id":"3199543D3AE70527","name":"五柳路","lat":"22.415601","long":"113.979372"},{"id":"2B354AE312900DF1","name":"富泰邨","lat":"22.412603","long":"113.982339"},{"id":"AA5DA45828958EAE","name":"嶺南大學","lat":"22.409975","long":"113.982404"},{"id":"876057D899CE09C9","name":"彩暉花園","lat":"22.408498","long":"113.980004"},{"id":"FA553D19AD960A9B","name":"景峰花園","lat":"22.403003","long":"113.979339"},{"id":"642F7D358D36F715","name":"新圍仔","lat":"22.397501","long":"113.977490"},{"id":"F269ACD809D1B43E","name":"何福堂書院","lat":"22.395933","long":"113.977739"},{"id":"68354B780EDFC52B","name":"華都花園","lat":"22.392442","long":"113.979209"},{"id":"665CE110A84542E9","name":"屯門官立中學","lat":"22.390271","long":"113.978679"},{"id":"2560149CE75EABA0","name":"屯門公路轉車站 (A6)","lat":"22.362751","long":"114.015706"},{"id":"21FC719DAF5F9D28","name":"屯門公路轉車站 (A3)","lat":"22.362365","long":"114.016082"},{"id":"854BC3A8D4DE6AA9","name":"美孚站","lat":"22.337256","long":"114.141259"},{"id":"09A156B1A802D093","name":"荔枝角站","lat":"22.337617","long":"114.148799"},{"id":"BD34A7B702373B12","name":"昌華街","lat":"22.338530","long":"114.152280"},{"id":"E30C2815DA280036","name":"元州邨","lat":"22.335838","long":"114.155871"},{"id":"C06334CA2AF7814B","name":"深水埗九江街","lat":"22.333000","long":"114.159601"},{"id":"E5EBA1D47BA06FCC","name":"深水埗北河街","lat":"22.330603","long":"114.162668"},{"id":"18C138014DF5B0C8","name":"深水埗楓樹街","lat":"22.327770","long":"114.166334"},{"id":"0FDE3A87457539BC","name":"旺角警署 (S6)","lat":"22.324742","long":"114.168398"},{"id":"4459E386C8525C34","name":"旺角道","lat":"22.321187","long":"114.170468"},{"id":"E19A8D46E934E346","name":"旺角東站巴士總站","lat":"22.322613","long":"114.172230"}],"routeId":"67X"},{"company":"kmb","route":"67X","routeType":"1","dir":"I","orig":"旺角東站","dest":"屯門(兆康苑)","stopList":[{"id":"E19A8D46E934E346","name":"旺角東站巴士總站","lat":"22.322613","long":"114.172230"},{"id":"EF103F0ED7C9BE45","name":"聯運街","lat":"22.321386","long":"114.172178"},{"id":"3DE979ACCBF8988B","name":"旺角站","lat":"22.319464","long":"114.170905"},{"id":"E945DC2D1D5D809B","name":"旺角快富街 (N66)","lat":"22.319832","long":"114.169103"},{"id":"704AF52FDCA7AE1B","name":"太子站 (N78)","lat":"22.325767","long":"114.167890"},{"id":"A4D7F88689232BE9","name":"深水埗黃竹街","lat":"22.328683","long":"114.164710"},{"id":"07F21DF049D501B1","name":"深水埗欽州街","lat":"22.331188","long":"114.161505"},{"id":"315B55985B328146","name":"怡閣苑","lat":"22.333442","long":"114.158535"},{"id":"325788C7375BFC0B","name":"長沙灣遊樂場","lat":"22.335563","long":"114.155853"},{"id":"B7C0A83790F94D99","name":"長沙灣興華街","lat":"22.338323","long":"114.152087"},{"id":"FE3B71A48A6B0C30","name":"荔枝角站","lat":"22.337248","long":"114.148368"},{"id":"7DD772B7D55C54B2","name":"美孚站","lat":"22.336459","long":"114.141340"},{"id":"0269A1F9D98C737E","name":"屯門公路轉車站 (B7)","lat":"22.357963","long":"114.019242"},{"id":"872110C8ADA14DA1","name":"屯門公路轉車站 (B1)","lat":"22.358720","long":"114.018548"},{"id":"1E15CFA82F408124","name":"屯門官立中學","lat":"22.390507","long":"113.978410"},{"id":"CD4626E2F32FE372","name":"華都花園","lat":"22.393068","long":"113.978448"},{"id":"25E34120CA3AD554","name":"何福堂書院","lat":"22.396131","long":"113.977397"},{"id":"6D9EB45795E40B40","name":"庇護工場","lat":"22.398784","long":"113.977208"},{"id":"02824AAFC038FA20","name":"景峰花園","lat":"22.403104","long":"113.979138"},{"id":"0FB4AEA370913FD2","name":"屯門醫院(鳳地站)","lat":"22.406982","long":"113.978597"},{"id":"78B3C90A0D7DDDE3","name":"彩暉花園","lat":"22.408784","long":"113.980329"},{"id":"E2AE7A37634C8FE5","name":"嶺南大學","lat":"22.410069","long":"113.982148"},{"id":"B954B8082D1AA9B0","name":"富泰邨","lat":"22.412935","long":"113.982196"},{"id":"E01BD8E1BEC29EA6","name":"五柳路","lat":"22.415511","long":"113.979679"},{"id":"E16D49ECA536ECC6","name":"兆康路","lat":"22.414894","long":"113.977411"},{"id":"77FB32597CCD30F5","name":"兆康苑總站","lat":"22.414332","long":"113.978747"}],"routeId":"67X"}]