[{"company":"KMB","route":"680A","routeType":"1","dir":"O","orig":"利安","dest":"金鐘站(東)","stopList":[{"id":"0C81107C4ABFCD56","name":"利安巴士總站","lat":"22.425392","long":"114.240773"},{"id":"3C61E9226688CA79","name":"錦英苑","lat":"22.423882","long":"114.238591"},{"id":"8507CD56EB29D1CF","name":"新港城","lat":"22.422831","long":"114.233013"},{"id":"96F3B1A2E2ACE68F","name":"馬鞍山市中心總站","lat":"22.424256","long":"114.231604"},{"id":"1D6A8B8C58C268FF","name":"曾璧山中學","lat":"22.422151","long":"114.228420"},{"id":"F86BDB236D6ACDC3","name":"耀安邨耀謙樓","lat":"22.418124","long":"114.230662"},{"id":"30553FA19D045D25","name":"富安花園","lat":"22.407330","long":"114.222794"},{"id":"4A3D71FFAB41B756","name":"亞公角","lat":"22.402012","long":"114.215473"},{"id":"A78292AA77A277A7","name":"沙田醫院","lat":"22.398890","long":"114.212419"},{"id":"578C11F0F4197509","name":"新界鄉議局大樓","lat":"22.391450","long":"114.206460"},{"id":"A295FD27A4E5A7C5","name":"小瀝源草地滾球場","lat":"22.388524","long":"114.203828"},{"id":"C43782B93826F4CD","name":"小瀝源路遊樂場","lat":"22.386434","long":"114.206225"},{"id":"2223D64E9ED2E1A7","name":"歷奇單車場","lat":"22.383874","long":"114.209102"},{"id":"FFBEBD7068E01EA4","name":"大老山隧道","lat":"22.377571","long":"114.212260"},{"id":"9535298A652873DB","name":"東區海底隧道","lat":"22.300285","long":"114.233264"},{"id":"B71025EB663E736F","name":"港運城","lat":"22.291395","long":"114.202081"},{"id":"8D05916401FE8BCB","name":"美麗閣","lat":"22.290652","long":"114.198441"},{"id":"3F3DBD185AC10BBE","name":"炮台山站","lat":"22.288182","long":"114.193624"},{"id":"29BF740504C5EEB6","name":"清風街","lat":"22.284865","long":"114.193037"},{"id":"1C36A07970C8909A","name":"中央圖書館","lat":"22.280906","long":"114.190221"},{"id":"9F72AC7E3C3CE65C","name":"加路連山道","lat":"22.277608","long":"114.186006"},{"id":"85342AE6060B2214","name":"禮頓中心","lat":"22.277424","long":"114.183140"},{"id":"265B143AC892EE78","name":"北海中心","lat":"22.278332","long":"114.178530"},{"id":"B65DB5330193E38E","name":"軒尼詩道官立小學","lat":"22.277752","long":"114.175652"},{"id":"D15281453EE5E0B4","name":"菲林明道","lat":"22.277543","long":"114.173776"},{"id":"A0934516C3FE8D29","name":"盧押道","lat":"22.278420","long":"114.171585"},{"id":"3225E407F87D904C","name":"海富中心","lat":"22.279438","long":"114.165264"},{"id":"8F5D8F5379BAD19C","name":"金鐘(東)總站","lat":"22.278511","long":"114.165291"}],"routeId":"680A"},{"company":"NWFB","route":"680A","routeType":null,"dir":"I","orig":"馬鞍山 (利安邨)","dest":"金鐘 (東)","stopList":[],"routeId":"680A"},{"company":"NWFB","route":"680A","routeType":null,"dir":"O","orig":"馬鞍山 (利安邨)","dest":"金鐘 (東)","stopList":[{"id":"003075","name":"利安邨","lat":"22.425314902091","long":"114.24078993053"},{"id":"003076","name":"錦英苑, 錦英路","lat":"22.423792332091","long":"114.23850970053"},{"id":"003077","name":"新港城, 馬鞍山路","lat":"22.422632582091","long":"114.23288984053"},{"id":"001950","name":"馬鞍山市中心","lat":"22.424081542091","long":"114.23144860053"},{"id":"001914","name":"曾璧山中學, 恆康街","lat":"22.421916022091","long":"114.22872854053"},{"id":"001915","name":"耀安邨耀謙樓, 恆康街","lat":"22.418047082091","long":"114.23069989053"},{"id":"003078","name":"富安花園, 恆德街","lat":"22.407220942091","long":"114.22273293053"},{"id":"002028","name":"亞公角, 亞公角街","lat":"22.402005302091","long":"114.21550653053"},{"id":"002029","name":"沙田醫院, 亞公角街","lat":"22.398612682091","long":"114.21216033053"},{"id":"003079","name":"新界鄉議局大樓, 大涌橋路","lat":"22.391431672091","long":"114.20631812053"},{"id":"003080","name":"小瀝源路草地滾球場, 小瀝源路","lat":"22.388647162091","long":"114.20369146053"},{"id":"003081","name":"小瀝源路遊樂場, 小瀝源路","lat":"22.386322352091","long":"114.20624953053"},{"id":"003082","name":"歷奇單車場, 小瀝源路","lat":"22.383865382091","long":"114.20898572053"},{"id":"001986","name":"大老山隧道收費廣場","lat":"22.377148882091","long":"114.21256572053"},{"id":"001463","name":"東區海底隧道收費廣場","lat":"22.300498232091","long":"114.23351297053"},{"id":"001278","name":"港運城, 英皇道","lat":"22.291505782091","long":"114.20241339053"},{"id":"001281","name":"美麗閣, 英皇道","lat":"22.290567652091","long":"114.19788360053"},{"id":"001283","name":"炮台山站, 英皇道","lat":"22.288146742091","long":"114.19355472053"},{"id":"001286","name":"清風街, 英皇道","lat":"22.284713662091","long":"114.19291666053"},{"id":"001215","name":"香港中央圖書館, 高士威道","lat":"22.280082042091","long":"114.18887826053"},{"id":"002457","name":"加路連山道, 禮頓道","lat":"22.277432082091","long":"114.18577553053"},{"id":"002567","name":"禮頓中心, 禮頓道","lat":"22.277364802091","long":"114.18298954053"},{"id":"002442","name":"北海中心, 軒尼詩道","lat":"22.278327962091","long":"114.17845458053"},{"id":"002444","name":"軒尼詩道官立小學, 軒尼詩道","lat":"22.277744552091","long":"114.17543474053"},{"id":"002445","name":"菲林明道, 軒尼詩道","lat":"22.277602072091","long":"114.17407242053"},{"id":"002459","name":"盧押道","lat":"22.278430822091","long":"114.17162290053"},{"id":"001074","name":"海富中心, 夏慤道","lat":"22.279523082091","long":"114.16514437053"},{"id":"001138","name":"金鐘站","lat":"22.278641252091","long":"114.16563501053"}],"routeId":"680A"}]