[{"company":"gmb","route":"69A","routeType":1,"orig":"數碼港","dest":"香港仔(循環線)","stopList":[{"id":20003337,"name":"數碼港公共運輸交匯處","lat":22.261913456129104,"long":22.261913456129104},{"id":20002491,"name":"數碼港道,數碼港3座對面","lat":22.259855137241153,"long":22.259855137241153},{"id":20002492,"name":"數碼港道,貝沙灣1期對面","lat":22.25667641368813,"long":22.25667641368813},{"id":20004115,"name":"數碼港道,貝沙灣南灣","lat":22.254735047769753,"long":22.254735047769753},{"id":20007448,"name":"華康街, 聖保羅書院小學","lat":22.25385110453397,"long":22.25385110453397},{"id":20000369,"name":"石排灣道, 萬景樓外","lat":22.249726180420055,"long":22.249726180420055},{"id":20007449,"name":"石排灣道, 田灣街","lat":22.24918449683099,"long":22.24918449683099},{"id":20000326,"name":"香港仔(湖南街)總站, 安泰大廈外","lat":22.24775868837668,"long":22.24775868837668},{"id":20007450,"name":"香港仔海傍道, 香港仔魚類批發市場","lat":22.248155411882788,"long":22.248155411882788},{"id":20000329,"name":"田灣街, 香港仔海傍道","lat":22.24858837945915,"long":22.24858837945915},{"id":20002790,"name":"石排灣道, 華富道","lat":22.2524338775738,"long":22.2524338775738},{"id":20007451,"name":"域多利道, 近薄扶林消防局","lat":22.253291339567188,"long":22.253291339567188},{"id":20004117,"name":"域多利道, 近免疫學研究院","lat":22.25423924459531,"long":22.25423924459531},{"id":20004118,"name":"數碼港道,貝沙灣南灣","lat":22.25482538786498,"long":22.25482538786498},{"id":20003338,"name":"數碼港道, 貝沙灣1期","lat":22.258220688096564,"long":22.258220688096564},{"id":20003337,"name":"數碼港公共運輸交匯處","lat":22.261913456129104,"long":22.261913456129104}],"routeId":2000819,"description":"正常班次"}]