[{"company":"kmb","route":"69M","routeType":"1","dir":"O","orig":"葵芳站","dest":"天水圍市中心","stopList":[{"id":"DA4C00397F6B56EC","name":"葵芳站巴士總站","lat":"22.356702","long":"114.128305"},{"id":"2E5D7D348957F7D4","name":"葵芳邨","lat":"22.358669","long":"114.130446"},{"id":"4173C3AEE8B6F33E","name":"葵涌耀榮里","lat":"22.369113","long":"114.133275"},{"id":"AB10F01039440464","name":"葵涌健全街","lat":"22.370324","long":"114.131214"},{"id":"354A2C15BD189228","name":"大窩口轉車站 (B1)","lat":"22.370356","long":"114.124855"},{"id":"87668BC629020844","name":"荃灣眾安街","lat":"22.371286","long":"114.119159"},{"id":"645D996BAD54FBBC","name":"荃灣建明街","lat":"22.373687","long":"114.115393"},{"id":"A68A34F71D94FF13","name":"荃景圍天橋","lat":"22.375480","long":"114.108839"},{"id":"E55FA660A59AB64A","name":"大欖隧道轉車站 (B5)","lat":"22.420344","long":"114.063524"},{"id":"0D7A1D0AECA1D999","name":"大欖隧道轉車站 (B3)","lat":"22.421010","long":"114.063768"},{"id":"A264A7BA921EEE6E","name":"聚星樓","lat":"22.449187","long":"114.005526"},{"id":"ABE1BADF8D43CB24","name":"天盛苑","lat":"22.449499","long":"114.002938"},{"id":"656B4BCCDC618419","name":"裘錦秋中學","lat":"22.453055","long":"114.003203"},{"id":"48D55BCE2E97E1DE","name":"天水圍公園","lat":"22.454842","long":"114.001827"},{"id":"FBBF4EB577663A13","name":"天瑞邨","lat":"22.456855","long":"113.998947"},{"id":"F97A667725CDEB82","name":"天華邨","lat":"22.460314","long":"113.997000"},{"id":"63DF37D89C356A04","name":"天悅邨","lat":"22.462116","long":"113.999081"},{"id":"0AE307AC4840B867","name":"天水圍市中心","lat":"22.458165","long":"114.002391"}],"routeId":"69M","description":"正常班次"},{"company":"kmb","route":"69M","routeType":"1","dir":"I","orig":"天水圍市中心","dest":"葵芳站","stopList":[{"id":"0AE307AC4840B867","name":"天水圍市中心","lat":"22.458165","long":"114.002391"},{"id":"B10F5697E4DA810B","name":"天頌苑頌棋閣","lat":"22.461778","long":"114.000401"},{"id":"A00D00FC2F4F8400","name":"天頌苑","lat":"22.461099","long":"113.997082"},{"id":"6DD025C559ABD59D","name":"天瑞總站","lat":"22.455359","long":"113.998857"},{"id":"AFB9321F7CD2C2E4","name":"天水圍公園","lat":"22.454484","long":"114.002970"},{"id":"7898B605E39613A8","name":"天耀邨耀盛樓","lat":"22.452235","long":"114.002089"},{"id":"CB853E4BCBB13F30","name":"天耀邨耀民樓","lat":"22.449650","long":"114.003160"},{"id":"5DE9BD1D773946A0","name":"天祐苑","lat":"22.450324","long":"114.006120"},{"id":"189AC37A164008A6","name":"大欖隧道轉車站 (A5)","lat":"22.420753","long":"114.064378"},{"id":"7E2E1F1269E520DE","name":"大欖隧道轉車站 (A4)","lat":"22.420094","long":"114.064395"},{"id":"10860B611840CF22","name":"荃景圍天橋","lat":"22.375700","long":"114.108257"},{"id":"D6C06E7091666AB4","name":"愉景新城","lat":"22.374994","long":"114.112969"},{"id":"F8D8D0AED9889278","name":"荃灣站","lat":"22.374084","long":"114.115113"},{"id":"CA8554613AAA6C49","name":"荃灣眾安街","lat":"22.372508","long":"114.118359"},{"id":"AAB411C52D067AD1","name":"大窩口轉車站 (A2)","lat":"22.370533","long":"114.124151"},{"id":"558D298696B57A4D","name":"昌榮路迴旋處","lat":"22.370230","long":"114.131936"},{"id":"B09E06FF6EF5A8C4","name":"葵俊苑","lat":"22.364634","long":"114.132876"},{"id":"508B02C5E209E802","name":"新葵興花園","lat":"22.362154","long":"114.131856"},{"id":"6C11A9780213BBBB","name":"新都會廣場","lat":"22.356988","long":"114.127690"},{"id":"DA4C00397F6B56EC","name":"葵芳站巴士總站","lat":"22.356702","long":"114.128305"}],"routeId":"69M","description":"正常班次"}]