[{"company":"nwfb","route":"701R","routeType":null,"dir":"I","orig":"蘇屋","dest":"香港體育館","stopList":[],"routeId":"701R"},{"company":"nwfb","route":"701R","routeType":null,"dir":"O","orig":"香港體育館","dest":"蘇屋","stopList":[{"id":"002837","name":"香港體育館","lat":"22.302319802091","long":"114.18272304053"},{"id":"002729","name":"怡安閣, 亞皆老街","lat":"22.320394352091","long":"114.17580219053"},{"id":"002730","name":"太平道, 亞皆老街","lat":"22.319991082091","long":"114.17361223053"},{"id":"001395","name":"通菜街, 亞皆老街","lat":"22.319443722091","long":"114.17069913053"},{"id":"001396","name":"旺角街市, 亞皆老街","lat":"22.318800102091","long":"114.16693654053"},{"id":"001423","name":"銘基書院, 櫻桃街","lat":"22.318582002091","long":"114.16438793053"},{"id":"001707","name":"浪澄灣, 海輝道","lat":"22.318815062091","long":"114.15664386053"},{"id":"003408","name":"聚魚道, 深旺道","lat":"22.323765142091","long":"114.15881339053"},{"id":"002897","name":"南昌公園, 深旺道","lat":"22.325123652091","long":"114.15699136053"},{"id":"002593","name":"富昌邨, 深旺道","lat":"22.327516752091","long":"114.15422057053"},{"id":"002882","name":"東京街西, 深旺道","lat":"22.329508852091","long":"114.15174904053"},{"id":"003222","name":"海麗邨, 深旺道","lat":"22.332368662091","long":"114.14758125053"},{"id":"002890","name":"泓景臺, 深盛路","lat":"22.333776402091","long":"114.14831424053"},{"id":"002595","name":"麗閣邨, 東京街","lat":"22.333070142091","long":"114.15595360053"},{"id":"001602","name":"長沙灣站, 東京街","lat":"22.335338642091","long":"114.15779444053"},{"id":"002813","name":"寶熙苑, 保安道","lat":"22.337610622091","long":"114.15910393053"},{"id":"002808","name":"蘇屋邨海棠樓, 長發街","lat":"22.339874002091","long":"114.15736545053"},{"id":"002836","name":"蘇屋邨","lat":"22.340784972091","long":"114.15881631053"}],"routeId":"701R"}]