[{"company":"nwfb","route":"702","routeType":null,"dir":"I","orig":"九龍塘 (又一城)","dest":"海麗邨／南昌站","stopList":[{"id":"003065","name":"又一城","lat":"22.336638782091","long":"114.17521292053"},{"id":"003313","name":"香島中學, 桃源街","lat":"22.335272682091","long":"114.17442070053"},{"id":"003314","name":"大坑東邨東輝樓, 大坑東道","lat":"22.333589222091","long":"114.17164153053"},{"id":"003315","name":"大坑東邨東海樓, 大坑東道","lat":"22.332724922091","long":"114.17116742053"},{"id":"002823","name":"石硤尾站, 窩仔街","lat":"22.331507902091","long":"114.16940987053"},{"id":"003191","name":"石硤尾商場, 南昌街","lat":"22.332314562091","long":"114.16611713053"},{"id":"002869","name":"北河街, 元州街","lat":"22.331446102091","long":"114.16427998053"},{"id":"002815","name":"福榮街, 欽州街","lat":"22.332772872091","long":"114.16201740053"},{"id":"002884","name":"大南街, 欽州街","lat":"22.330220342091","long":"114.15972173053"},{"id":"001639","name":"通州街公園, 欽州街","lat":"22.327888652091","long":"114.15764465053"},{"id":"002593","name":"富昌邨, 深旺道","lat":"22.327516752091","long":"114.15422057053"},{"id":"002882","name":"東京街西, 深旺道","lat":"22.329508852091","long":"114.15174904053"},{"id":"002891","name":"海麗邨","lat":"22.332182082091","long":"114.14727638053"}],"routeId":"702","description":"正常班次"},{"company":"nwfb","route":"702","routeType":null,"dir":"O","orig":"海麗邨／南昌站","dest":"九龍塘 (又一城)","stopList":[{"id":"002891","name":"海麗邨","lat":"22.332182082091","long":"114.14727638053"},{"id":"002890","name":"泓景臺, 深盛路","lat":"22.333776402091","long":"114.14831424053"},{"id":"003228","name":"碧海藍天, 興華街西","lat":"22.332980562091","long":"114.14973728053"},{"id":"001762","name":"發祥街西, 深旺道","lat":"22.330126002091","long":"114.15124965053"},{"id":"002854","name":"富昌邨, 深旺道","lat":"22.328013412091","long":"114.15403460053"},{"id":"002855","name":"南昌邨, 欽州街西","lat":"22.327227382091","long":"114.15680422053"},{"id":"002856","name":"醫局街, 欽州街","lat":"22.329021212091","long":"114.15839147053"},{"id":"001635","name":"深水埗 (欽州街)","lat":"22.331354722091","long":"114.15984034053"},{"id":"002810","name":"怡靖苑, 長沙灣道","lat":"22.332577492091","long":"114.15971148053"},{"id":"001602","name":"長沙灣站, 東京街","lat":"22.335338642091","long":"114.15779444053"},{"id":"002887","name":"東京街, 青山道","lat":"22.336158072091","long":"114.15931964053"},{"id":"002809","name":"九江街, 青山道","lat":"22.334572022091","long":"114.16137348053"},{"id":"003143","name":"石硤尾邨美笙樓, 窩仔街","lat":"22.333514352091","long":"114.16572497053"},{"id":"002830","name":"石硤尾站, 窩仔街","lat":"22.332458552091","long":"114.16710621053"},{"id":"002831","name":"大坑西新邨民樂樓, 窩仔街","lat":"22.331626432091","long":"114.16979621053"},{"id":"003310","name":"南山邨南安樓, 大坑東道","lat":"22.333577382091","long":"114.17145859053"},{"id":"003311","name":"南山邨南泰樓, 大坑東道","lat":"22.334506332091","long":"114.17220626053"},{"id":"003312","name":"香島中學, 桃源街","lat":"22.335367042091","long":"114.17430677053"},{"id":"003065","name":"又一城","lat":"22.336638782091","long":"114.17521292053"}],"routeId":"702","description":"正常班次"}]