[{"company":"NWFB","route":"720P","routeType":null,"dir":"I","orig":"中環 (機利文街)","dest":"太古城","stopList":[{"id":"002767","name":"中保集團大廈, 機利文街","lat":"22.285507002091","long":"114.15491336053"},{"id":"001049","name":"德忌利士街, 德輔道中","lat":"22.282866402091","long":"114.15717776053"},{"id":"001030","name":"怡和大廈, 干諾道中","lat":"22.282618792091","long":"114.15929917053"},{"id":"001031","name":"大會堂, 干諾道中","lat":"22.281868122091","long":"114.16153245053"},{"id":"002422","name":"香港演藝學院, 告士打道","lat":"22.279624122091","long":"114.16973450053"},{"id":"002423","name":"入境事務大樓, 告士打道","lat":"22.279435952091","long":"114.17270317053"},{"id":"001379","name":"太古城中心, 太古城道","lat":"22.286124572091","long":"114.21685857053"}],"routeId":"720P"},{"company":"NWFB","route":"720P","routeType":null,"dir":"O","orig":"太古城","dest":"中環 (機利文街)","stopList":[{"id":"001379","name":"太古城中心, 太古城道","lat":"22.286124572091","long":"114.21685857053"},{"id":"002417","name":"舊灣仔警署, 告士打道","lat":"22.279365262091","long":"114.17502194053"},{"id":"002421","name":"分域街, 告士打道","lat":"22.279171322091","long":"114.17096442053"},{"id":"001074","name":"海富中心, 夏慤道","lat":"22.279523082091","long":"114.16514437053"},{"id":"001033","name":"皇后像廣場, 干諾道中","lat":"22.281992192091","long":"114.16003822053"},{"id":"001034","name":"砵典乍街, 干諾道中","lat":"22.283587582091","long":"114.15730419053"},{"id":"002767","name":"中保集團大廈, 機利文街","lat":"22.285507002091","long":"114.15491336053"}],"routeId":"720P"}]