[{"company":"kmb","route":"73","routeType":"1","dir":"O","orig":"粉嶺(華明)","dest":"大埔工業邨","stopList":[{"id":"DF246F9F07691C22","name":"華明總站","lat":"22.484341","long":"114.141287"},{"id":"2129B2A72F881300","name":"欣盛苑","lat":"22.487137","long":"114.140405"},{"id":"4CA5DEBCC576E371","name":"牽晴間","lat":"22.486567","long":"114.143489"},{"id":"F4176942E449DF32","name":"和興村","lat":"22.485128","long":"114.146360"},{"id":"39AE60AD7BADCDAA","name":"粉嶺和興路","lat":"22.486595","long":"114.147800"},{"id":"A4837AB15400D744","name":"何家園","lat":"22.485116","long":"114.151232"},{"id":"37E653F1DC727EB2","name":"九龍坑","lat":"22.481618","long":"114.153137"},{"id":"CB295B56D3762A1F","name":"南華莆","lat":"22.475642","long":"114.153813"},{"id":"F8B3E5A11921AD1B","name":"大窩","lat":"22.471754","long":"114.153068"},{"id":"C66CDE62B5AEB8DA","name":"泰亨","lat":"22.468588","long":"114.152378"},{"id":"832EFD8F5165814E","name":"中心圍","lat":"22.466144","long":"114.150816"},{"id":"F7670D87C1847D31","name":"圍頭村","lat":"22.463298","long":"114.148514"},{"id":"BE5E07865E13374E","name":"康樂園","lat":"22.461106","long":"114.148464"},{"id":"94236C65C84D8C17","name":"三渡坑","lat":"22.458370","long":"114.150786"},{"id":"4C82D99D0721ADE9","name":"帝欣苑","lat":"22.454096","long":"114.155863"},{"id":"8C1810DE2419A30B","name":"太和站","lat":"22.450873","long":"114.161011"},{"id":"56F79FB1FC157E22","name":"大埔政府合署","lat":"22.450783","long":"114.164431"},{"id":"6DE63371E5E799BA","name":"大埔舊墟公園","lat":"22.451324","long":"114.165984"},{"id":"3CE4F8574F4F9D72","name":"大埔寶鄉街","lat":"22.449048","long":"114.166918"},{"id":"3FD481FB9B9DC36C","name":"大埔運頭角里","lat":"22.447394","long":"114.169932"},{"id":"FB5500F0D32629B2","name":"廣福球場","lat":"22.448010","long":"114.171768"},{"id":"55D37B4406A049FB","name":"林村河","lat":"22.449808","long":"114.171721"},{"id":"0A8E2BA2F75E472E","name":"大埔超級城","lat":"22.451004","long":"114.170088"},{"id":"95B249916F323BD4","name":"大埔平安里","lat":"22.452587","long":"114.165432"},{"id":"446E33686D9C02E0","name":"榮暉花園","lat":"22.453644","long":"114.165759"},{"id":"F9C14690633CE7E0","name":"太平工業中心","lat":"22.456967","long":"114.168023"},{"id":"7BCFD79F22F60457","name":"富亨邨","lat":"22.456330","long":"114.170752"},{"id":"32C1F605CAAD7861","name":"怡雅苑","lat":"22.455885","long":"114.173614"},{"id":"DAC33107054B9FED","name":"魚角","lat":"22.458094","long":"114.177443"},{"id":"51D8A415C1DDEB54","name":"鳳園路","lat":"22.459201","long":"114.180350"},{"id":"C32657EA44B5BDBD","name":"下坑","lat":"22.461211","long":"114.184137"},{"id":"4398437B28723B0F","name":"大貴街","lat":"22.462441","long":"114.187543"},{"id":"D56873352ED40E14","name":"大埔工業邨","lat":"22.457661","long":"114.187931"}],"routeId":"73","description":"正常班次"},{"company":"kmb","route":"73","routeType":"2","dir":"O","orig":"粉嶺(華明)","dest":"大埔中心","stopList":[{"id":"DF246F9F07691C22","name":"華明總站","lat":"22.484341","long":"114.141287"},{"id":"2129B2A72F881300","name":"欣盛苑","lat":"22.487137","long":"114.140405"},{"id":"4CA5DEBCC576E371","name":"牽晴間","lat":"22.486567","long":"114.143489"},{"id":"F4176942E449DF32","name":"和興村","lat":"22.485128","long":"114.146360"},{"id":"39AE60AD7BADCDAA","name":"粉嶺和興路","lat":"22.486595","long":"114.147800"},{"id":"A4837AB15400D744","name":"何家園","lat":"22.485116","long":"114.151232"},{"id":"37E653F1DC727EB2","name":"九龍坑","lat":"22.481618","long":"114.153137"},{"id":"CB295B56D3762A1F","name":"南華莆","lat":"22.475642","long":"114.153813"},{"id":"F8B3E5A11921AD1B","name":"大窩","lat":"22.471754","long":"114.153068"},{"id":"C66CDE62B5AEB8DA","name":"泰亨","lat":"22.468588","long":"114.152378"},{"id":"832EFD8F5165814E","name":"中心圍","lat":"22.466144","long":"114.150816"},{"id":"F7670D87C1847D31","name":"圍頭村","lat":"22.463298","long":"114.148514"},{"id":"BE5E07865E13374E","name":"康樂園","lat":"22.461106","long":"114.148464"},{"id":"94236C65C84D8C17","name":"三渡坑","lat":"22.458370","long":"114.150786"},{"id":"4C82D99D0721ADE9","name":"帝欣苑","lat":"22.454096","long":"114.155863"},{"id":"8C1810DE2419A30B","name":"太和站","lat":"22.450873","long":"114.161011"},{"id":"56F79FB1FC157E22","name":"大埔政府合署","lat":"22.450783","long":"114.164431"},{"id":"6DE63371E5E799BA","name":"大埔舊墟公園","lat":"22.451324","long":"114.165984"},{"id":"3CE4F8574F4F9D72","name":"大埔寶鄉街","lat":"22.449048","long":"114.166918"},{"id":"3FD481FB9B9DC36C","name":"大埔運頭角里","lat":"22.447394","long":"114.169932"},{"id":"FB5500F0D32629B2","name":"廣福球場","lat":"22.448010","long":"114.171768"},{"id":"55D37B4406A049FB","name":"林村河","lat":"22.449808","long":"114.171721"},{"id":"BBFADA4889A61FCC","name":"大埔中心第五期","lat":"22.452932","long":"114.172271"},{"id":"43531EDD45A4B0C1","name":"大埔中心總站","lat":"22.453289","long":"114.169337"}],"routeId":"73","description":"特別班次"},{"company":"kmb","route":"73","routeType":"1","dir":"I","orig":"大埔工業邨","dest":"粉嶺(華明)","stopList":[{"id":"D56873352ED40E14","name":"大埔工業邨","lat":"22.457661","long":"114.187931"},{"id":"BB33B8049C297ADD","name":"大埔大貴街","lat":"22.460760","long":"114.188164"},{"id":"298C08C4E1D1E7BF","name":"大埔工業邨","lat":"22.462070","long":"114.187708"},{"id":"507DA53C608E13A0","name":"下坑","lat":"22.461085","long":"114.184499"},{"id":"916501787D3948F1","name":"大埔大發街","lat":"22.458961","long":"114.180318"},{"id":"4197D80D370042C2","name":"魚角","lat":"22.458106","long":"114.177936"},{"id":"6E1E84A8BAF508AC","name":"救恩書院","lat":"22.456277","long":"114.176509"},{"id":"DB241439B4E2785A","name":"怡雅苑","lat":"22.455545","long":"114.173860"},{"id":"378DA3C43904CFF9","name":"大元邨","lat":"22.456236","long":"114.170374"},{"id":"9FBD2D7974A0AB50","name":"沐恩中學","lat":"22.456232","long":"114.167196"},{"id":"1A0BF02F827F6A20","name":"大埔安慈路","lat":"22.452495","long":"114.165632"},{"id":"6DE63371E5E799BA","name":"大埔舊墟公園","lat":"22.451324","long":"114.165984"},{"id":"512C07C3D131AB5A","name":"大埔超級城","lat":"22.451195","long":"114.169901"},{"id":"597CE200C2824BEE","name":"廣福邨廣智樓","lat":"22.449785","long":"114.171981"},{"id":"7AC279608B65128C","name":"廣福球場","lat":"22.448044","long":"114.172048"},{"id":"C55F50E43F6108EB","name":"大埔廣福道","lat":"22.448116","long":"114.167887"},{"id":"FDDA176977136CD9","name":"大埔寶鄉橋","lat":"22.449961","long":"114.167022"},{"id":"A3A7B2B94458A263","name":"林村河畔","lat":"22.450930","long":"114.166753"},{"id":"9FDEEC09AD1B601B","name":"太和廣場","lat":"22.450689","long":"114.160767"},{"id":"2A86FE3FCDB9760B","name":"帝欣苑","lat":"22.453987","long":"114.155686"},{"id":"5FCD0D727920EC65","name":"康樂園","lat":"22.460648","long":"114.148561"},{"id":"4253205251F0AB8A","name":"圍頭村","lat":"22.463435","long":"114.148421"},{"id":"E32D979C93E923E4","name":"中心圍","lat":"22.466249","long":"114.150751"},{"id":"53B170EAFEADDF86","name":"泰亨","lat":"22.469345","long":"114.152519"},{"id":"42C72FE60B928D1B","name":"大窩","lat":"22.472574","long":"114.153143"},{"id":"1C213636264467BB","name":"南華莆","lat":"22.476384","long":"114.153749"},{"id":"E7B5458F607C3F6A","name":"九龍坑","lat":"22.481537","long":"114.153132"},{"id":"6C5D425EDEE7498A","name":"何家園","lat":"22.485037","long":"114.151135"},{"id":"B97CC3668C3AD911","name":"和合石新村","lat":"22.486226","long":"114.149118"},{"id":"EEFA4F8B18DBF2A6","name":"和興村","lat":"22.484716","long":"114.146218"},{"id":"B8BE5BB47B33185B","name":"正覺蓮社學校","lat":"22.487178","long":"114.142431"},{"id":"3325529D981E23A1","name":"欣盛苑欣暉閣","lat":"22.486277","long":"114.138985"},{"id":"A4455CCA999A234C","name":"華明邨康明樓","lat":"22.483854","long":"114.139461"},{"id":"3C821C86ADED2B9D","name":"華明邨耀明樓","lat":"22.482476","long":"114.141439"},{"id":"637DDC1A9BF31C4C","name":"華明總站","lat":"22.484132","long":"114.141587"},{"id":"DF246F9F07691C22","name":"華明總站","lat":"22.484341","long":"114.141287"}],"routeId":"73","description":"正常班次"},{"company":"kmb","route":"73","routeType":"2","dir":"I","orig":"大埔中心","dest":"粉嶺(華明)","stopList":[{"id":"43531EDD45A4B0C1","name":"大埔中心總站","lat":"22.453289","long":"114.169337"},{"id":"ACDCC9E65172243D","name":"新興花園","lat":"22.452910","long":"114.172626"},{"id":"597CE200C2824BEE","name":"廣福邨廣智樓","lat":"22.449785","long":"114.171981"},{"id":"7AC279608B65128C","name":"廣福球場","lat":"22.448044","long":"114.172048"},{"id":"C55F50E43F6108EB","name":"大埔廣福道","lat":"22.448116","long":"114.167887"},{"id":"FDDA176977136CD9","name":"大埔寶鄉橋","lat":"22.449961","long":"114.167022"},{"id":"A3A7B2B94458A263","name":"林村河畔","lat":"22.450930","long":"114.166753"},{"id":"9FDEEC09AD1B601B","name":"太和廣場","lat":"22.450689","long":"114.160767"},{"id":"2A86FE3FCDB9760B","name":"帝欣苑","lat":"22.453987","long":"114.155686"},{"id":"5FCD0D727920EC65","name":"康樂園","lat":"22.460648","long":"114.148561"},{"id":"4253205251F0AB8A","name":"圍頭村","lat":"22.463435","long":"114.148421"},{"id":"E32D979C93E923E4","name":"中心圍","lat":"22.466249","long":"114.150751"},{"id":"53B170EAFEADDF86","name":"泰亨","lat":"22.469345","long":"114.152519"},{"id":"42C72FE60B928D1B","name":"大窩","lat":"22.472574","long":"114.153143"},{"id":"1C213636264467BB","name":"南華莆","lat":"22.476384","long":"114.153749"},{"id":"E7B5458F607C3F6A","name":"九龍坑","lat":"22.481537","long":"114.153132"},{"id":"6C5D425EDEE7498A","name":"何家園","lat":"22.485037","long":"114.151135"},{"id":"B97CC3668C3AD911","name":"和合石新村","lat":"22.486226","long":"114.149118"},{"id":"EEFA4F8B18DBF2A6","name":"和興村","lat":"22.484716","long":"114.146218"},{"id":"B8BE5BB47B33185B","name":"正覺蓮社學校","lat":"22.487178","long":"114.142431"},{"id":"3325529D981E23A1","name":"欣盛苑欣暉閣","lat":"22.486277","long":"114.138985"},{"id":"A4455CCA999A234C","name":"華明邨康明樓","lat":"22.483854","long":"114.139461"},{"id":"3C821C86ADED2B9D","name":"華明邨耀明樓","lat":"22.482476","long":"114.141439"},{"id":"637DDC1A9BF31C4C","name":"華明總站","lat":"22.484132","long":"114.141587"},{"id":"DF246F9F07691C22","name":"華明總站","lat":"22.484341","long":"114.141287"}],"routeId":"73","description":"特別班次"},{"company":"ctb","route":"73","routeType":null,"dir":"I","orig":"赤柱市場","dest":"數碼港／華富 (北)","stopList":[{"id":"002305","name":"赤柱監獄, 東頭灣道","lat":"22.215506742091","long":"114.21766010053"},{"id":"002302","name":"聖士提反書院, 東頭灣道","lat":"22.216536362091","long":"114.21719449053"},{"id":"002277","name":"赤柱村","lat":"22.219212682091","long":"114.21300366053"},{"id":"002278","name":"赤柱崗道, 赤柱村道","lat":"22.221785752091","long":"114.21114294053"},{"id":"002279","name":"赤柱灘道, 赤柱村道","lat":"22.224033782091","long":"114.21335388053"},{"id":"002273","name":"赤柱峽道交匯處, 赤柱峽道","lat":"22.224874892091","long":"114.21427843053"},{"id":"002270","name":"赤柱峽道","lat":"22.224972082091","long":"114.21015359053"},{"id":"002271","name":"衛奕信徑, 赤柱峽道","lat":"22.223604722091","long":"114.20726723053"},{"id":"002272","name":"赫蘭道, 淺水灣道","lat":"22.225869452091","long":"114.20314234053"},{"id":"002380","name":"淺水灣道 102 號, 淺水灣道","lat":"22.233938732091","long":"114.20093324053"},{"id":"002242","name":"淺水灣道 90 號, 淺水灣道","lat":"22.235555362091","long":"114.19964630053"},{"id":"002257","name":"淺水灣別墅, 淺水灣道","lat":"22.238098772091","long":"114.19806596053"},{"id":"002241","name":"淺水灣海灘, 淺水灣道","lat":"22.238580522091","long":"114.19490222053"},{"id":"002251","name":"麗景道, 淺水灣道","lat":"22.237393012091","long":"114.19266000053"},{"id":"002196","name":"香島小築, 香島道","lat":"22.237708532091","long":"114.18936421053"},{"id":"002198","name":"蒲苑, 香島道","lat":"22.239979112091","long":"114.18722259053"},{"id":"002197","name":"深水灣, 香島道","lat":"22.245675382091","long":"114.18657401053"},{"id":"002349","name":"鄉村俱樂部, 黃竹坑道","lat":"22.246031282091","long":"114.17789029053"},{"id":"002352","name":"黃竹坑新圍, 黃竹坑道","lat":"22.248829442091","long":"114.17559659053"},{"id":"002354","name":"黃竹坑體育館, 黃竹坑道","lat":"22.249915342091","long":"114.17331087053"},{"id":"002355","name":"黃竹坑遊樂場, 黃竹坑道","lat":"22.250122902091","long":"114.16985106053"},{"id":"002357","name":"南朗山道, 黃竹坑道","lat":"22.248327512091","long":"114.16606157053"},{"id":"002358","name":"勝利工廠大廈, 黃竹坑道","lat":"22.248392422091","long":"114.16314899053"},{"id":"002160","name":"逸港居, 香港仔海傍道","lat":"22.247488362091","long":"114.15902634053"},{"id":"002161","name":"香港仔海濱公園, 香港仔海傍道","lat":"22.246983922091","long":"114.15584999053"},{"id":"002162","name":"香港仔魚類批發市場, 香港仔海傍道","lat":"22.247980382091","long":"114.15243083053"},{"id":"002163","name":"田灣街, 香港仔海傍道","lat":"22.248632712091","long":"114.14809052053"},{"id":"002333","name":"華富邨華樂樓, 華富道","lat":"22.251701562091","long":"114.13854444053"},{"id":"002334","name":"華富商場, 華富道","lat":"22.250930762091","long":"114.13735096053"},{"id":"002335","name":"華富邨華清樓, 華富道","lat":"22.251955682091","long":"114.13602424053"},{"id":"002336","name":"培英中學, 華富道","lat":"22.253517212091","long":"114.13564735053"},{"id":"002338","name":"華富 (北)","lat":"22.253998172091","long":"114.13642235053"},{"id":"002329","name":"域多利道分區電力站, 域多利道","lat":"22.256229222091","long":"114.13441163053"},{"id":"002696","name":"貝沙灣南灣, 數碼港道","lat":"22.255717912091","long":"114.13371182053"},{"id":"002391","name":"貝沙灣, 數碼港道","lat":"22.258219982091","long":"114.13291952053"},{"id":"002392","name":"數碼港","lat":"22.261996412091","long":"114.13067455053"}],"routeId":"73","description":"正常班次"},{"company":"ctb","route":"73","routeType":null,"dir":"O","orig":"數碼港／華富 (北)","dest":"赤柱市場","stopList":[{"id":"002338","name":"華富 (北)","lat":"22.253998172091","long":"114.13642235053"},{"id":"002392","name":"數碼港","lat":"22.261996412091","long":"114.13067455053"},{"id":"002393","name":"數碼港三座, 數碼港道","lat":"22.259657562091","long":"114.13261742053"},{"id":"002394","name":"貝沙灣, 數碼港道","lat":"22.256625312091","long":"114.13276861053"},{"id":"002697","name":"貝沙灣南灣, 數碼港道","lat":"22.255283702091","long":"114.13365031053"},{"id":"002317","name":"域多利道分區電力站, 域多利道","lat":"22.256137482091","long":"114.13533141053"},{"id":"002680","name":"華翠街","lat":"22.254324112091","long":"114.13630381053"},{"id":"002339","name":"華富邨華生樓, 華富道","lat":"22.252877362091","long":"114.13596269053"},{"id":"002340","name":"華富邨華泰樓, 華富道","lat":"22.251814702091","long":"114.13621962053"},{"id":"002342","name":"華富邨華安樓, 華富道","lat":"22.251818402091","long":"114.13866375053"},{"id":"002388","name":"田灣街, 石排灣道","lat":"22.248937592091","long":"114.14912956053"},{"id":"002157","name":"聖伯多祿堂, 香港仔大道","lat":"22.249804272091","long":"114.15368046053"},{"id":"002158","name":"漁暉道, 香港仔大道","lat":"22.248585702091","long":"114.15575506053"},{"id":"002159","name":"業漁大廈, 香港仔大道","lat":"22.247578892091","long":"114.15849066053"},{"id":"002344","name":"甄沾記大廈, 黃竹坑道","lat":"22.248523252091","long":"114.16362493053"},{"id":"002383","name":"業興街, 黃竹坑道","lat":"22.249540662091","long":"114.16811154053"},{"id":"002345","name":"黃竹坑遊樂場, 黃竹坑道","lat":"22.250546142091","long":"114.17056977053"},{"id":"002346","name":"葛量洪醫院, 黃竹坑道","lat":"22.250382182091","long":"114.17309770053"},{"id":"002350","name":"黃竹坑新圍, 黃竹坑道","lat":"22.248619242091","long":"114.17631296053"},{"id":"002351","name":"鄉村俱樂部, 黃竹坑道","lat":"22.245760442091","long":"114.17873256053"},{"id":"002201","name":"深水灣, 香島道","lat":"22.244497912091","long":"114.18806928053"},{"id":"002199","name":"蒲苑, 香島道","lat":"22.240244572091","long":"114.18727546053"},{"id":"002200","name":"香島小築, 香島道","lat":"22.237696722091","long":"114.18950240053"},{"id":"002247","name":"麗景道, 淺水灣道","lat":"22.238413782091","long":"114.19300890053"},{"id":"002252","name":"淺水灣海灘, 淺水灣道","lat":"22.238611492091","long":"114.19526796053"},{"id":"002248","name":"保華大廈, 淺水灣道","lat":"22.238416412091","long":"114.19875982053"},{"id":"002256","name":"淺水灣道 127 號, 淺水灣道","lat":"22.236745832091","long":"114.19939985053"},{"id":"002267","name":"赫蘭道, 淺水灣道","lat":"22.226806772091","long":"114.20286464053"},{"id":"002274","name":"舂磡角道, 赤柱峽道","lat":"22.225044102091","long":"114.20516501053"},{"id":"002268","name":"衛奕信徑, 赤柱峽道","lat":"22.223713472091","long":"114.20879625053"},{"id":"002379","name":"赤柱峽道","lat":"22.225421862091","long":"114.20940971053"},{"id":"002269","name":"赤柱崗抽水站, 赤柱峽道","lat":"22.224727472091","long":"114.21234300053"},{"id":"002266","name":"赤柱峽道交匯處, 赤柱峽道","lat":"22.224755292091","long":"114.21373037053"},{"id":"002280","name":"旭逸居, 赤柱村道","lat":"22.223961602091","long":"114.21338878053"},{"id":"002276","name":"海灣園, 赤柱村道","lat":"22.221121932091","long":"114.21170439053"},{"id":"002281","name":"赤柱村, 赤柱村道","lat":"22.219069792091","long":"114.21291885053"},{"id":"002303","name":"香港航海學校, 東頭灣道","lat":"22.218215302091","long":"114.21414073053"},{"id":"002304","name":"聖士提反書院, 東頭灣道","lat":"22.216554552091","long":"114.21725399053"},{"id":"002305","name":"赤柱監獄, 東頭灣道","lat":"22.215506742091","long":"114.21766010053"},{"id":"002302","name":"聖士提反書院, 東頭灣道","lat":"22.216536362091","long":"114.21719449053"},{"id":"002277","name":"赤柱村","lat":"22.219212682091","long":"114.21300366053"}],"routeId":"73","description":"正常班次"}]