[{"company":"kmb","route":"73P","routeType":"1","dir":"O","orig":"荃灣(如心廣場)","dest":"大美督","stopList":[{"id":"E0908A8C2459FA0F","name":"如心廣場巴士總站","lat":"22.368322","long":"114.112290"},{"id":"05391B53044E30A8","name":"楊屋道街市","lat":"22.368510","long":"114.114978"},{"id":"7F8529494720703C","name":"荃灣橫窩仔街","lat":"22.366539","long":"114.118734"},{"id":"30220834842952E1","name":"永基路","lat":"22.361225","long":"114.120238"},{"id":"FFE2A036843CD6A3","name":"盛福街","lat":"22.359107","long":"114.121163"},{"id":"DC28E30AF099D339","name":"葵涌運動場","lat":"22.357822","long":"114.125780"},{"id":"FDBDDCF779540C82","name":"葵芳邨","lat":"22.360075","long":"114.130954"},{"id":"D6A21211E4788F7B","name":"光輝圍","lat":"22.367997","long":"114.133689"},{"id":"E919C0B67C6ACF3F","name":"昌榮路","lat":"22.370598","long":"114.134320"},{"id":"257A6E19DD7F156C","name":"和宜合道運動場","lat":"22.373954","long":"114.136349"},{"id":"28A57C043C111604","name":"石圍角新村","lat":"22.375875","long":"114.136250"},{"id":"F82CDE4D15A43CA3","name":"梨木樹邨","lat":"22.378515","long":"114.137270"},{"id":"DEDD6247441C8C05","name":"可風中學","lat":"22.380167","long":"114.135129"},{"id":"81B719F7DC3F0FAD","name":"城門隧道轉車站 (A5)","lat":"22.381888","long":"114.137620"},{"id":"C8276DF869656712","name":"城門隧道轉車站 (A1)","lat":"22.381635","long":"114.138243"},{"id":"BBFADA4889A61FCC","name":"大埔中心第五期","lat":"22.452932","long":"114.172271"},{"id":"32C1F605CAAD7861","name":"怡雅苑","lat":"22.455885","long":"114.173614"},{"id":"DAC33107054B9FED","name":"魚角","lat":"22.458094","long":"114.177443"},{"id":"59F30D5D5D4E092C","name":"鳳園總站","lat":"22.465304","long":"114.180246"},{"id":"8694220A5D89285D","name":"流坑","lat":"22.462935","long":"114.180678"},{"id":"9C020EDD242B6036","name":"鳳園路","lat":"22.460670","long":"114.180137"},{"id":"C32657EA44B5BDBD","name":"下坑","lat":"22.461211","long":"114.184137"},{"id":"4398437B28723B0F","name":"大貴街","lat":"22.462441","long":"114.187543"},{"id":"5998A11C63EAB82E","name":"大埔東消防局","lat":"22.462336","long":"114.190670"},{"id":"C044260C4C65B4F9","name":"大埔露輝路","lat":"22.461422","long":"114.193105"},{"id":"F71DE7248DAAFAF7","name":"雅景花園","lat":"22.459667","long":"114.197487"},{"id":"1A5B7BF397988C96","name":"大埔三門仔路","lat":"22.460590","long":"114.203849"},{"id":"C1AE59CABFFE3F21","name":"黃魚灘","lat":"22.462247","long":"114.205840"},{"id":"9076C3C55544591A","name":"船灣","lat":"22.464399","long":"114.207692"},{"id":"EE0564AA4EA08E5D","name":"䃟頭角","lat":"22.468880","long":"114.209219"},{"id":"FF435BF47EA33D74","name":"布心排","lat":"22.470727","long":"114.210855"},{"id":"EEF2A14EF9A8E0C3","name":"犁壁山","lat":"22.473238","long":"114.213139"},{"id":"1AEC1D13DFEDEEEE","name":"映月灣","lat":"22.472811","long":"114.215793"},{"id":"C21F7A494FFEAC2C","name":"汀角","lat":"22.470448","long":"114.219639"},{"id":"70B01F3E554003C9","name":"山寮","lat":"22.471436","long":"114.222850"},{"id":"45AAE55CB6B5699F","name":"蘆慈田(龍尾泳灘)","lat":"22.471803","long":"114.226239"},{"id":"391FD1F8D3A9167F","name":"龍尾村","lat":"22.472218","long":"114.229580"},{"id":"5A264033612771AA","name":"龍尾","lat":"22.472611","long":"114.231773"},{"id":"20B7C6B56788E484","name":"大美督總站","lat":"22.472380","long":"114.232989"}],"routeId":"73P","description":"正常班次"},{"company":"kmb","route":"73P","routeType":"1","dir":"I","orig":"大美督","dest":"荃灣(如心廣場)","stopList":[{"id":"20B7C6B56788E484","name":"大美督總站","lat":"22.472380","long":"114.232989"},{"id":"49AE5D2FF5562B95","name":"龍尾","lat":"22.472575","long":"114.232040"},{"id":"94A08BC49C306C1C","name":"龍尾村","lat":"22.471822","long":"114.228411"},{"id":"6EAC23CB146AE03C","name":"蘆慈田(龍尾泳灘)","lat":"22.471752","long":"114.226879"},{"id":"DF5DA8A8487E05C7","name":"山寮","lat":"22.471069","long":"114.222119"},{"id":"CD442C8FBAD8FD45","name":"汀角","lat":"22.470356","long":"114.219579"},{"id":"232D88071DA925C2","name":"映月灣","lat":"22.473170","long":"114.215208"},{"id":"C6131E2EFE859240","name":"犁壁山","lat":"22.472983","long":"114.213233"},{"id":"5E4C8880C9A5E6E1","name":"布心排","lat":"22.470935","long":"114.211258"},{"id":"3FAC7CF6EAD17A92","name":"䃟頭角","lat":"22.468642","long":"114.209178"},{"id":"CF925A6BCC55379F","name":"船灣","lat":"22.463506","long":"114.207382"},{"id":"40CEC3119FC1ECCC","name":"大埔三門仔路","lat":"22.460249","long":"114.203919"},{"id":"3096269306B60988","name":"雅景花園","lat":"22.459531","long":"114.197318"},{"id":"F527E9ADDEDF39B1","name":"大埔露輝路","lat":"22.461240","long":"114.192665"},{"id":"298C08C4E1D1E7BF","name":"大埔工業邨","lat":"22.462070","long":"114.187708"},{"id":"507DA53C608E13A0","name":"下坑","lat":"22.461085","long":"114.184499"},{"id":"59F30D5D5D4E092C","name":"鳳園總站","lat":"22.465304","long":"114.180246"},{"id":"8694220A5D89285D","name":"流坑","lat":"22.462935","long":"114.180678"},{"id":"9C020EDD242B6036","name":"鳳園路","lat":"22.460670","long":"114.180137"},{"id":"4197D80D370042C2","name":"魚角","lat":"22.458106","long":"114.177936"},{"id":"6E1E84A8BAF508AC","name":"救恩書院","lat":"22.456277","long":"114.176509"},{"id":"DB241439B4E2785A","name":"怡雅苑","lat":"22.455545","long":"114.173860"},{"id":"ACDCC9E65172243D","name":"新興花園","lat":"22.452910","long":"114.172626"},{"id":"5FA8B50329B85F1A","name":"廣福街市","lat":"22.448725","long":"114.174689"},{"id":"53C49B85EBFF8AAE","name":"宏福苑","lat":"22.447412","long":"114.174860"},{"id":"620E14F31DA31490","name":"城門隧道轉車站 (B6)","lat":"22.381181","long":"114.138129"},{"id":"32F5F33FA68B77D6","name":"城門隧道轉車站 (B1)","lat":"22.381495","long":"114.137657"},{"id":"0A1DAEAFFDFF0B66","name":"可風中學","lat":"22.380443","long":"114.135135"},{"id":"3A2924B2461D053B","name":"梨木樹邨","lat":"22.377275","long":"114.136891"},{"id":"066AA1A504714A20","name":"和宜合道運動場","lat":"22.374018","long":"114.136465"},{"id":"1423FCFF61709EAC","name":"昌榮路","lat":"22.370511","long":"114.134739"},{"id":"0E65D3EC41A1D34B","name":"葵俊苑","lat":"22.364682","long":"114.132892"},{"id":"9217F5E1950F12BF","name":"新葵興花園","lat":"22.362571","long":"114.132174"},{"id":"3E8426FA1832BA50","name":"葵涌廣場","lat":"22.358435","long":"114.127814"},{"id":"7420DF52F1B42C9F","name":"新都會廣場","lat":"22.357777","long":"114.126133"},{"id":"4BF5699F5C8308BC","name":"盛福街","lat":"22.358690","long":"114.122074"},{"id":"33F3C429C71DA237","name":"永基路","lat":"22.361314","long":"114.120071"},{"id":"A7E87E8D797D1A52","name":"荃灣橫龍街","lat":"22.366632","long":"114.118071"},{"id":"132584D5CB2235BC","name":"楊屋道街市","lat":"22.368370","long":"114.114593"},{"id":"E0908A8C2459FA0F","name":"如心廣場巴士總站","lat":"22.368322","long":"114.112290"}],"routeId":"73P","description":"正常班次"},{"company":"ctb","route":"73P","routeType":null,"dir":"O","orig":"深灣","dest":"數碼港","stopList":[{"id":"002389","name":"深灣","lat":"22.243326112091","long":"114.16413796053"},{"id":"002223","name":"黃竹坑 (南朗山)","lat":"22.245241212091","long":"114.16723559053"},{"id":"002390","name":"南朗山道熟食市場, 南朗山道","lat":"22.247128452091","long":"114.16638027053"},{"id":"002357","name":"南朗山道, 黃竹坑道","lat":"22.248327512091","long":"114.16606157053"},{"id":"002358","name":"勝利工廠大廈, 黃竹坑道","lat":"22.248392422091","long":"114.16314899053"},{"id":"002160","name":"逸港居, 香港仔海傍道","lat":"22.247488362091","long":"114.15902634053"},{"id":"002161","name":"香港仔海濱公園, 香港仔海傍道","lat":"22.246983922091","long":"114.15584999053"},{"id":"002162","name":"香港仔魚類批發市場, 香港仔海傍道","lat":"22.247980382091","long":"114.15243083053"},{"id":"002163","name":"田灣街, 香港仔海傍道","lat":"22.248632712091","long":"114.14809052053"},{"id":"002333","name":"華富邨華樂樓, 華富道","lat":"22.251701562091","long":"114.13854444053"},{"id":"002334","name":"華富商場, 華富道","lat":"22.250930762091","long":"114.13735096053"},{"id":"002335","name":"華富邨華清樓, 華富道","lat":"22.251955682091","long":"114.13602424053"},{"id":"002336","name":"培英中學, 華富道","lat":"22.253517212091","long":"114.13564735053"},{"id":"002338","name":"華富 (北)","lat":"22.253571802091","long":"114.13739086053"},{"id":"002329","name":"域多利道分區電力站, 域多利道","lat":"22.256229222091","long":"114.13441163053"},{"id":"002696","name":"貝沙灣南灣, 數碼港道","lat":"22.255717912091","long":"114.13371182053"},{"id":"002391","name":"貝沙灣, 數碼港道","lat":"22.258219982091","long":"114.13291952053"},{"id":"002392","name":"數碼港","lat":"22.261996412091","long":"114.13067455053"}],"routeId":"73P","description":"正常班次"}]