[{"company":"kmb","route":"73S","routeType":"1","dir":"O","orig":"粉嶺站","dest":"和合石(橋頭路)","stopList":[{"id":"60952B4A38F3D82E","name":"粉嶺站轉車站 - 粉嶺站(D1)","lat":"22.490997","long":"114.138959"},{"id":"2BD35970A9125DB3","name":"和合石(橋頭路)","lat":"22.481188","long":"114.152330"}],"routeId":"73S","description":"正常班次"},{"company":"kmb","route":"73S","routeType":"1","dir":"I","orig":"和合石(橋頭路)","dest":"粉嶺站","stopList":[{"id":"2BD35970A9125DB3","name":"和合石(橋頭路)","lat":"22.481188","long":"114.152330"},{"id":"2EAB4A9D81722720","name":"和合石","lat":"22.482364","long":"114.143724"},{"id":"60952B4A38F3D82E","name":"粉嶺站轉車站 - 粉嶺站(D1)","lat":"22.490997","long":"114.138959"}],"routeId":"73S","description":"正常班次"},{"company":"ctb","route":"73S","routeType":null,"dir":"O","orig":"赤柱市場","dest":"海洋公園","stopList":[{"id":"002277","name":"赤柱村","lat":"22.219212682091","long":"114.21300366053"},{"id":"002378","name":"赤柱廣場","lat":"22.220223252091","long":"114.20920230053"},{"id":"002375","name":"舂坎角海灘, 舂磡角道","lat":"22.216125122091","long":"114.20500513053"},{"id":"002241","name":"淺水灣海灘, 淺水灣道","lat":"22.238580522091","long":"114.19490222053"},{"id":"002197","name":"深水灣, 香島道","lat":"22.245675382091","long":"114.18657401053"},{"id":"002352","name":"黃竹坑新圍, 黃竹坑道","lat":"22.248829442091","long":"114.17559659053"},{"id":"002225","name":"海洋公園","lat":"22.247576642091","long":"114.17391579053"}],"routeId":"73S","description":"正常班次"}]