[{"company":"gmb","route":"74","routeType":1,"orig":"九龍站","dest":"旺角(聯運街)(循環線)","stopList":[{"id":1,"name":"九龍站","lat":22.305013751416574,"long":22.305013751416574},{"id":2,"name":"渡船街,近文英樓","lat":22.307163346331222,"long":22.307163346331222},{"id":3,"name":"廣東道,近北海街","lat":22.308366262993324,"long":22.308366262993324},{"id":4,"name":"眾坊街,近駿發花園","lat":22.309974238004543,"long":22.309974238004543},{"id":5,"name":"永星里,近雅達商業大廈","lat":22.31084521673757,"long":22.31084521673757},{"id":6,"name":"彌敦道,近永星里","lat":22.311041248239018,"long":22.311041248239018},{"id":7,"name":"窩打老道,近青年會","lat":22.313593340873805,"long":22.313593340873805},{"id":8,"name":"窩打老道,近廣華醫院主座大樓東翼","lat":22.31488474471436,"long":22.31488474471436},{"id":9,"name":"廣華街近煙廠街","lat":22.31634771172863,"long":22.31634771172863},{"id":10,"name":"染布房街,近依利大廈","lat":22.319111070250077,"long":22.319111070250077},{"id":11,"name":"聯運街,近聯運街休憩處","lat":22.32117247628294,"long":22.32117247628294},{"id":12,"name":"洗衣街,近鴻德大廈","lat":22.322733160960407,"long":22.322733160960407},{"id":13,"name":"太子道西,近別樹一居","lat":22.324086807077162,"long":22.324086807077162},{"id":14,"name":"西洋菜南街,近生發大廈","lat":22.32226421302683,"long":22.32226421302683},{"id":15,"name":"洗衣街,近快富街","lat":22.320264343302686,"long":22.320264343302686},{"id":16,"name":"亞皆老街113號","lat":22.320158629867134,"long":22.320158629867134},{"id":17,"name":"窩打老道,近萬基大廈","lat":22.32019478977506,"long":22.32019478977506},{"id":18,"name":"窩打老道,近何文田街","lat":22.31746547006209,"long":22.31746547006209},{"id":19,"name":"窩打老道,近九龍華仁書院","lat":22.314599544359787,"long":22.314599544359787},{"id":20,"name":"窩打老道,近油麻地救護站","lat":22.31302884323611,"long":22.31302884323611},{"id":21,"name":"窩打老道,近金輝大廈","lat":22.312745966274356,"long":22.312745966274356},{"id":22,"name":"上海街,近文明里休憩花園","lat":22.311425924201075,"long":22.311425924201075},{"id":23,"name":"上海街,近海景絲麗酒店","lat":22.310212454949923,"long":22.310212454949923},{"id":24,"name":"上海街,近西貢街","lat":22.307564750015693,"long":22.307564750015693},{"id":25,"name":"佐敦道38號","lat":22.305456650920302,"long":22.305456650920302},{"id":26,"name":"佐敦道,近西九龍站","lat":22.30620986003244,"long":22.30620986003244},{"id":27,"name":"佐敦道, 近近擎天半島","lat":22.306730973120064,"long":22.306730973120064},{"id":28,"name":"九龍站","lat":22.305038589234098,"long":22.305038589234098}],"routeId":2005385,"description":"正常班次"}]