[{"company":"gmb","route":"74","routeType":1,"orig":"九龍站","dest":"旺角(聯運街)(循環線)","stopList":[{"id":20000691,"name":"九龍站","lat":22.305013751416574,"long":114.16291860312879},{"id":20000694,"name":"渡船街,近文英樓","lat":22.307163346331222,"long":114.16718864429329},{"id":20013231,"name":"廣東道,近北海街","lat":22.308366262993324,"long":114.16857808828355},{"id":20013199,"name":"眾坊街,近駿發花園","lat":22.309974238004543,"long":114.16906893253328},{"id":20013200,"name":"永星里,近雅達商業大廈","lat":22.31084521673757,"long":114.17045831680299},{"id":20013201,"name":"彌敦道,近永星里","lat":22.311041248239018,"long":114.17091161012652},{"id":20006085,"name":"窩打老道,近青年會","lat":22.313593340873805,"long":114.17166246939715},{"id":20000626,"name":"窩打老道,近廣華醫院主座大樓東翼","lat":22.31488474471436,"long":114.1726329875369},{"id":20006093,"name":"廣華街近煙廠街","lat":22.31634771172863,"long":114.17304058563231},{"id":20000627,"name":"染布房街,近依利大廈","lat":22.319111070250077,"long":114.1728755099062},{"id":20007744,"name":"聯運街,近聯運街休憩處","lat":22.32117247628294,"long":114.17227417230608},{"id":20013202,"name":"洗衣街,近鴻德大廈","lat":22.322733160960407,"long":114.17093843221666},{"id":20000628,"name":"太子道西,近別樹一居","lat":22.324086807077162,"long":114.16945875457388},{"id":20013203,"name":"西洋菜南街,近生發大廈","lat":22.32226421302683,"long":114.16943907737733},{"id":20013238,"name":"洗衣街,近快富街","lat":22.320264343302686,"long":114.17163312500635},{"id":20000912,"name":"亞皆老街113號","lat":22.320158629867134,"long":114.17334136941656},{"id":20000721,"name":"窩打老道,近萬基大廈","lat":22.32019478977506,"long":114.17685494915231},{"id":20013232,"name":"窩打老道,近何文田街","lat":22.31746547006209,"long":114.17480349540712},{"id":20013204,"name":"窩打老道,近九龍華仁書院","lat":22.314599544359787,"long":114.17271405458453},{"id":20013205,"name":"窩打老道,近油麻地救護站","lat":22.31302884323611,"long":114.17144000530244},{"id":20013206,"name":"窩打老道,近金輝大廈","lat":22.312745966274356,"long":114.16984274983407},{"id":20000870,"name":"上海街,近文明里休憩花園","lat":22.311425924201075,"long":114.16975058189485},{"id":20013239,"name":"上海街,近海景絲麗酒店","lat":22.310212454949923,"long":114.16997551918031},{"id":20013207,"name":"上海街,近西貢街","lat":22.307564750015693,"long":114.1698467731476},{"id":20000462,"name":"佐敦道38號","lat":22.305456650920302,"long":114.16883861228592},{"id":20010064,"name":"佐敦道,近西九龍站","lat":22.30620986003244,"long":114.16465401649477},{"id":20013233,"name":"佐敦道, 近擎天半島","lat":22.306730973120064,"long":114.16280597448352},{"id":20013208,"name":"九龍站","lat":22.305038589234098,"long":114.16285693645479}],"routeId":2005385,"description":"正常班次"}]