[{"company":"KMB","route":"74S","routeType":"1","dir":"O","orig":"平田","dest":"和合石","stopList":[{"id":"657899B3C4E4F4A5","name":"平田","lat":"22.308254","long":"114.235514"},{"id":"3AC4642497155EF3","name":"平田街","lat":"22.308644","long":"114.237155"},{"id":"681212A971005D69","name":"藍田(北)","lat":"22.309480","long":"114.237416"},{"id":"6491C7B3E4DAD76D","name":"啟旺樓","lat":"22.309732","long":"114.234902"},{"id":"1107CC28F2631CCB","name":"啟田商場","lat":"22.308382","long":"114.234675"},{"id":"3EF537320681EE89","name":"基孝中學","lat":"22.305787","long":"114.235572"},{"id":"2EF9764BE18FC290","name":"藍田站","lat":"22.305354","long":"114.234128"},{"id":"5B04604E989BBDF0","name":"觀塘法院 (F1)","lat":"22.310012","long":"114.229524"},{"id":"F36DEB05146E271D","name":"觀塘站 (E1)","lat":"22.311374","long":"114.227319"},{"id":"3CA81FA2944B754D","name":"觀塘駿業里 (C6)","lat":"22.312885","long":"114.224542"},{"id":"C9A46DDC082BAEE0","name":"創紀之城 (B1)","lat":"22.314351","long":"114.220671"},{"id":"ABF9301D1E5B52ED","name":"觀塘定富街","lat":"22.316772","long":"114.215491"},{"id":"266A4CDA19461A42","name":"牛頭角下邨","lat":"22.320432","long":"114.214418"},{"id":"8C79BE154468AE21","name":"德福花園","lat":"22.322542","long":"114.214064"},{"id":"26A996F589C84844","name":"九龍灣站","lat":"22.325428","long":"114.213973"},{"id":"F374B56E275194D8","name":"啟泰苑","lat":"22.328563","long":"114.212227"},{"id":"AD0B5EFA2471962C","name":"紅萼樓","lat":"22.337067","long":"114.205979"},{"id":"E47CD422B33E5BE7","name":"鑽石山站","lat":"22.339356","long":"114.201903"},{"id":"7917BB962CCB11C0","name":"沙田坳道 (C3)","lat":"22.341481","long":"114.194522"},{"id":"BE4DB8D578A94BEF","name":"摩士公園泳池","lat":"22.341570","long":"114.191604"},{"id":"EFED59E880B693F5","name":"天馬苑","lat":"22.342418","long":"114.186220"},{"id":"AA5CBDB0758443A9","name":"和合石","lat":"22.482439","long":"114.143218"},{"id":"C57ADC04BC7CF356","name":"和合石(橋頭路)","lat":"22.481114","long":"114.152827"},{"id":"AA5CBDB0758443A9","name":"和合石","lat":"22.482439","long":"114.143218"}],"routeId":"74S"},{"company":"KMB","route":"74S","routeType":"1","dir":"I","orig":"和合石","dest":"平田","stopList":[{"id":"AA5CBDB0758443A9","name":"和合石","lat":"22.482439","long":"114.143218"},{"id":"2BD35970A9125DB3","name":"和合石(橋頭路)","lat":"22.481188","long":"114.152330"},{"id":"326199D24220A42B","name":"天馬苑","lat":"22.342707","long":"114.186638"},{"id":"C847B9021C407731","name":"龍翔官立中學","lat":"22.342366","long":"114.189837"},{"id":"5536C9E3A0CE1228","name":"黃大仙站 (B6)","lat":"22.341855","long":"114.192100"},{"id":"96A6FE5F07BDF203","name":"沙田坳道 (A1)","lat":"22.341856","long":"114.195281"},{"id":"5D1E6432755E4F5F","name":"新蒲崗四美街","lat":"22.338682","long":"114.200734"},{"id":"4A8AAC7402C3F60F","name":"金碧樓","lat":"22.335033","long":"114.205083"},{"id":"BA03816A38B9DA7F","name":"啟業邨","lat":"22.330268","long":"114.210894"},{"id":"4BD5CE5106BB0697","name":"九龍灣站","lat":"22.325601","long":"114.214336"},{"id":"6465DE9EE57F6C94","name":"牛頭角下邨","lat":"22.321984","long":"114.214628"},{"id":"3E73B73B12E25DCF","name":"觀塘道休憩處","lat":"22.318039","long":"114.215032"},{"id":"CF579AAA2A4E506C","name":"牛頭角站 (V3)","lat":"22.315213","long":"114.219514"},{"id":"0B8C52E4C34E3B64","name":"觀塘市中心 (T5)","lat":"22.313264","long":"114.224346"},{"id":"144E9479168069DD","name":"觀塘游泳池 (R2)","lat":"22.310432","long":"114.229545"},{"id":"7459D3AB11AFD6B5","name":"藍田站","lat":"22.306525","long":"114.233772"},{"id":"3CB982FBC9E50AAA","name":"康田苑","lat":"22.307071","long":"114.235116"},{"id":"F49FA120DE5E6582","name":"啟仁樓","lat":"22.309246","long":"114.233601"},{"id":"23727783D2D3E994","name":"藍田綜合大樓","lat":"22.309953","long":"114.237311"},{"id":"EF17FDCDDF170D38","name":"平真樓","lat":"22.307422","long":"114.237626"},{"id":"657899B3C4E4F4A5","name":"平田","lat":"22.308254","long":"114.235514"}],"routeId":"74S"}]