[{"company":"kmb","route":"74S","routeType":"1","dir":"O","orig":"平田","dest":"和合石","stopList":[{"id":"657899B3C4E4F4A5","name":"平田","lat":"22.308254","long":"114.235514"},{"id":"3AC4642497155EF3","name":"平田街","lat":"22.308644","long":"114.237155"},{"id":"681212A971005D69","name":"藍田(北)","lat":"22.309480","long":"114.237416"},{"id":"6491C7B3E4DAD76D","name":"啟旺樓","lat":"22.309732","long":"114.234902"},{"id":"1107CC28F2631CCB","name":"啟田商場","lat":"22.308382","long":"114.234675"},{"id":"3EF537320681EE89","name":"基孝中學","lat":"22.305787","long":"114.235572"},{"id":"2EF9764BE18FC290","name":"藍田站","lat":"22.305354","long":"114.234128"},{"id":"5B04604E989BBDF0","name":"觀塘法院 (F1)","lat":"22.310012","long":"114.229524"},{"id":"F36DEB05146E271D","name":"觀塘站 (E1)","lat":"22.311374","long":"114.227319"},{"id":"3CA81FA2944B754D","name":"觀塘駿業里 (C6)","lat":"22.312885","long":"114.224542"},{"id":"C9A46DDC082BAEE0","name":"創紀之城 (B1)","lat":"22.314351","long":"114.220671"},{"id":"ABF9301D1E5B52ED","name":"觀塘定富街","lat":"22.316772","long":"114.215491"},{"id":"266A4CDA19461A42","name":"牛頭角下邨","lat":"22.320432","long":"114.214418"},{"id":"8C79BE154468AE21","name":"德福花園","lat":"22.322542","long":"114.214064"},{"id":"26A996F589C84844","name":"九龍灣站","lat":"22.325428","long":"114.213973"},{"id":"F374B56E275194D8","name":"啟泰苑","lat":"22.328563","long":"114.212227"},{"id":"AD0B5EFA2471962C","name":"紅萼樓 (H7)","lat":"22.337067","long":"114.205979"},{"id":"E47CD422B33E5BE7","name":"鑽石山站","lat":"22.339356","long":"114.201903"},{"id":"7917BB962CCB11C0","name":"黃大仙轉車站, 沙田坳道 (C3)","lat":"22.341481","long":"114.194522"},{"id":"BE4DB8D578A94BEF","name":"摩士公園泳池","lat":"22.341570","long":"114.191604"},{"id":"EFED59E880B693F5","name":"天馬苑","lat":"22.342418","long":"114.186220"},{"id":"AA5CBDB0758443A9","name":"和合石","lat":"22.482439","long":"114.143218"}],"routeId":"74S","description":"正常班次"},{"company":"kmb","route":"74S","routeType":"1","dir":"I","orig":"和合石","dest":"平田","stopList":[{"id":"AA5CBDB0758443A9","name":"和合石","lat":"22.482439","long":"114.143218"},{"id":"326199D24220A42B","name":"天馬苑","lat":"22.342707","long":"114.186638"},{"id":"C847B9021C407731","name":"龍翔官立中學","lat":"22.342366","long":"114.189837"},{"id":"5536C9E3A0CE1228","name":"黃大仙轉車站 (B6)","lat":"22.341855","long":"114.192100"},{"id":"96A6FE5F07BDF203","name":"黃大仙轉車站, 沙田坳道 (A1)","lat":"22.341856","long":"114.195281"},{"id":"5D1E6432755E4F5F","name":"新蒲崗四美街","lat":"22.338682","long":"114.200734"},{"id":"4A8AAC7402C3F60F","name":"金碧樓 (L2)","lat":"22.335033","long":"114.205083"},{"id":"BA03816A38B9DA7F","name":"啟業邨","lat":"22.330268","long":"114.210894"},{"id":"4BD5CE5106BB0697","name":"九龍灣站","lat":"22.325601","long":"114.214336"},{"id":"6465DE9EE57F6C94","name":"牛頭角下邨","lat":"22.321984","long":"114.214628"},{"id":"3E73B73B12E25DCF","name":"觀塘道休憩處","lat":"22.318039","long":"114.215032"},{"id":"CF579AAA2A4E506C","name":"牛頭角站 (V3)","lat":"22.315213","long":"114.219514"},{"id":"0B8C52E4C34E3B64","name":"觀塘市中心 (T5)","lat":"22.313264","long":"114.224346"},{"id":"144E9479168069DD","name":"觀塘游泳池 (R2)","lat":"22.310432","long":"114.229545"},{"id":"7459D3AB11AFD6B5","name":"藍田站","lat":"22.306525","long":"114.233772"},{"id":"3CB982FBC9E50AAA","name":"康田苑","lat":"22.307071","long":"114.235116"},{"id":"F49FA120DE5E6582","name":"啟仁樓","lat":"22.309246","long":"114.233601"},{"id":"23727783D2D3E994","name":"藍田綜合大樓","lat":"22.309953","long":"114.237311"},{"id":"EF17FDCDDF170D38","name":"平真樓","lat":"22.307422","long":"114.237626"},{"id":"657899B3C4E4F4A5","name":"平田","lat":"22.308254","long":"114.235514"}],"routeId":"74S","description":"正常班次"},{"company":"gmb","route":"74S","routeType":1,"orig":"九龍站","dest":"何文田山道(循環線)","stopList":[{"id":20000691,"name":"九龍站","lat":22.305013751416574,"long":114.16291860312879},{"id":20016267,"name":"博物館道，近西九文化區藝術公園 ","lat":22.300925237865254,"long":114.15733084435831},{"id":20000694,"name":"渡船街,近文英樓","lat":22.307163346331222,"long":114.16718864429329},{"id":20013231,"name":"廣東道,近北海街","lat":22.308366262993324,"long":114.16857808828355},{"id":20013199,"name":"眾坊街,近駿發花園","lat":22.309974238004543,"long":114.16906893253328},{"id":20013200,"name":"永星里,近雅達商業大廈","lat":22.31084521673757,"long":114.17045831680299},{"id":20013201,"name":"彌敦道,近永星里","lat":22.311041248239018,"long":114.17091161012652},{"id":20006085,"name":"窩打老道,近青年會","lat":22.313593340873805,"long":114.17166246939715},{"id":20000626,"name":"窩打老道,近廣華醫院主座大樓東翼","lat":22.31488474471436,"long":114.1726329875369},{"id":20006093,"name":"廣華街, 近煙廠街","lat":22.31634771172863,"long":114.17304058563231},{"id":20000627,"name":"染布房街,近依利大廈","lat":22.319111070250077,"long":114.1728755099062},{"id":20000912,"name":"亞皆老街113號","lat":22.320158629867134,"long":114.17334136941656},{"id":20000721,"name":"窩打老道,近萬基大廈","lat":22.32019478977506,"long":114.17685494915231},{"id":20013232,"name":"何文田街,近曾榕大廈","lat":22.31746547006209,"long":114.17480349540712},{"id":20013209,"name":"何文田街,近文采閣","lat":22.315750884353523,"long":114.17538553476335},{"id":20013210,"name":"何文田山道,近仁禮花園","lat":22.31631910684203,"long":114.17590320110322},{"id":20013234,"name":"何文田山道,近文豪閣","lat":22.316641677531134,"long":114.17624652385713},{"id":20013235,"name":"何文田山道,近金百利大廈","lat":22.31541094228299,"long":114.17681515216829},{"id":20013236,"name":"何文田山道休憩花園","lat":22.31399781655467,"long":114.17643293738368},{"id":20013237,"name":"衛理道, 近李炳紀念學校","lat":22.313057379038153,"long":114.17561486363412},{"id":20013204,"name":"窩打老道,近九龍華仁書院","lat":22.314599544359787,"long":114.17271405458453},{"id":20013205,"name":"窩打老道,近油麻地救護站","lat":22.31302884323611,"long":114.17144000530244},{"id":20013206,"name":"窩打老道,近金輝大廈","lat":22.312745966274356,"long":114.16984274983407},{"id":20000870,"name":"上海街,近文明里休憩花園","lat":22.311425924201075,"long":114.16975058189485},{"id":20013239,"name":"上海街,近海景絲麗酒店","lat":22.310212454949923,"long":114.16997551918031},{"id":20013207,"name":"上海街,近西貢街","lat":22.307564750015693,"long":114.1698467731476},{"id":20000462,"name":"佐敦道38號","lat":22.305456650920302,"long":114.16883861228592},{"id":20010064,"name":"佐敦道,近西九龍站","lat":22.30620986003244,"long":114.16465401649477},{"id":20013233,"name":"佐敦道, 近擎天半島","lat":22.306730973120064,"long":114.16280597448352},{"id":20013208,"name":"九龍站","lat":22.305038589234098,"long":114.16285693645479}],"routeId":2005386,"description":"額外服務班次"}]