[{"company":"ctb","route":"76","routeType":null,"dir":"I","orig":"銅鑼灣 (邊寧頓街)","dest":"黃竹坑站","stopList":[{"id":"002485","name":"伊利沙伯體育館, 皇后大道東","lat":"22.274920852091","long":"114.17867690053"},{"id":"002469","name":"禮頓道, 摩理臣山道","lat":"22.276257182091","long":"114.18045880053"},{"id":"002455","name":"勿地臣街, 禮頓道","lat":"22.277006672091","long":"114.18180360053"},{"id":"002456","name":"雲翠大廈, 禮頓道","lat":"22.277441222091","long":"114.18464429053"},{"id":"002474","name":"邊寧頓街","lat":"22.278458822091","long":"114.18603081053"},{"id":"002457","name":"加路連山道, 禮頓道","lat":"22.277432082091","long":"114.18577553053"},{"id":"002458","name":"紀利華木球會, 禮頓道","lat":"22.276970692091","long":"114.18220985053"},{"id":"002558","name":"跑馬地馬場, 摩理臣山道","lat":"22.275441072091","long":"114.18030536053"},{"id":"002486","name":"錫克廟, 皇后大道東","lat":"22.274802192091","long":"114.17851714053"},{"id":"002494","name":"肇輝臺, 司徒拔道","lat":"22.270625942091","long":"114.17857535053"},{"id":"002495","name":"司徒拔道休憩處, 司徒拔道","lat":"22.268871652091","long":"114.17941913053"},{"id":"002496","name":"東山臺, 司徒拔道","lat":"22.268090162091","long":"114.18216103053"},{"id":"002541","name":"大坑道, 黃泥涌峽道","lat":"22.263508692091","long":"114.18521560053"},{"id":"002542","name":"香港網球中心, 黃泥涌峽道","lat":"22.260060482091","long":"114.19182820053"},{"id":"002543","name":"黃泥涌水塘公園, 黃泥涌峽道","lat":"22.257475342091","long":"114.19318927053"},{"id":"002219","name":"深水灣道, 南風道","lat":"22.253695262091","long":"114.18563568053"},{"id":"002220","name":"南島中學, 南風道","lat":"22.254248372091","long":"114.18092482053"},{"id":"002217","name":"黃竹坑老人服務大樓, 南風道","lat":"22.250621152091","long":"114.17457698053"},{"id":"002354","name":"黃竹坑體育館, 黃竹坑道","lat":"22.249915342091","long":"114.17331087053"},{"id":"002355","name":"黃竹坑遊樂場, 黃竹坑道","lat":"22.250122902091","long":"114.16985106053"},{"id":"002357","name":"南朗山道, 黃竹坑道","lat":"22.248327512091","long":"114.16606157053"},{"id":"002358","name":"勝利工廠大廈, 黃竹坑道","lat":"22.248392422091","long":"114.16314899053"},{"id":"002160","name":"逸港居, 香港仔海傍道","lat":"22.247488362091","long":"114.15902634053"},{"id":"002161","name":"香港仔海濱公園, 香港仔海傍道","lat":"22.246983922091","long":"114.15584999053"},{"id":"002164","name":"崇文街, 香港仔水塘道","lat":"22.249666202091","long":"114.15592867053"},{"id":"002165","name":"漁光村白沙樓, 香港仔水塘道","lat":"22.251493752091","long":"114.15661982053"},{"id":"002365","name":"漁光村海鷗樓, 漁光道","lat":"22.251929752091","long":"114.15786263053"},{"id":"002366","name":"扶康會康復中心, 漁光道","lat":"22.249937652091","long":"114.15891285053"},{"id":"002367","name":"石排灣邨, 漁光道","lat":"22.248231762091","long":"114.15774788053"},{"id":"002368","name":"漁暉苑日暉閣, 漁光道","lat":"22.248786452091","long":"114.15676886053"},{"id":"002369","name":"石排灣","lat":"22.249828512091","long":"114.15721795053"}],"routeId":"76","description":"正常班次"},{"company":"ctb","route":"76","routeType":null,"dir":"O","orig":"黃竹坑站","dest":"銅鑼灣 (邊寧頓街)","stopList":[{"id":"002369","name":"石排灣","lat":"22.249828512091","long":"114.15721795053"},{"id":"002158","name":"漁暉道, 香港仔大道","lat":"22.248585702091","long":"114.15575506053"},{"id":"002159","name":"業漁大廈, 香港仔大道","lat":"22.247578892091","long":"114.15849066053"},{"id":"002344","name":"甄沾記大廈, 黃竹坑道","lat":"22.248523252091","long":"114.16362493053"},{"id":"002383","name":"業興街, 黃竹坑道","lat":"22.249540662091","long":"114.16811154053"},{"id":"002345","name":"黃竹坑遊樂場, 黃竹坑道","lat":"22.250546142091","long":"114.17056977053"},{"id":"002346","name":"葛量洪醫院, 黃竹坑道","lat":"22.250382182091","long":"114.17309770053"},{"id":"002221","name":"黃竹坑老人服務綜合大樓, 南風道","lat":"22.250687422091","long":"114.17442024053"},{"id":"002216","name":"南風 - 柏架電力隧道, 南風道","lat":"22.254298602091","long":"114.18136199053"},{"id":"002218","name":"深水灣道, 南風道","lat":"22.254161622091","long":"114.18497755053"},{"id":"002544","name":"大潭水塘道, 黃泥涌峽道","lat":"22.257461242091","long":"114.19249610053"},{"id":"002545","name":"香港網球中心, 黃泥涌峽道","lat":"22.259090472091","long":"114.19230905053"},{"id":"002546","name":"怡園, 黃泥涌峽道","lat":"22.263140312091","long":"114.18575988053"},{"id":"002506","name":"寶雲道, 司徒拔道","lat":"22.264303832091","long":"114.18466630053"},{"id":"002507","name":"紀園, 司徒拔道","lat":"22.267170202091","long":"114.18190378053"},{"id":"002508","name":"東山臺, 司徒拔道","lat":"22.268329442091","long":"114.18188256053"},{"id":"002509","name":"司徒拔道花園, 司徒拔道","lat":"22.268619682091","long":"114.17984819053"},{"id":"002510","name":"肇輝臺, 司徒拔道","lat":"22.270210462091","long":"114.17842103053"},{"id":"002485","name":"伊利沙伯體育館, 皇后大道東","lat":"22.274920852091","long":"114.17867690053"},{"id":"002469","name":"禮頓道, 摩理臣山道","lat":"22.276257182091","long":"114.18045880053"},{"id":"002455","name":"勿地臣街, 禮頓道","lat":"22.277006672091","long":"114.18180360053"},{"id":"002456","name":"雲翠大廈, 禮頓道","lat":"22.277441222091","long":"114.18464429053"},{"id":"002474","name":"邊寧頓街","lat":"22.278458822091","long":"114.18603081053"}],"routeId":"76","description":"正常班次"},{"company":"gmb","route":"76","routeType":1,"orig":"元朗(福康街)","dest":"小磡村","stopList":[{"id":20015409,"name":"福康街, 近金寶樓","lat":22.445104359918382,"long":114.02857482433319},{"id":20001281,"name":"青山公路元朗段, 金豐大廈外","lat":22.44456936461265,"long":114.03080496109742},{"id":20001283,"name":"青山公路, 元朗東成里路","lat":22.444390792321386,"long":114.04359930444288},{"id":20015413,"name":"青山公路－潭尾段, 近悅富豪苑 House 1","lat":22.466857296163678,"long":114.05400216579439},{"id":20015415,"name":"青山公路－潭尾段, 近知年護養院泰苑小築Ｅ１０","lat":22.47636128200439,"long":114.05652880668642},{"id":20015475,"name":"青山公路－米埔段, 近加州豪園","lat":22.48153931123298,"long":114.05782169210359},{"id":20015476,"name":"青山公路－新田段, 近惇裕學校","lat":22.498011756077346,"long":114.0770124717844},{"id":20015477,"name":"嘉龍路, 近新田軍營12座","lat":22.489312520699702,"long":114.08087815115773}],"routeId":2007464,"description":"正常班次"},{"company":"gmb","route":"76","routeType":2,"orig":"小磡村","dest":"元朗(福康街)","stopList":[{"id":20015477,"name":"嘉龍路, 近新田軍營12座","lat":22.489312520699702,"long":114.08087815115773},{"id":20015423,"name":"青山公路－新田段, 近文天祥公園","lat":22.497642193260134,"long":114.0766614675522},{"id":20015478,"name":"青山公路－米埔段, 近加州豪園","lat":22.481417337522085,"long":114.05789720518936},{"id":20015425,"name":"新潭路, 近宏園 ","lat":22.46410227004174,"long":114.05390560626985},{"id":20001286,"name":"青山公路, 近楊屋村","lat":22.444173224968,"long":114.04258919301918},{"id":20001287,"name":"青山公路元朗段, 近 YOHO Midtown","lat":22.444310650896895,"long":114.03435106620873},{"id":20001288,"name":"青山公路, 又新街","lat":22.44433495089039,"long":114.03122293497171},{"id":20001289,"name":"青山公路, 大棠路","lat":22.444368961604518,"long":114.02890110583391},{"id":20015409,"name":"福康街, 近金寶樓","lat":22.445104359918382,"long":114.02857482433319}],"routeId":2007464,"description":"正常班次"},{"company":"gmb","route":"76","routeType":1,"orig":"小磡村","dest":"元朗(福康街)","stopList":[{"id":20015477,"name":"嘉龍路, 近新田軍營12座","lat":22.489312520699702,"long":114.08087815115773},{"id":20015423,"name":"青山公路－新田段, 近文天祥公園","lat":22.497642193260134,"long":114.0766614675522},{"id":20015478,"name":"青山公路－米埔段, 近加州豪園","lat":22.481417337522085,"long":114.05789720518936},{"id":20015425,"name":"新潭路, 近宏園 ","lat":22.46410227004174,"long":114.05390560626985},{"id":20001286,"name":"青山公路, 近楊屋村","lat":22.444173224968,"long":114.04258919301918},{"id":20001287,"name":"青山公路元朗段, 近 YOHO Midtown","lat":22.444310650896895,"long":114.03435106620873},{"id":20015409,"name":"福康街, 近金寶樓","lat":22.445104359918382,"long":114.02857482433319}],"routeId":2008094,"description":"特別班次(不經擊壤路)"}]