[{"company":"CTB","route":"77X","routeType":null,"dir":"I","orig":"華貴邨","dest":"西灣河","stopList":[],"routeId":"77X"},{"company":"CTB","route":"77X","routeType":null,"dir":"O","orig":"華貴邨","dest":"西灣河","stopList":[{"id":"002372","name":"華貴邨","lat":"22.249877332091","long":"114.13994005053"},{"id":"002295","name":"牛奶公司冰廠及冷房, 田灣海旁道","lat":"22.248630782091","long":"114.14418340053"},{"id":"002298","name":"明愛張奧偉國際賓館, 田灣街","lat":"22.249830462091","long":"114.14933794053"},{"id":"002396","name":"田灣商場, 田灣街","lat":"22.251100912091","long":"114.14973969053"},{"id":"002294","name":"耀中幼教學院, 田灣山道","lat":"22.250298772091","long":"114.14756291053"},{"id":"002259","name":"田灣街, 石排灣道","lat":"22.249420192091","long":"114.14841511053"},{"id":"002363","name":"香港仔","lat":"22.247404462091","long":"114.15549585053"},{"id":"002159","name":"業漁大廈, 香港仔大道","lat":"22.247578892091","long":"114.15849066053"},{"id":"002343","name":"香港仔工業學校, 黃竹坑道","lat":"22.248699582091","long":"114.16253441053"},{"id":"001258","name":"北角消防局, 渣華道","lat":"22.292126752091","long":"114.20781923053"},{"id":"001267","name":"北角官立小學, 英皇道","lat":"22.288825782091","long":"114.20986716053"},{"id":"001268","name":"新威園, 英皇道","lat":"22.285544382091","long":"114.21133814053"},{"id":"001269","name":"惠安苑, 英皇道","lat":"22.284763112091","long":"114.21319278053"},{"id":"001270","name":"太古城中心, 英皇道","lat":"22.285287892091","long":"114.21758355053"},{"id":"001313","name":"太康樓, 太康街","lat":"22.283340892091","long":"114.22177946053"}],"routeId":"77X"}]