[{"company":"KMB","route":"78","routeType":"1","dir":"O","orig":"沙頭角","dest":"粉嶺站(蓬瀛仙館)","stopList":[{"id":"AC1FD9BDD09D1DD6","name":"沙頭角總站","lat":"22.545496","long":"114.223617"},{"id":"6E31EAD2D04F8310","name":"担水坑","lat":"22.544982","long":"114.219009"},{"id":"F8E6D797A84D5328","name":"新村","lat":"22.542457","long":"114.216798"},{"id":"11DB53AE44D5FB17","name":"塘肚","lat":"22.538651","long":"114.213584"},{"id":"D5FDE0F2F444CE0E","name":"沙頭角診所","lat":"22.536027","long":"114.210056"},{"id":"40B96472183BDCC5","name":"南涌","lat":"22.534156","long":"114.207512"},{"id":"085E45F8000A7EFE","name":"鹽灶下","lat":"22.532666","long":"114.205560"},{"id":"D3EE57AA0CC7FF15","name":"石橋頭村","lat":"22.531582","long":"114.204057"},{"id":"CFE2F36860FB2F12","name":"麻雀嶺","lat":"22.530884","long":"114.201573"},{"id":"03E55F77FB01CF5E","name":"下禾坑","lat":"22.529475","long":"114.198128"},{"id":"FA44FBDA21BE2E05","name":"禾坑","lat":"22.526317","long":"114.194477"},{"id":"0DC81A7980B2F1F7","name":"萬屋邊","lat":"22.524451","long":"114.188264"},{"id":"A0CA9CC1118DE65E","name":"萊洞","lat":"22.521884","long":"114.183061"},{"id":"CA9E9870D7B2FF36","name":"華明總站","lat":"22.484557","long":"114.141194"},{"id":"9D388587636920DA","name":"蓬瀛仙館 (D2)","lat":"22.491000","long":"114.138482"}],"routeId":"78"},{"company":"NWFB","route":"78","routeType":null,"dir":"I","orig":"華貴邨","dest":"黃竹坑","stopList":[{"id":"002372","name":"華貴邨","lat":"22.249877332091","long":"114.13994005053"},{"id":"002295","name":"牛奶公司冰廠及冷房, 田灣海旁道","lat":"22.248630782091","long":"114.14418340053"},{"id":"002298","name":"明愛張奧偉國際賓館, 田灣街","lat":"22.249830462091","long":"114.14933794053"},{"id":"002396","name":"田灣商場, 田灣街","lat":"22.251100912091","long":"114.14973969053"},{"id":"002294","name":"耀中幼教學院, 田灣山道","lat":"22.250298772091","long":"114.14756291053"},{"id":"003287","name":"興和街, 石排灣道","lat":"22.249678472091","long":"114.14790169053"},{"id":"002157","name":"聖伯多祿堂, 香港仔大道","lat":"22.249804272091","long":"114.15368046053"},{"id":"002158","name":"漁暉道, 香港仔大道","lat":"22.248585702091","long":"114.15575506053"},{"id":"002159","name":"業漁大廈, 香港仔大道","lat":"22.247578892091","long":"114.15849066053"},{"id":"002344","name":"甄沾記大廈, 黃竹坑道","lat":"22.248523252091","long":"114.16362493053"},{"id":"003451","name":"黃竹坑站","lat":"22.248175452091","long":"114.16834820053"},{"id":"002224","name":"南朗山道熟食市場, 南朗山道","lat":"22.247464142091","long":"114.16666866053"},{"id":"002223","name":"黃竹坑 (南朗山)","lat":"22.245241212091","long":"114.16723559053"}],"routeId":"78"},{"company":"NWFB","route":"78","routeType":null,"dir":"O","orig":"黃竹坑","dest":"華貴邨","stopList":[{"id":"002223","name":"黃竹坑 (南朗山)","lat":"22.245241212091","long":"114.16723559053"},{"id":"002390","name":"南朗山道熟食市場, 南朗山道","lat":"22.247128452091","long":"114.16638027053"},{"id":"003451","name":"黃竹坑站","lat":"22.248175452091","long":"114.16834820053"},{"id":"002357","name":"南朗山道, 黃竹坑道","lat":"22.248327512091","long":"114.16606157053"},{"id":"002358","name":"勝利工廠大廈, 黃竹坑道","lat":"22.248392422091","long":"114.16314899053"},{"id":"002160","name":"逸港居, 香港仔海傍道","lat":"22.247488362091","long":"114.15902634053"},{"id":"002161","name":"香港仔海濱公園, 香港仔海傍道","lat":"22.246983922091","long":"114.15584999053"},{"id":"002162","name":"香港仔魚類批發市場, 香港仔海傍道","lat":"22.247980382091","long":"114.15243083053"},{"id":"002296","name":"興偉工業中心, 田灣海旁道","lat":"22.248569812091","long":"114.14726387053"},{"id":"002297","name":"牛奶公司冰廠及冷房, 田灣海旁道","lat":"22.248590042091","long":"114.14442990053"},{"id":"002372","name":"華貴邨","lat":"22.249877332091","long":"114.13994005053"},{"id":"002295","name":"牛奶公司冰廠及冷房, 田灣海旁道","lat":"22.248630782091","long":"114.14418340053"},{"id":"002298","name":"明愛張奧偉國際賓館, 田灣街","lat":"22.249830462091","long":"114.14933794053"},{"id":"002396","name":"田灣商場, 田灣街","lat":"22.251100912091","long":"114.14973969053"}],"routeId":"78"}]