[{"company":"kmb","route":"78A","routeType":"1","dir":"O","orig":"皇后山","dest":"粉嶺站 (循環線)","stopList":[{"id":"886559B17A8D61EC","name":"皇后山總站","lat":"22.504252","long":"114.156465"},{"id":"A911ACA189669DB4","name":"山麗苑","lat":"22.503694","long":"114.160603"},{"id":"A088D19226D59E98","name":"龍躍頭","lat":"22.503705","long":"114.149464"},{"id":"6573811D015A0818","name":"安樂村","lat":"22.499857","long":"114.145735"},{"id":"A22E315AD21129EB","name":"粉嶺樂和街","lat":"22.497002","long":"114.142831"},{"id":"C837C3C549793472","name":"粉嶺中心","lat":"22.490874","long":"114.142257"},{"id":"9BE3D659E4C144D2","name":"粉嶺名都 (B1)","lat":"22.492576","long":"114.139786"},{"id":"000CFEE2F92DC17B","name":"粉嶺樓","lat":"22.495982","long":"114.141578"},{"id":"53BB93AAB2D45F3B","name":"聯和墟球場","lat":"22.497484","long":"114.143070"},{"id":"6C2DBC45160AA4BF","name":"逸峯","lat":"22.500694","long":"114.146110"},{"id":"E5F082F4C7300273","name":"龍躍頭","lat":"22.503821","long":"114.149324"},{"id":"91E946260F8BCBE8","name":"皇后山總站","lat":"22.504160","long":"114.156173"},{"id":"A911ACA189669DB4","name":"山麗苑","lat":"22.503694","long":"114.160603"},{"id":"91E946260F8BCBE8","name":"皇后山總站","lat":"22.504160","long":"114.156173"}],"routeId":"78A","description":"正常班次"},{"company":"kmb","route":"78A","routeType":"3","dir":"O","orig":"皇后山","dest":"粉嶺站 (循環線) [不經山麗]","stopList":[{"id":"886559B17A8D61EC","name":"皇后山總站","lat":"22.504252","long":"114.156465"},{"id":"A088D19226D59E98","name":"龍躍頭","lat":"22.503705","long":"114.149464"},{"id":"6573811D015A0818","name":"安樂村","lat":"22.499857","long":"114.145735"},{"id":"A22E315AD21129EB","name":"粉嶺樂和街","lat":"22.497002","long":"114.142831"},{"id":"C837C3C549793472","name":"粉嶺中心","lat":"22.490874","long":"114.142257"},{"id":"9BE3D659E4C144D2","name":"粉嶺名都 (B1)","lat":"22.492576","long":"114.139786"},{"id":"000CFEE2F92DC17B","name":"粉嶺樓","lat":"22.495982","long":"114.141578"},{"id":"53BB93AAB2D45F3B","name":"聯和墟球場","lat":"22.497484","long":"114.143070"},{"id":"6C2DBC45160AA4BF","name":"逸峯","lat":"22.500694","long":"114.146110"},{"id":"E5F082F4C7300273","name":"龍躍頭","lat":"22.503821","long":"114.149324"},{"id":"91E946260F8BCBE8","name":"皇后山總站","lat":"22.504160","long":"114.156173"},{"id":"A911ACA189669DB4","name":"山麗苑","lat":"22.503694","long":"114.160603"},{"id":"91E946260F8BCBE8","name":"皇后山總站","lat":"22.504160","long":"114.156173"}],"routeId":"78A","description":"特別班次"},{"company":"kmb","route":"78A","routeType":"5","dir":"O","orig":"山麗苑","dest":"只往粉嶺名都","stopList":[{"id":"A911ACA189669DB4","name":"山麗苑","lat":"22.503694","long":"114.160603"},{"id":"A088D19226D59E98","name":"龍躍頭","lat":"22.503705","long":"114.149464"},{"id":"6573811D015A0818","name":"安樂村","lat":"22.499857","long":"114.145735"},{"id":"A22E315AD21129EB","name":"粉嶺樂和街","lat":"22.497002","long":"114.142831"},{"id":"C837C3C549793472","name":"粉嶺中心","lat":"22.490874","long":"114.142257"},{"id":"9BE3D659E4C144D2","name":"粉嶺名都 (B1)","lat":"22.492576","long":"114.139786"}],"routeId":"78A","description":"特別班次"},{"company":"gmb","route":"78A","routeType":1,"orig":"大角咀(維港灣)公共運輸交匯處","dest":"尖沙咀(北京道)","stopList":[{"id":20004190,"name":"大角咀(維港灣)公共運輸交匯處","lat":22.318541189856774,"long":114.1588116633438},{"id":20000905,"name":"海輝道小巴總站","lat":22.318486774175586,"long":114.15683166564865},{"id":20006101,"name":"海泓道(南行巴士灣)","lat":22.3163472395666,"long":114.16388805612272},{"id":20004189,"name":"渡船街28號","lat":22.307380097959864,"long":114.16747978355211},{"id":20006099,"name":"廣東道佐治五世紀念公園外","lat":22.304210376504336,"long":114.16787789620797},{"id":20002816,"name":"廣東道港景峰外","lat":22.302467481045863,"long":114.16811092242634},{"id":20006919,"name":"廣東道中港中心外","lat":22.29909006128294,"long":114.16869340590769},{"id":20006105,"name":"北京道誠信大廈外","lat":22.296335839032167,"long":114.17149812974158}],"routeId":2003471,"description":"短程班次"},{"company":"gmb","route":"78A","routeType":1,"orig":"錦上路站","dest":"八鄉路(近大欖隧道轉車站)","stopList":[{"id":20016894,"name":"錦上路站公共運輸交匯處","lat":22.43463474656554,"long":114.06491405703265},{"id":20002580,"name":"八鄉路,(近大欖隧道轉車站)小巴總站","lat":22.42020352989913,"long":114.06231009245272}],"routeId":2003704,"description":"正常班次 "},{"company":"gmb","route":"78A","routeType":2,"orig":"八鄉路(近大欖隧道轉車站)","dest":"錦上路站","stopList":[{"id":20010462,"name":"八鄉路,(近大欖隧道轉車站)小巴總站","lat":22.420202845603807,"long":114.06234920024873},{"id":20002581,"name":"錦上路, 近衛蘆","lat":22.4275793262015,"long":114.07255174237994},{"id":20016894,"name":"錦上路站公共運輸交匯處","lat":22.43463474656554,"long":114.06491405703265}],"routeId":2003704,"description":"正常班次 "}]