[{"company":"KMB","route":"78A","routeType":"1","dir":"O","orig":"皇后山總站","dest":"粉嶺站 (循環線)","stopList":[{"id":"886559B17A8D61EC","name":"皇后山總站","lat":"22.504252","long":"114.156465"},{"id":"A911ACA189669DB4","name":"山麗苑","lat":"22.503694","long":"114.160603"},{"id":"A088D19226D59E98","name":"龍躍頭","lat":"22.503705","long":"114.149464"},{"id":"6573811D015A0818","name":"安樂村","lat":"22.499857","long":"114.145735"},{"id":"A22E315AD21129EB","name":"粉嶺樂和街","lat":"22.497002","long":"114.142831"},{"id":"C837C3C549793472","name":"粉嶺中心","lat":"22.490874","long":"114.142257"},{"id":"9BE3D659E4C144D2","name":"粉嶺名都 (B1)","lat":"22.492576","long":"114.139786"},{"id":"000CFEE2F92DC17B","name":"粉嶺樓","lat":"22.495982","long":"114.141578"},{"id":"53BB93AAB2D45F3B","name":"聯和墟球場","lat":"22.497484","long":"114.143070"},{"id":"6C2DBC45160AA4BF","name":"逸峯","lat":"22.500694","long":"114.146110"},{"id":"E5F082F4C7300273","name":"龍躍頭","lat":"22.503821","long":"114.149324"},{"id":"91E946260F8BCBE8","name":"皇后山總站","lat":"22.504160","long":"114.156173"},{"id":"A911ACA189669DB4","name":"山麗苑","lat":"22.503694","long":"114.160603"},{"id":"91E946260F8BCBE8","name":"皇后山總站","lat":"22.504160","long":"114.156173"}],"routeId":"78A"}]