[{"company":"nwfb","route":"793","routeType":null,"dir":"I","orig":"蘇屋","dest":"將軍澳工業邨","stopList":[{"id":"002836","name":"蘇屋邨","lat":"22.340784972091","long":"114.15881631053"},{"id":"002845","name":"蘇屋邨杜鵑樓, 保安道","lat":"22.339571922091","long":"114.15663301053"},{"id":"002842","name":"長發街, 青山道","lat":"22.338304542091","long":"114.15655635053"},{"id":"003232","name":"永隆街, 青山道","lat":"22.337672732091","long":"114.15737477053"},{"id":"002887","name":"東京街, 青山道","lat":"22.336158072091","long":"114.15931964053"},{"id":"001405","name":"營盤街, 青山道","lat":"22.335460892091","long":"114.16022133053"},{"id":"002872","name":"寶血醫院, 青山道","lat":"22.334155302091","long":"114.16191366053"},{"id":"002873","name":"石硤尾街, 大埔道","lat":"22.330996832091","long":"114.16547736053"},{"id":"002874","name":"西洋菜里, 大埔道","lat":"22.328753722091","long":"114.16679815053"},{"id":"001556","name":"太子站, 彌敦道","lat":"22.325863322091","long":"114.16808965053"},{"id":"001557","name":"聯合廣場, 彌敦道","lat":"22.323454062091","long":"114.16858963053"},{"id":"002716","name":"花園街街市, 旺角道","lat":"22.321174472091","long":"114.17052777053"},{"id":"002717","name":"嘉道理道, 亞皆老街","lat":"22.320311822091","long":"114.17432683053"},{"id":"002718","name":"中華電力公司, 亞皆老街","lat":"22.320606122091","long":"114.17577330053"},{"id":"002875","name":"九龍醫院主座及西翼大樓, 亞皆老街","lat":"22.322781462091","long":"114.18052037053"},{"id":"003061","name":"醫院管理局大樓, 亞皆老街","lat":"22.323751152091","long":"114.18276475053"},{"id":"003062","name":"香港眼科醫院, 亞皆老街","lat":"22.324667182091","long":"114.18481022053"},{"id":"003406","name":"播道醫院, 亞皆老街","lat":"22.325850932091","long":"114.18698313053"},{"id":"001572","name":"富豪東方酒店, 太子道東","lat":"22.328494832091","long":"114.19184067053"},{"id":"001573","name":"譽港灣, 太子道東","lat":"22.332716012091","long":"114.19630742053"},{"id":"001503","name":"坪石邨, 太子道東","lat":"22.333081342091","long":"114.20723458053"},{"id":"001773","name":"臨華街, 宏照道","lat":"22.323544232091","long":"114.20888965053"},{"id":"001655","name":"常悅道","lat":"22.321528602091","long":"114.20793837053"},{"id":"003595","name":"將軍澳隧道巴士轉乘站","lat":"22.315689052091","long":"114.24021817053"},{"id":"002917","name":"調景嶺站","lat":"22.304894682091","long":"114.25161911053"},{"id":"001821","name":"健明邨, 景嶺路","lat":"22.306625192091","long":"114.25182331053"},{"id":"001778","name":"唐明苑, 唐明街","lat":"22.310249752091","long":"114.25772815053"},{"id":"002906","name":"唐明街公園, 唐明街","lat":"22.310702812091","long":"114.25902390053"},{"id":"002933","name":"佛教志蓮小學, 唐俊街","lat":"22.309853582091","long":"114.26052688053"},{"id":"003477","name":"寶盈花園, 唐俊街","lat":"22.306173672091","long":"114.26157118053"},{"id":"003473","name":"播道書院, 至善街","lat":"22.304918592091","long":"114.26303172053"},{"id":"003160","name":"蓬萊路, 環保大道","lat":"22.308323742091","long":"114.26794468053"},{"id":"003642","name":"消防及救護學院, 百勝角路","lat":"22.305577922091","long":"114.27468266053"},{"id":"003225","name":"百勝角, 環保大道","lat":"22.301638722091","long":"114.27241311053"},{"id":"002919","name":"峻瀅, 環保大道","lat":"22.297406192091","long":"114.27252052053"},{"id":"002920","name":"MEGA Plus 數據中心, 環保大道","lat":"22.294319422091","long":"114.27362115053"},{"id":"002921","name":"大赤沙消防局, 駿日街","lat":"22.289449782091","long":"114.27314272053"},{"id":"002922","name":"駿日街","lat":"22.286971392091","long":"114.27149158053"},{"id":"002923","name":"將軍澳工業邨","lat":"22.283136342091","long":"114.27035346053"}],"routeId":"793","description":"正常班次"}]