[{"company":"nwfb","route":"795","routeType":null,"dir":"I","orig":"長沙灣 (海達)","dest":"將軍澳工業邨 (經:日出康城)","stopList":[{"id":"002882","name":"東京街西, 深旺道","lat":"22.329508852091","long":"114.15174904053"},{"id":"003229","name":"碧海藍天, 興華街西","lat":"22.332455932091","long":"114.14913080053"},{"id":"003700","name":"泓景臺, 荔枝角道","lat":"22.335048102091","long":"114.14760387053"},{"id":"001517","name":"美孚, 荔枝角道","lat":"22.336503572091","long":"114.14114285053"},{"id":"001436","name":"荔枝角站, 長沙灣道","lat":"22.337482972091","long":"114.14837354053"},{"id":"001437","name":"昌華街, 長沙灣道","lat":"22.338601292091","long":"114.15198567053"},{"id":"001515","name":"旺角維景酒店, 荔枝角道","lat":"22.323052712091","long":"114.16775280053"},{"id":"001775","name":"旺角中心, 彌敦道","lat":"22.319681842091","long":"114.16936520053"},{"id":"001560","name":"山東街, 彌敦道","lat":"22.317136402091","long":"114.16988485053"},{"id":"001562","name":"登打士街, 彌敦道","lat":"22.314748642091","long":"114.17037382053"},{"id":"001564","name":"文明里, 彌敦道","lat":"22.312210192091","long":"114.17088450053"},{"id":"001471","name":"勞資審裁處, 加士居道","lat":"22.308028422091","long":"114.17252808053"},{"id":"001606","name":"偉樂街, 偉業街","lat":"22.305257792091","long":"114.22560147053"},{},{"id":"002928","name":"日出康城領都, 環保大道","lat":"22.294212732091","long":"114.27339453053"},{"id":"002929","name":"日出康城首都, 環保大道","lat":"22.296755222091","long":"114.27266472053"},{"id":"003329","name":"日出康城","lat":"22.295872872091","long":"114.26836001053"},{"id":"002919","name":"峻瀅, 環保大道","lat":"22.297406192091","long":"114.27252052053"},{"id":"002920","name":"MEGA Plus 數據中心, 環保大道","lat":"22.294319422091","long":"114.27362115053"},{"id":"002921","name":"大赤沙消防局, 駿日街","lat":"22.289449782091","long":"114.27314272053"},{"id":"002922","name":"駿日街","lat":"22.286971392091","long":"114.27149158053"},{"id":"002923","name":"將軍澳工業邨","lat":"22.283136342091","long":"114.27035346053"}],"routeId":"795","description":"正常班次"},{"company":"nwfb","route":"795","routeType":null,"dir":"O","orig":"將軍澳工業邨 (經:日出康城)","dest":"長沙灣 (海達)","stopList":[{"id":"002923","name":"將軍澳工業邨","lat":"22.283136342091","long":"114.27035346053"},{"id":"002924","name":"駿宏街","lat":"22.282010352091","long":"114.27278649053"},{"id":"002925","name":"駿才街","lat":"22.283543702091","long":"114.27379288053"},{"id":"002926","name":"駿盈街","lat":"22.284310202091","long":"114.27372844053"},{"id":"002927","name":"駿光街","lat":"22.286296712091","long":"114.27320589053"},{"id":"002928","name":"日出康城領都, 環保大道","lat":"22.294212732091","long":"114.27339453053"},{"id":"002929","name":"日出康城首都, 環保大道","lat":"22.296755222091","long":"114.27266472053"},{"id":"003329","name":"日出康城","lat":"22.295872872091","long":"114.26836001053"},{"id":"002919","name":"峻瀅, 環保大道","lat":"22.297406192091","long":"114.27252052053"},{"id":"002920","name":"MEGA Plus 數據中心, 環保大道","lat":"22.294319422091","long":"114.27362115053"},{},{},{},{"id":"001769","name":"拔萃女書院, 加士居道","lat":"22.307534682091","long":"114.17292169053"},{"id":"003152","name":"文明里, 彌敦道","lat":"22.311453112091","long":"114.17084894053"},{"id":"001549","name":"碧街, 彌敦道","lat":"22.314107332091","long":"114.17032997053"},{"id":"001553","name":"雅蘭中心, 彌敦道","lat":"22.317926322091","long":"114.16954519053"},{"id":"001396","name":"旺角街市, 亞皆老街","lat":"22.318800102091","long":"114.16693654053"},{"id":"001423","name":"銘基書院, 櫻桃街","lat":"22.318582002091","long":"114.16438793053"},{"id":"001517","name":"美孚, 荔枝角道","lat":"22.336503572091","long":"114.14114285053"},{"id":"001436","name":"荔枝角站, 長沙灣道","lat":"22.337482972091","long":"114.14837354053"},{"id":"001437","name":"昌華街, 長沙灣道","lat":"22.338601292091","long":"114.15198567053"},{"id":"003228","name":"碧海藍天, 興華街西","lat":"22.332980562091","long":"114.14973728053"},{"id":"002882","name":"東京街西, 深旺道","lat":"22.329508852091","long":"114.15174904053"}],"routeId":"795","description":"正常班次"}]