[{"company":"NWFB","route":"796S","routeType":null,"dir":"I","orig":"牛頭角站","dest":"將軍澳站","stopList":[{"id":"001741","name":"創紀之城, 觀塘道","lat":"22.314072242091","long":"114.22155800053"},{"id":"001508","name":"牛頭角站, 觀塘道","lat":"22.315130552091","long":"114.21954638053"},{"id":"003056","name":"創紀之城, 觀塘道","lat":"22.313964712091","long":"114.22252701053"},{"id":"001509","name":"觀塘市中心, 觀塘道","lat":"22.313441392091","long":"114.22397362053"},{"id":"001518","name":"觀塘游泳池, 鯉魚門道","lat":"22.310380582091","long":"114.22952246053"},{"id":"001670","name":"觀塘警署, 將軍澳道","lat":"22.310776012091","long":"114.23129530053"},{"id":"003595","name":"將軍澳隧道巴士轉乘站","lat":"22.315689052091","long":"114.24021817053"},{"id":"001763","name":"彩明苑彩富閣, 景嶺路","lat":"22.308146392091","long":"114.25317597053"},{"id":"001764","name":"調景嶺站, 景嶺路","lat":"22.305291742091","long":"114.25292725053"},{"id":"001824","name":"將軍澳中心, 寶邑路","lat":"22.306218742091","long":"114.25713001053"},{"id":"001825","name":"將軍澳站, 寶邑路","lat":"22.307220372091","long":"114.26005696053"},{"id":"002918","name":"將軍澳站","lat":"22.308567362091","long":"114.26004574053"}],"routeId":"796S"},{"company":"NWFB","route":"796S","routeType":null,"dir":"O","orig":"將軍澳站","dest":"牛頭角站","stopList":[{"id":"002918","name":"將軍澳站","lat":"22.308567362091","long":"114.26004574053"},{"id":"002915","name":"將軍澳天主教小學, 唐賢街","lat":"22.308765432091","long":"114.25777804053"},{"id":"002917","name":"調景嶺站","lat":"22.304894682091","long":"114.25161911053"},{"id":"002916","name":"彩明苑彩貴閣, 彩明街","lat":"22.306603282091","long":"114.25324928053"},{"id":"001821","name":"健明邨, 景嶺路","lat":"22.306625192091","long":"114.25182331053"},{"id":"003589","name":"將軍澳隧道巴士轉乘站","lat":"22.315073802091","long":"114.24024319053"},{"id":"001741","name":"創紀之城, 觀塘道","lat":"22.314072242091","long":"114.22155800053"},{"id":"001508","name":"牛頭角站, 觀塘道","lat":"22.315130552091","long":"114.21954638053"},{"id":"003056","name":"創紀之城, 觀塘道","lat":"22.313964712091","long":"114.22252701053"},{"id":"001509","name":"觀塘市中心, 觀塘道","lat":"22.313441392091","long":"114.22397362053"},{"id":"001518","name":"觀塘游泳池, 鯉魚門道","lat":"22.310380582091","long":"114.22952246053"},{"id":"001670","name":"觀塘警署, 將軍澳道","lat":"22.310776012091","long":"114.23129530053"}],"routeId":"796S"}]