[{"company":"CTB","route":"79X","routeType":null,"dir":"I","orig":"長沙灣(西) (經：旺角)","dest":"粉嶺皇后山","stopList":[{"id":"002882","name":"東京街西, 深旺道","lat":"22.329508852091","long":"114.15174904053"},{"id":"003229","name":"碧海藍天, 興華街西","lat":"22.332455932091","long":"114.14913080053"},{"id":"003601","name":"光昌街, 長沙灣道","lat":"22.338320592091","long":"114.15081964053"},{"id":"003687","name":"香港專業教育學院 (黃克競分校), 荔枝角道","lat":"22.334619162091","long":"114.15292997053"},{"id":"003688","name":"麗翠苑, 荔枝角道","lat":"22.333012532091","long":"114.15495831053"},{"id":"001511","name":"麗閣邨麗蘿樓, 荔枝角道","lat":"22.331533522091","long":"114.15686616053"},{"id":"001512","name":"北河街, 荔枝角道","lat":"22.328665332091","long":"114.16052393053"},{"id":"001513","name":"石硤尾街, 荔枝角道","lat":"22.327157402091","long":"114.16245038053"},{"id":"001514","name":"白楊街, 荔枝角道","lat":"22.324769252091","long":"114.16554001053"},{"id":"001515","name":"旺角維景酒店, 荔枝角道","lat":"22.323052712091","long":"114.16775280053"},{"id":"003596","name":"旺角中心, 西洋菜南街","lat":"22.319879402091","long":"114.16989981053"},{"id":"001396","name":"旺角街市, 亞皆老街","lat":"22.318800102091","long":"114.16693654053"},{"id":"001423","name":"銘基書院, 櫻桃街","lat":"22.318582002091","long":"114.16438793053"},{"id":"002878","name":"帝柏海灣, 櫻桃街","lat":"22.317851152091","long":"114.16189949053"},{"id":"003511","name":"奧運站, 深旺道","lat":"22.318440772091","long":"114.16036899053"},{"id":"003512","name":"君匯港, 深旺道","lat":"22.321902502091","long":"114.15970244053"},{"id":"003672","name":"青沙公路巴士轉乘站","lat":"22.360486412091","long":"114.16299199053"},{"id":"003673","name":"磚窰, 沙頭角公路","lat":"22.521146342091","long":"114.17786589053"},{"id":"003674","name":"大塘湖, 沙頭角公路","lat":"22.519622982091","long":"114.17622080053"},{"id":"003675","name":"馬尾下, 沙頭角公路","lat":"22.516993172091","long":"114.17251736053"},{"id":"003676","name":"孔嶺, 沙頭角公路","lat":"22.514153652091","long":"114.16813955053"},{"id":"003677","name":"高埔, 沙頭角公路","lat":"22.511912992091","long":"114.16484323053"},{"id":"003678","name":"流水響, 沙頭角公路","lat":"22.510579322091","long":"114.16155312053"},{"id":"003679","name":"軍地, 沙頭角公路","lat":"22.509945642091","long":"114.15999201053"},{"id":"003680","name":"新圍軍營, 沙頭角公路","lat":"22.507365382091","long":"114.15510334053"},{"id":"003681","name":"皇后山邨","lat":"22.504041882091","long":"114.15620899053"},{"id":"003682","name":"山麗苑, 龍馬路","lat":"22.503591622091","long":"114.16098374053"},{"id":"003660","name":"皇后山邨","lat":"22.504072232091","long":"114.15651954053"}],"routeId":"79X"},{"company":"CTB","route":"79X","routeType":null,"dir":"O","orig":"粉嶺皇后山","dest":"長沙灣(西) (經：旺角)","stopList":[{"id":"003660","name":"皇后山邨","lat":"22.504072232091","long":"114.15651954053"},{"id":"003661","name":"山麗苑, 龍馬路","lat":"22.503583652091","long":"114.16081143053"},{"id":"003663","name":"新圍軍營, 沙頭角公路","lat":"22.507504382091","long":"114.15506847053"},{"id":"003664","name":"軍地, 沙頭角公路","lat":"22.509643762091","long":"114.15880573053"},{"id":"003665","name":"流水響, 沙頭角公路","lat":"22.510596742091","long":"114.16121746053"},{"id":"003666","name":"高埔, 沙頭角公路","lat":"22.511822832091","long":"114.16429737053"},{"id":"003667","name":"孔嶺, 沙頭角公路","lat":"22.515066292091","long":"114.16911151053"},{"id":"003668","name":"馬尾下, 沙頭角公路","lat":"22.517398562091","long":"114.17302628053"},{"id":"003669","name":"大塘湖, 沙頭角公路","lat":"22.520159732091","long":"114.17647444053"},{"id":"003670","name":"磚窰, 沙頭角公路","lat":"22.521343272091","long":"114.17819331053"},{"id":"003671","name":"青沙公路巴士轉乘站","lat":"22.358258352091","long":"114.16316664053"},{"id":"001777","name":"中匯街, 深旺道","lat":"22.322569492091","long":"114.15982485053"},{"id":"001692","name":"奧運站, 深旺道","lat":"22.318588122091","long":"114.16049646053"},{"id":"001595","name":"富貴街, 大角咀道","lat":"22.318698052091","long":"114.16193982053"},{"id":"002851","name":"旺角道","lat":"22.320468972091","long":"114.16658729053"},{"id":"001554","name":"弼街, 彌敦道","lat":"22.321742152091","long":"114.16875665053"},{"id":"001516","name":"塘尾道, 荔枝角道","lat":"22.324560922091","long":"114.16552293053"},{"id":"003683","name":"石硤尾街, 荔枝角道","lat":"22.327111972091","long":"114.16223001053"},{"id":"003684","name":"桂林街, 荔枝角道","lat":"22.328650772091","long":"114.16024166053"},{"id":"003140","name":"深水埗公園, 荔枝角道","lat":"22.330753592091","long":"114.15753097053"},{"id":"003685","name":"蔬菜統營處, 荔枝角道","lat":"22.333135372091","long":"114.15440339053"},{"id":"003686","name":"香港專業教育學院 (黃克競分校), 荔枝角道","lat":"22.334523552091","long":"114.15270398053"},{"id":"003601","name":"光昌街, 長沙灣道","lat":"22.338320592091","long":"114.15081964053"},{"id":"003228","name":"碧海藍天, 興華街西","lat":"22.332980562091","long":"114.14973728053"},{"id":"002882","name":"東京街西, 深旺道","lat":"22.329508852091","long":"114.15174904053"}],"routeId":"79X"}]