[{"company":"KMB","route":"8","routeType":"1","dir":"O","orig":"尖沙咀碼頭","dest":"九龍站","stopList":[{"id":"F87373F646004131","name":"尖沙咀碼頭","lat":"22.294496","long":"114.169347"},{"id":"5D75A800F823B45D","name":"尖東站","lat":"22.295152","long":"114.174392"},{"id":"C175ACB534E8C15C","name":"尖沙咀麼地道","lat":"22.297822","long":"114.175434"},{"id":"F656A38D2A40F77D","name":"金德大廈","lat":"22.301104","long":"114.176208"},{"id":"3D040EE809057C6E","name":"香港理工大學","lat":"22.302827","long":"114.177953"},{"id":"842DB57036C4C645","name":"紅磡站","lat":"22.304530","long":"114.182034"},{"id":"3DEB0D13043F4C17","name":"機利士南路","lat":"22.307054","long":"114.184247"},{"id":"B0095CE9771BFC17","name":"孖庶街","lat":"22.307305","long":"114.186095"},{"id":"CB59198C6E7D00FF","name":"家維邨","lat":"22.308750","long":"114.186985"},{"id":"F3DA32A55B98363F","name":"信用街","lat":"22.310270","long":"114.184335"},{"id":"BC3B37FDEE7EE51B","name":"何文田站","lat":"22.309083","long":"114.181583"},{"id":"5CE1C1296F98C6C4","name":"迦密中學","lat":"22.310190","long":"114.179846"},{"id":"3D403F8CF70C7FE4","name":"何文田(愛民邨)","lat":"22.312216","long":"114.178062"},{"id":"C0ACDED85452CFC8","name":"忠民街","lat":"22.314618","long":"114.177839"},{"id":"6E9A9467758898B7","name":"欣圖軒","lat":"22.315647","long":"114.179708"},{"id":"7E4F1063E27B47E9","name":"何文田廣場","lat":"22.316593","long":"114.181451"},{"id":"1924C09B20B8787A","name":"何文田巴士總站","lat":"22.317642","long":"114.181257"},{"id":"7F3A1FC5F4533B4C","name":"香港都會大學","lat":"22.316683","long":"114.180270"},{"id":"223E33F23F37B61A","name":"培正中學","lat":"22.318025","long":"114.176479"},{"id":"71C9731001C9C773","name":"何文田街","lat":"22.317661","long":"114.175062"},{"id":"F63C76EC97E38A91","name":"廣華醫院","lat":"22.314770","long":"114.172864"},{"id":"777ED0B1F3CF10DD","name":"油麻地消防局","lat":"22.313308","long":"114.171775"},{"id":"25B94D808EC232D8","name":"加士居道 (S38)","lat":"22.308921","long":"114.171408"},{"id":"2F165341B07CBDB9","name":"佐敦吳松街","lat":"22.305229","long":"114.169912"},{"id":"FD1B403FD4EC3E8D","name":"佐敦炮台街","lat":"22.305617","long":"114.168054"},{"id":"FB9FA7AAA17E9E9D","name":"雅翔道(西區海底隧道) (D1)","lat":"22.304410","long":"114.160239"},{"id":"BD9C8BC4A5FCEC12","name":"九龍站巴士總站","lat":"22.305079","long":"114.162604"}],"routeId":"8"},{"company":"KMB","route":"8","routeType":"1","dir":"I","orig":"九龍站","dest":"尖沙咀碼頭","stopList":[{"id":"BD9C8BC4A5FCEC12","name":"九龍站巴士總站","lat":"22.305079","long":"114.162604"},{"id":"31072508CEF942C6","name":"雅翔道(環球貿易廣場) (C1)","lat":"22.303565","long":"114.159802"},{"id":"4C49804674904130","name":"佐敦上海街","lat":"22.305631","long":"114.169025"},{"id":"2F281B3C90B46763","name":"油麻地南京街 (N23)","lat":"22.306217","long":"114.171448"},{"id":"A93947027435EBAD","name":"油麻地文明里 (N42)","lat":"22.311406","long":"114.170797"},{"id":"F56B1C6169FFC940","name":"青年會","lat":"22.313550","long":"114.171580"},{"id":"4A2B9089021412CD","name":"廣華醫院","lat":"22.315236","long":"114.172834"},{"id":"051C24F9614CEDC2","name":"勝利道","lat":"22.317760","long":"114.174744"},{"id":"853C70D76FF68196","name":"培正中學","lat":"22.318257","long":"114.176347"},{"id":"EBC7FF1987F11FD2","name":"何文田巴士總站","lat":"22.317495","long":"114.181418"},{"id":"987B3A45E05CD6EE","name":"何文田廣場","lat":"22.316437","long":"114.181621"},{"id":"F19BBC7D6F39B210","name":"迦密村街","lat":"22.314766","long":"114.180263"},{"id":"05AB3A2B3816CD41","name":"俊民苑","lat":"22.314395","long":"114.177892"},{"id":"B9B0524C596DAE6F","name":"何文田(愛民邨)巴士總站","lat":"22.312469","long":"114.178003"},{"id":"FACE6E102E2171B3","name":"聖三一堂中學","lat":"22.310240","long":"114.180078"},{"id":"A0F2A2C5182526AA","name":"忠孝街","lat":"22.310883","long":"114.182190"},{"id":"73567AD9A1510A9B","name":"信用街","lat":"22.310453","long":"114.184338"},{"id":"8D5FB973BE9429B4","name":"紅磡民裕街","lat":"22.308415","long":"114.187741"},{"id":"AD803E8A0ED6C3B9","name":"寶其利街","lat":"22.307149","long":"114.185112"},{"id":"98F5ACF0CF540E7C","name":"機利士南路","lat":"22.306475","long":"114.184129"},{"id":"505D36136FD57784","name":"紅磡站","lat":"22.302083","long":"114.182547"},{"id":"FE2815CBCD21C57C","name":"香港歷史博物館","lat":"22.302694","long":"114.177430"},{"id":"BEEBDDB542A7E709","name":"香港科學館","lat":"22.301475","long":"114.176613"},{"id":"48184733EFE9D3E3","name":"尖沙咀麼地道","lat":"22.298487","long":"114.175834"},{"id":"9CAF2FDA35EEF9E2","name":"尖東站","lat":"22.294850","long":"114.174588"},{"id":"DCFF4041D0C0ACF8","name":"尖沙咀碼頭","lat":"22.293816","long":"114.168797"}],"routeId":"8"},{"company":"NWFB","route":"8","routeType":null,"dir":"I","orig":"杏花邨","dest":"會展站","stopList":[{"id":"003415","name":"會展站","lat":"22.281711822091","long":"114.17580339053"},{"id":"002434","name":"史釗域道, 軒尼詩道","lat":"22.278009642091","long":"114.17617122053"},{"id":"002435","name":"杜老誌道, 軒尼詩道","lat":"22.278720922091","long":"114.17909682053"},{"id":"002438","name":"崇光百貨, 軒尼詩道","lat":"22.280207632091","long":"114.18417804053"},{"id":"001213","name":"維多利亞公園, 高士威道","lat":"22.281133262091","long":"114.19006592053"},{"id":"001251","name":"興發街","lat":"22.283573922091","long":"114.19109346053"},{"id":"002770","name":"明華大廈, 柴灣道","lat":"22.275813922091","long":"114.23037523053"},{"id":"001216","name":"阿公岩道, 柴灣道","lat":"22.274447992091","long":"114.23121621053"},{"id":"001217","name":"鯉魚門公園, 柴灣道","lat":"22.273682822091","long":"114.23182613053"},{"id":"001218","name":"大潭道, 柴灣道","lat":"22.271469842091","long":"114.23323635053"},{"id":"001219","name":"東區醫院, 柴灣道","lat":"22.268521772091","long":"114.23362526053"},{"id":"001220","name":"高威閣, 柴灣道","lat":"22.266776752091","long":"114.23370630053"},{"id":"002778","name":"灣景園, 康民街","lat":"22.265591142091","long":"114.23446563053"},{"id":"002582","name":"康翠臺, 康民街","lat":"22.266460292091","long":"114.23499120053"},{"id":"002771","name":"祥達中心, 祥利街","lat":"22.265190222091","long":"114.23567653053"},{"id":"002772","name":"柴灣工廠邨, 祥利街","lat":"22.264366092091","long":"114.23640659053"},{"id":"003286","name":"金源洋樓, 柴灣道","lat":"22.264277232091","long":"114.24044844053"},{"id":"001224","name":"漁灣邨, 柴灣道","lat":"22.265262802091","long":"114.24180700053"},{"id":"001344","name":"翠灣邨, 永泰道","lat":"22.268492732091","long":"114.24100291053"},{"id":"001309","name":"香港專業教育學院 (柴灣分校), 順泰道","lat":"22.270467832091","long":"114.23961196053"},{"id":"001306","name":"杏花邨","lat":"22.275253582091","long":"114.24121292053"}],"routeId":"8"},{"company":"NWFB","route":"8","routeType":null,"dir":"O","orig":"杏花邨","dest":"會展站","stopList":[{"id":"001306","name":"杏花邨","lat":"22.275253582091","long":"114.24121292053"},{"id":"002624","name":"杏花新城 (東翼), 盛泰道","lat":"22.276444212091","long":"114.24048923053"},{"id":"001308","name":"城巴柴灣車廠, 盛泰道","lat":"22.270807152091","long":"114.24075282053"},{"id":"001343","name":"柴灣工業城, 永泰道","lat":"22.267580942091","long":"114.24236493053"},{"id":"001227","name":"樂軒臺, 柴灣道","lat":"22.264883822091","long":"114.24156861053"},{"id":"001228","name":"環翠商場, 柴灣道","lat":"22.263138192091","long":"114.23878619053"},{"id":"001292","name":"利眾街","lat":"22.265718062091","long":"114.23593399053"},{"id":"002582","name":"康翠臺, 康民街","lat":"22.266460292091","long":"114.23499120053"},{"id":"001253","name":"康民工業中心, 康民街","lat":"22.264902502091","long":"114.23450655053"},{"id":"001229","name":"天主教海星堂, 柴灣道","lat":"22.265027152091","long":"114.23373522053"},{"id":"001230","name":"興民邨, 柴灣道","lat":"22.267894132091","long":"114.23341093053"},{"id":"001231","name":"山翠苑, 柴灣道","lat":"22.269331482091","long":"114.23354147053"},{"id":"001232","name":"筲箕灣東官立中學, 柴灣道","lat":"22.272471812091","long":"114.23263770053"},{"id":"001233","name":"阿公岩道, 柴灣道","lat":"22.274719782091","long":"114.23085406053"},{"id":"001374","name":"永興街","lat":"22.285345432091","long":"114.19236143053"},{"id":"001215","name":"香港中央圖書館, 高士威道","lat":"22.280082042091","long":"114.18887826053"},{"id":"002554","name":"怡和街","lat":"22.279929702091","long":"114.18500787053"},{"id":"002442","name":"北海中心, 軒尼詩道","lat":"22.278327962091","long":"114.17845458053"},{"id":"002444","name":"軒尼詩道官立小學, 軒尼詩道","lat":"22.277744552091","long":"114.17543474053"},{"id":"003415","name":"會展站","lat":"22.281711822091","long":"114.17580339053"}],"routeId":"8"}]