[{"company":"gmb","route":"807C","routeType":1,"orig":"馬鞍山站","dest":"港鐵大學站巴士總站","stopList":[{"id":1,"name":"海柏花園巴士總站","lat":22.42553581842206,"long":22.42553581842206},{"id":2,"name":"西沙路, 福安花園對面","lat":22.42326106468704,"long":22.42326106468704},{"id":3,"name":"西沙路, 馬鞍山運動場外","lat":22.420940628086175,"long":22.420940628086175},{"id":4,"name":"西沙路, 錦鞍苑外","lat":22.41821373825056,"long":22.41821373825056},{"id":5,"name":"恆輝街, 欣安邨對面","lat":22.415134242192977,"long":22.415134242192977},{"id":6,"name":"港鐵大學站巴士總站","lat":22.412727186810685,"long":22.412727186810685}],"routeId":2001232,"description":"額外班次"},{"company":"gmb","route":"807C","routeType":2,"orig":"港鐵大學站巴士總站","dest":"馬鞍山站","stopList":[{"id":1,"name":"港鐵大學站巴士總站","lat":22.412727186810685,"long":22.412727186810685},{"id":2,"name":"馬鞍山路, 耀安邨外","lat":22.419530261377556,"long":22.419530261377556},{"id":3,"name":"馬鞍山路, 新港城外","lat":22.422446928415745,"long":22.422446928415745},{"id":4,"name":"海柏花園巴士總站","lat":22.42553581842206,"long":22.42553581842206}],"routeId":2001232,"description":"額外班次"}]