[{"company":"KMB","route":"80K","routeType":"1","dir":"O","orig":"新翠","dest":"愉翠苑","stopList":[{"id":"DD696D5A43B30E93","name":"新翠巴士總站","lat":"22.368198","long":"114.180631"},{"id":"DFD604BDABB47600","name":"新田村","lat":"22.371250","long":"114.182514"},{"id":"8C7CF1C55484A294","name":"大圍站總站","lat":"22.372976","long":"114.180213"},{"id":"A3647D99DA65BA96","name":"海福花園","lat":"22.373685","long":"114.176755"},{"id":"AF03F8EECD52F273","name":"積輝街","lat":"22.374948","long":"114.175978"},{"id":"AF61AE97990B5C08","name":"美桃樓","lat":"22.377402","long":"114.178459"},{"id":"4C19E0623146E4F9","name":"銅鑼灣村","lat":"22.377496","long":"114.181367"},{"id":"3523AA15D7F22A3F","name":"希爾頓中心","lat":"22.379677","long":"114.187123"},{"id":"5E63913862E61D96","name":"沙田市中心總站","lat":"22.382312","long":"114.188434"},{"id":"D137ADD65D333E0B","name":"好運中心","lat":"22.382784","long":"114.190618"},{"id":"142BE7225B0BB745","name":"瀝源邨","lat":"22.384405","long":"114.193158"},{"id":"AFC5E64568DBB2D5","name":"禾輋邨","lat":"22.388004","long":"114.196544"},{"id":"A295FD27A4E5A7C5","name":"小瀝源草地滾球場","lat":"22.388524","long":"114.203828"},{"id":"3C624F6CB2D5BBEA","name":"置富第一城","lat":"22.386783","long":"114.203571"},{"id":"C1E9F8237EDBBAD2","name":"愉田苑","lat":"22.384059","long":"114.201988"},{"id":"24E16716BBB7F2D0","name":"威爾斯親王醫院","lat":"22.381229","long":"114.201162"},{"id":"8F6FD66CC20690DC","name":"愉翠苑巴士總站","lat":"22.381835","long":"114.205512"}],"routeId":"80K"},{"company":"KMB","route":"80K","routeType":"1","dir":"I","orig":"愉翠苑","dest":"新翠","stopList":[{"id":"8F6FD66CC20690DC","name":"愉翠苑巴士總站","lat":"22.381835","long":"114.205512"},{"id":"4D99E0E24AF289E9","name":"威爾斯親王醫院","lat":"22.381334","long":"114.201583"},{"id":"913C39C617BFCECA","name":"愉田苑","lat":"22.382851","long":"114.201716"},{"id":"E202C2F74E3A033B","name":"置富第一城","lat":"22.386756","long":"114.203237"},{"id":"6AE1163C3BD93D0E","name":"沙田第一城","lat":"22.388459","long":"114.201851"},{"id":"7421C8745B4EDF25","name":"禾輋邨","lat":"22.387291","long":"114.196122"},{"id":"8EFA13840D1272E8","name":"瀝源邨","lat":"22.384292","long":"114.193409"},{"id":"2132577767F0056D","name":"沙田市中心總站","lat":"22.382373","long":"114.188294"},{"id":"F608A74B860B3C47","name":"帝都酒店","lat":"22.379864","long":"114.188064"},{"id":"92B3E07F00FBB305","name":"銅鑼灣村","lat":"22.377253","long":"114.180817"},{"id":"9E28FDE5126284C1","name":"美林邨","lat":"22.377226","long":"114.178845"},{"id":"1276AEF95F6564A2","name":"大圍街市","lat":"22.373617","long":"114.177213"},{"id":"0390D5DEEEC05A7B","name":"大圍站總站","lat":"22.373034","long":"114.180291"},{"id":"E791811B54447855","name":"新田村","lat":"22.371677","long":"114.182530"},{"id":"778E0D742788DEC5","name":"新翠巴士總站","lat":"22.368052","long":"114.180578"},{"id":"DD696D5A43B30E93","name":"新翠巴士總站","lat":"22.368198","long":"114.180631"}],"routeId":"80K"}]