[{"company":"NWFB","route":"82","routeType":null,"dir":"I","orig":"北角碼頭","dest":"小西灣 (藍灣半島)","stopList":[{"id":"001249","name":"北角碼頭","lat":"22.293287872091","long":"114.20149753053"},{"id":"001264","name":"港運城, 英皇道","lat":"22.291703622091","long":"114.20248986053"},{"id":"001265","name":"健康村, 英皇道","lat":"22.292089592091","long":"114.20652344053"},{"id":"001266","name":"模範邨, 英皇道","lat":"22.291271952091","long":"114.20871956053"},{"id":"001267","name":"北角官立小學, 英皇道","lat":"22.288825782091","long":"114.20986716053"},{"id":"001268","name":"新威園, 英皇道","lat":"22.285544382091","long":"114.21133814053"},{"id":"001269","name":"惠安苑, 英皇道","lat":"22.284763112091","long":"114.21319278053"},{"id":"001270","name":"太古城中心, 英皇道","lat":"22.285287892091","long":"114.21758355053"},{"id":"001296","name":"太安樓, 筲箕灣道","lat":"22.282504342091","long":"114.22170603053"},{"id":"001297","name":"海晏街, 筲箕灣道","lat":"22.280776032091","long":"114.22363882053"},{"id":"001298","name":"愛秩序灣道, 筲箕灣道","lat":"22.280349712091","long":"114.22504094053"},{"id":"001299","name":"南安里, 筲箕灣道","lat":"22.277849882091","long":"114.22690650053"},{"id":"002770","name":"明華大廈, 柴灣道","lat":"22.275813922091","long":"114.23037523053"},{"id":"001216","name":"阿公岩道, 柴灣道","lat":"22.274447992091","long":"114.23121621053"},{"id":"001217","name":"鯉魚門公園, 柴灣道","lat":"22.273682822091","long":"114.23182613053"},{"id":"001218","name":"大潭道, 柴灣道","lat":"22.271469842091","long":"114.23323635053"},{"id":"001219","name":"東區醫院, 柴灣道","lat":"22.268521772091","long":"114.23362526053"},{"id":"001220","name":"高威閣, 柴灣道","lat":"22.266776752091","long":"114.23370630053"},{"id":"001221","name":"康民街, 柴灣道","lat":"22.264455262091","long":"114.23464877053"},{"id":"001336","name":"興華邨興翠樓, 環翠道","lat":"22.262856432091","long":"114.23450941053"},{"id":"001337","name":"興華邨卓華樓, 環翠道","lat":"22.261984002091","long":"114.23556086053"},{"id":"001338","name":"青年廣場, 環翠道","lat":"22.262812062091","long":"114.23696165053"},{"id":"001223","name":"宏德居, 柴灣道","lat":"22.263850992091","long":"114.23989662053"},{"id":"001224","name":"漁灣邨, 柴灣道","lat":"22.265262802091","long":"114.24180700053"},{"id":"001225","name":"常安街, 柴灣道","lat":"22.265964212091","long":"114.24531836053"},{"id":"002591","name":"柴灣 (東)","lat":"22.266274852091","long":"114.24413080053"},{"id":"002780","name":"合明工廠大廈, 安業街","lat":"22.266749292091","long":"114.24613856053"},{"id":"001362","name":"富欣花園, 小西灣道","lat":"22.264655872091","long":"114.24820799053"},{"id":"001369","name":"富怡花園, 小西灣道","lat":"22.262476132091","long":"114.25029280053"},{"id":"001370","name":"富景花園, 小西灣道","lat":"22.263506162091","long":"114.25180554053"},{"id":"001382","name":"小西灣 (藍灣半島)","lat":"22.266350942091","long":"114.25095264053"}],"routeId":"82"},{"company":"NWFB","route":"82","routeType":null,"dir":"O","orig":"小西灣 (藍灣半島)","dest":"北角碼頭","stopList":[{"id":"001382","name":"小西灣 (藍灣半島)","lat":"22.266350942091","long":"114.25095264053"},{"id":"001311","name":"富景花園, 小西灣道","lat":"22.262616282091","long":"114.25113785053"},{"id":"001366","name":"小西灣邨","lat":"22.262691022091","long":"114.24914783053"},{"id":"001312","name":"曉翠街, 小西灣道","lat":"22.264667222091","long":"114.24796685053"},{"id":"001226","name":"富城閣, 柴灣道","lat":"22.265804172091","long":"114.24535768053"},{"id":"001227","name":"樂軒臺, 柴灣道","lat":"22.264883822091","long":"114.24156861053"},{"id":"001228","name":"環翠商場, 柴灣道","lat":"22.263138192091","long":"114.23878619053"},{"id":"001339","name":"環翠邨澤翠樓, 環翠道","lat":"22.262518442091","long":"114.23664512053"},{"id":"001340","name":"興華邨卓華樓, 環翠道","lat":"22.261748512091","long":"114.23498678053"},{"id":"001341","name":"興華邨豐興樓, 環翠道","lat":"22.262516262091","long":"114.23426978053"},{"id":"001387","name":"興華邨裕興樓, 柴灣道","lat":"22.264334082091","long":"114.23446855053"},{"id":"001229","name":"天主教海星堂, 柴灣道","lat":"22.265027152091","long":"114.23373522053"},{"id":"001230","name":"興民邨, 柴灣道","lat":"22.267894132091","long":"114.23341093053"},{"id":"001231","name":"山翠苑, 柴灣道","lat":"22.269331482091","long":"114.23354147053"},{"id":"001232","name":"筲箕灣東官立中學, 柴灣道","lat":"22.272471812091","long":"114.23263770053"},{"id":"001233","name":"阿公岩道, 柴灣道","lat":"22.274719782091","long":"114.23085406053"},{"id":"001300","name":"南安里, 筲箕灣道","lat":"22.277420312091","long":"114.22717089053"},{"id":"001301","name":"新成街, 筲箕灣道","lat":"22.278724872091","long":"114.22622512053"},{"id":"001302","name":"海晏街, 筲箕灣道","lat":"22.280716692091","long":"114.22345551053"},{"id":"001303","name":"西灣河文娛中心, 筲箕灣道","lat":"22.281794772091","long":"114.22202073053"},{"id":"001304","name":"太祥街, 筲箕灣道","lat":"22.283579282091","long":"114.22061919053"},{"id":"001288","name":"康怡廣場, 康山道","lat":"22.284499762091","long":"114.21671745053"},{"id":"001271","name":"寶峰園, 英皇道","lat":"22.284594642091","long":"114.21416959053"},{"id":"001272","name":"鰂魚涌街, 英皇道","lat":"22.284722942091","long":"114.21210328053"},{"id":"001273","name":"太古坊, 英皇道","lat":"22.286667942091","long":"114.21039739053"},{"id":"001274","name":"民新街, 英皇道","lat":"22.289926312091","long":"114.20930325053"},{"id":"001275","name":"模範邨, 英皇道","lat":"22.291544482091","long":"114.20766679053"},{"id":"001276","name":"健康村, 英皇道","lat":"22.291912702091","long":"114.20634072053"},{"id":"001277","name":"健威花園, 英皇道","lat":"22.291810122091","long":"114.20389006053"},{"id":"001332","name":"書局街, 七姊妹道","lat":"22.290594642091","long":"114.20068226053"},{"id":"001310","name":"新光戲院, 書局街","lat":"22.291615512091","long":"114.20012532053"},{"id":"001249","name":"北角碼頭","lat":"22.293287872091","long":"114.20149753053"}],"routeId":"82"}]