[{"company":"gmb","route":"84","routeType":1,"orig":"荃威花園","dest":"荃灣眾安街","stopList":[{"id":20007153,"name":"荃威花園","lat":22.377296693594907,"long":114.10398158150238},{"id":20007154,"name":"荃景圍178號外","lat":22.3784076786837,"long":114.10449563585203},{"id":20007155,"name":"沙咀道55號外","lat":22.373479367575012,"long":114.10997445855386},{"id":20007156,"name":"大涌道近合福工業大廈外巴士站","lat":22.37382294167116,"long":114.11098410669616},{"id":20001872,"name":"青山公路-荃灣段中染大廈外","lat":22.374961543639547,"long":114.11286727464953},{"id":20001873,"name":"西樓角路南豐中心對面","lat":22.37409600040671,"long":114.11647969813795},{"id":20001661,"name":"荃灣眾安街","lat":22.369065976397014,"long":114.1164333195132}],"routeId":2000964,"description":"正常班次"},{"company":"gmb","route":"84","routeType":2,"orig":"荃灣眾安街","dest":"荃威花園","stopList":[{"id":20001661,"name":"荃灣眾安街","lat":22.369065976397014,"long":114.1164333195132},{"id":20001942,"name":"楊屋道荃新天地2期外","lat":22.368180363407404,"long":114.11479282265957},{"id":20007223,"name":"荃景圍家興大廈外","lat":22.376384958620065,"long":114.10475884885574},{"id":20007153,"name":"荃威花園","lat":22.377296693594907,"long":114.10398158150238}],"routeId":2000964,"description":"正常班次"}]