[{"company":"kmb","route":"85M","routeType":"1","dir":"O","orig":"錦英苑","dest":"黃大仙(循環線)","stopList":[{"id":"4D8E5172E1C1EAF5","name":"錦英苑巴士總站","lat":"22.423592","long":"114.237166"},{"id":"D156C558FF163BE3","name":"錦龍苑","lat":"22.426073","long":"114.239403"},{"id":"B311A7AB3140FBC9","name":"烏溪沙新村","lat":"22.425857","long":"114.238351"},{"id":"761CDB62DC025007","name":"富寶花園","lat":"22.425444","long":"114.235451"},{"id":"CA7CE166F4E6677F","name":"馬鞍山市中心","lat":"22.424591","long":"114.231730"},{"id":"1D6A8B8C58C268FF","name":"曾璧山中學","lat":"22.422151","long":"114.228420"},{"id":"95C538941C437656","name":"耀安邨耀謙樓","lat":"22.418158","long":"114.230593"},{"id":"5A77AE8E12B13718","name":"富安花園","lat":"22.406903","long":"114.222652"},{"id":"4A3D71FFAB41B756","name":"亞公角","lat":"22.402012","long":"114.215473"},{"id":"A78292AA77A277A7","name":"沙田醫院","lat":"22.398890","long":"114.212419"},{"id":"3114213F8975F536","name":"大老山隧道","lat":"22.377471","long":"114.212368"},{"id":"3CF6C88065281406","name":"新蒲崗四美街","lat":"22.337676","long":"114.201591"},{"id":"7BDF3895E0BCE33B","name":"龍逸樓","lat":"22.338860","long":"114.195867"},{"id":"6C15579CA43DF72E","name":"黃大仙總站 (落客站)","lat":"22.341022","long":"114.194867"},{"id":"EB3A1D751C96E053","name":"黃大仙總站","lat":"22.340925","long":"114.194926"},{"id":"DE9BE04046C197C4","name":"黃大仙警署","lat":"22.339206","long":"114.197196"},{"id":"48D7576D3F243169","name":"鳳德商場","lat":"22.343267","long":"114.199758"},{"id":"0A22872F65392B48","name":"鑽石山站巴士總站","lat":"22.340871","long":"114.201394"},{"id":"C57C924EEB5463E5","name":"大老山隧道","lat":"22.376800","long":"114.211883"},{"id":"16A7F2C343AA6DE6","name":"沙田醫院","lat":"22.399870","long":"114.213035"},{"id":"4B0E21EDF07F9C83","name":"亞公角","lat":"22.402759","long":"114.216742"},{"id":"1CF4AE2F7045B848","name":"富安花園","lat":"22.406232","long":"114.221917"},{"id":"CB667DC000F66D40","name":"耀安邨","lat":"22.419037","long":"114.229281"},{"id":"5E073AD8BC9F2AC8","name":"曾璧山中學","lat":"22.421847","long":"114.228372"},{"id":"3A450B5AD5AF1605","name":"海栢花園","lat":"22.425043","long":"114.231566"},{"id":"0E2175C0750054FE","name":"雅典居","lat":"22.426028","long":"114.236373"},{"id":"6BD93B827893E41E","name":"錦龍苑","lat":"22.425830","long":"114.239819"},{"id":"4D8E5172E1C1EAF5","name":"錦英苑巴士總站","lat":"22.423592","long":"114.237166"}],"routeId":"85M","description":"特別班次"}]