[{"company":"kmb","route":"868","routeType":"1","dir":"O","orig":"屯門巿中心","dest":"沙田馬場","stopList":[{"id":"BD830C5E8AAE1C74","name":"屯門市中心總站","lat":"22.391372","long":"113.975564"},{"id":"D893FD9E88E2A98D","name":"荃景圍天橋","lat":"22.375764","long":"114.107846"},{"id":"5941DC3E9FA7BE8B","name":"愉景新城","lat":"22.375009","long":"114.112917"},{"id":"F8D8D0AED9889278","name":"荃灣站","lat":"22.374084","long":"114.115113"},{"id":"CA793BE80FF68AE2","name":"荃灣眾安街","lat":"22.371951","long":"114.118897"},{"id":"81B719F7DC3F0FAD","name":"城門隧道轉車站 (A5)","lat":"22.381888","long":"114.137620"},{"id":"9E8E99C5BB698AC2","name":"城門隧道轉車站 (A4)","lat":"22.381827","long":"114.137783"},{"id":"EFA7876734213321","name":"沙田馬場巴士總站","lat":"22.397717","long":"114.201926"}],"routeId":"868","description":"正常班次"},{"company":"kmb","route":"868","routeType":"1","dir":"I","orig":"沙田馬場","dest":"屯門巿中心","stopList":[{"id":"EFA7876734213321","name":"沙田馬場巴士總站","lat":"22.397717","long":"114.201926"},{"id":"620E14F31DA31490","name":"城門隧道轉車站 (B6)","lat":"22.381181","long":"114.138129"},{"id":"5FDA47671B5557B3","name":"城門隧道轉車站 (B5)","lat":"22.381418","long":"114.137985"},{"id":"939E0C584E1A1C3C","name":"荃灣眾安街","lat":"22.371187","long":"114.119252"},{"id":"0115F5FC6A7772C3","name":"福來邨永樂樓","lat":"22.373911","long":"114.114831"},{"id":"E083D2189A733B79","name":"荃景圍天橋","lat":"22.375398","long":"114.108928"},{"id":"BC8F3F54B096B69F","name":"屯門大會堂","lat":"22.391970","long":"113.976340"},{"id":"8660BDF2C013FAC2","name":"屯門市中心總站","lat":"22.391191","long":"113.975808"}],"routeId":"868","description":"正常班次"}]