[{"company":"kmb","route":"87B","routeType":"1","dir":"O","orig":"新田圍","dest":"維港灣","stopList":[{"id":"E43D7EE404F2F7AC","name":"新田圍巴士總站","lat":"22.370881","long":"114.186140"},{"id":"29A3E07CD93FD350","name":"富圍樓","lat":"22.369814","long":"114.187599"},{"id":"719A125609437E11","name":"秦石邨石瑩樓","lat":"22.372952","long":"114.185563"},{"id":"4E366AF78461E12D","name":"車公廟","lat":"22.374407","long":"114.184038"},{"id":"A004B076CFBD733C","name":"新翠邨新明樓","lat":"22.372122","long":"114.180252"},{"id":"2A72F4041A7E6783","name":"田心村","lat":"22.370674","long":"114.177940"},{"id":"9C117FB6B6590825","name":"雲疊花園","lat":"22.368922","long":"114.175483"},{"id":"5FB8DC89C84A7F2B","name":"顯徑邨顯揚樓","lat":"22.365605","long":"114.173333"},{"id":"04C4E5AE4F8F21E1","name":"顯徑商場","lat":"22.364228","long":"114.171960"},{"id":"1D13B640481F4CD1","name":"顯慶樓","lat":"22.364032","long":"114.173908"},{"id":"AC2A4AB84E52364C","name":"顯沛樓","lat":"22.365267","long":"114.175018"},{"id":"99D2D097C44A98D0","name":"隆亨邨","lat":"22.368803","long":"114.178487"},{"id":"F91B28AE855628AF","name":"新翠邨","lat":"22.370814","long":"114.179545"},{"id":"674BF383CB19E1A3","name":"世界花園","lat":"22.364711","long":"114.181313"},{"id":"E34E3D48842C9B66","name":"獅子山隧道","lat":"22.358837","long":"114.174677"},{"id":"29A62A8FE112766B","name":"豐力樓","lat":"22.342585","long":"114.172991"},{"id":"9751EE79B103C9B8","name":"畢架山花園","lat":"22.341649","long":"114.166733"},{"id":"B123EFA9F9DDD6AB","name":"澤安邨","lat":"22.340424","long":"114.165276"},{"id":"E275C17540BCEF37","name":"石硤尾消防局","lat":"22.338696","long":"114.167401"},{"id":"6D1087ACF14C15A9","name":"白田邨瑞田樓","lat":"22.335930","long":"114.169080"},{"id":"46ABE64DB9C82DDF","name":"黃棣珊紀念中學","lat":"22.334730","long":"114.168440"},{"id":"9F914539576C53A5","name":"石硤尾商場","lat":"22.332023","long":"114.166014"},{"id":"259DBCF52320E083","name":"福華街","lat":"22.330266","long":"114.164462"},{"id":"BDA357B832C55019","name":"基隆街","lat":"22.328428","long":"114.162836"},{"id":"C4B0E899FAE72350","name":"石硤尾街","lat":"22.327291","long":"114.162357"},{"id":"8C7C1212A1196A1A","name":"深水埗白楊街","lat":"22.324967","long":"114.165341"},{"id":"996EC6B4E40A2E4A","name":"弼街","lat":"22.322300","long":"114.167583"},{"id":"7ADC6D521E6BECE6","name":"旺角街市","lat":"22.318792","long":"114.167024"},{"id":"E02E10C9135624F9","name":"銘基書院","lat":"22.318599","long":"114.164385"},{"id":"7FC13D26792F63F9","name":"浪澄灣","lat":"22.318816","long":"114.156667"},{"id":"33A62380EFEDAA3A","name":"維港灣巴士總站","lat":"22.318212","long":"114.158321"}],"routeId":"87B"},{"company":"kmb","route":"87B","routeType":"1","dir":"I","orig":"維港灣","dest":"新田圍","stopList":[{"id":"33A62380EFEDAA3A","name":"維港灣巴士總站","lat":"22.318212","long":"114.158321"},{"id":"5A0D9C9441ED6AC5","name":"大角咀中匯街","lat":"22.322767","long":"114.159836"},{"id":"9BF9C994F2DAE15D","name":"奧運站","lat":"22.318545","long":"114.160606"},{"id":"E6915B4BA88D2DB5","name":"富貴街","lat":"22.318725","long":"114.161875"},{"id":"3F34A16B40CB1C7F","name":"銘基書院","lat":"22.318844","long":"114.164162"},{"id":"4EB50AEDC57BF889","name":"新填地街","lat":"22.319759","long":"114.167438"},{"id":"7C6C443BF06FD704","name":"基榮小學","lat":"22.322518","long":"114.168123"},{"id":"4AF3A5BD16E5BA3F","name":"楓樹街","lat":"22.326719","long":"114.165439"},{"id":"B2BD2794088927BE","name":"福華街","lat":"22.328849","long":"114.165486"},{"id":"AFE0100DABA53C21","name":"窩仔街","lat":"22.332483","long":"114.166103"},{"id":"BBC5D60D2FB827D2","name":"白田邨瑞田樓","lat":"22.334875","long":"114.168291"},{"id":"36EE1028F547488D","name":"白田邨富田樓","lat":"22.336943","long":"114.169137"},{"id":"094457650286AA67","name":"石硤尾消防局","lat":"22.338766","long":"114.166833"},{"id":"9CB216DC49F84CFA","name":"澤安邨","lat":"22.340141","long":"114.165083"},{"id":"D198122830A4FDE3","name":"畢架山花園","lat":"22.341687","long":"114.167069"},{"id":"99EF4CA10B3E1F17","name":"豐力樓","lat":"22.343140","long":"114.172841"},{"id":"45D0CFA28B3FEFE5","name":"獅子山隧道","lat":"22.358720","long":"114.173449"},{"id":"B8E2647E9C5019C9","name":"世界花園","lat":"22.366222","long":"114.180516"},{"id":"5EAE23D8DC3A7121","name":"隆亨邨","lat":"22.368414","long":"114.178154"},{"id":"A28C2F29B58A2E9A","name":"下徑口村","lat":"22.365536","long":"114.175431"},{"id":"BA9F2C58E03A38F0","name":"顯田村","lat":"22.362851","long":"114.172557"},{"id":"CA5AEC11C96BA678","name":"顯田遊樂場","lat":"22.365231","long":"114.172634"},{"id":"BE4CE56A7102816E","name":"名城","lat":"22.368715","long":"114.174948"},{"id":"A66159E033DDEA04","name":"大圍站","lat":"22.372606","long":"114.180304"},{"id":"453ABA7E5B17D60A","name":"車公廟","lat":"22.374680","long":"114.184162"},{"id":"B818259F753A3BE2","name":"秦石邨石瑩樓","lat":"22.373437","long":"114.185537"},{"id":"E43D7EE404F2F7AC","name":"新田圍巴士總站","lat":"22.370881","long":"114.186140"}],"routeId":"87B"}]