[{"company":"KMB","route":"87E","routeType":"1","dir":"O","orig":"泥涌","dest":"尖沙咀","stopList":[{"id":"10E07C1870465E91","name":"泥涌","lat":"22.431682","long":"114.255293"},{"id":"F63D25B428F1C1D9","name":"樟木頭帝琴灣","lat":"22.430095","long":"114.251168"},{"id":"1E471172708B5C5D","name":"耀沙路","lat":"22.433294","long":"114.241483"},{"id":"2479788748627B65","name":"烏溪沙路","lat":"22.430936","long":"114.240685"},{"id":"0CB1F7979192FBB2","name":"烏溪沙站","lat":"22.428373","long":"114.243567"},{"id":"DF9E89A391CAC245","name":"九龍塘聯合道","lat":"22.337913","long":"114.179235"},{"id":"657E5836BC932790","name":"九龍塘站","lat":"22.335577","long":"114.179089"},{"id":"7A1C43F91CF8A6FC","name":"九龍塘會","lat":"22.329348","long":"114.178743"},{"id":"60F1DDDCB555E319","name":"拔萃男書院","lat":"22.324949","long":"114.174484"},{"id":"F7CAA2D4FF9D61F7","name":"太子站","lat":"22.324126","long":"114.169855"},{"id":"14F176D358D65A8B","name":"旺角奶路臣街 (S15)","lat":"22.318724","long":"114.169580"},{"id":"8E3A5C15E42020BB","name":"旺角豉油街 (S23)","lat":"22.316078","long":"114.170175"},{"id":"96442B84082D4DF5","name":"油麻地永星里 (S35)","lat":"22.311247","long":"114.171112"},{"id":"508D99EBC9AB3A9B","name":"油麻地長樂街 (S42)","lat":"22.306887","long":"114.171625"},{"id":"FE56DD70DEDE0395","name":"聖安德烈堂 (S48)","lat":"22.301952","long":"114.172017"},{"id":"D2217D7746597D10","name":"尖沙咀中間道 (S54)","lat":"22.295794","long":"114.172446"}],"routeId":"87E"},{"company":"KMB","route":"87E","routeType":"1","dir":"I","orig":"尖沙咀東(麼地道)","dest":"泥涌","stopList":[{"id":"B545DBB9B5AA7A78","name":"尖沙咀東（麼地道）","lat":"22.296852","long":"114.176077"},{"id":"8E8DB91C885F1230","name":"尖東站","lat":"22.294724","long":"114.174189"},{"id":"4A38244491180BF7","name":"尖沙咀海防道 (N6)","lat":"22.297792","long":"114.172054"},{"id":"5419928D472EAD8D","name":"栢麗購物大道 (N13)","lat":"22.301864","long":"114.171726"},{"id":"357B7D41501CDACA","name":"柯士甸道 (N19)","lat":"22.304119","long":"114.171653"},{"id":"D7C7D86E923EEAE1","name":"九龍中央郵政局 (N35)","lat":"22.309345","long":"114.171133"},{"id":"A76BB6FCB881AF5C","name":"油麻地碧街 (N48)","lat":"22.314269","long":"114.170295"},{"id":"0F4F935A9F14F111","name":"旺角山東街 (N59)","lat":"22.317165","long":"114.169667"},{"id":"136480342AAF0BD2","name":"基榮小學","lat":"22.322538","long":"114.168096"},{"id":"32CCEDBCC9EAAA9E","name":"白楊街","lat":"22.326542","long":"114.166667"},{"id":"2751781A6F757C5D","name":"警察體育遊樂會","lat":"22.326707","long":"114.170094"},{"id":"6045969736940272","name":"花墟公園","lat":"22.326866","long":"114.173105"},{"id":"38A53BACD13CD0C8","name":"明愛太子宿舍","lat":"22.326946","long":"114.177209"},{"id":"0CB1F7979192FBB2","name":"烏溪沙站","lat":"22.428373","long":"114.243567"},{"id":"2C5CA5F47FB6EB3F","name":"樟木頭帝琴灣","lat":"22.430218","long":"114.250966"},{"id":"10E07C1870465E91","name":"泥涌","lat":"22.431682","long":"114.255293"}],"routeId":"87E"}]