[{"company":"KMB","route":"87S","routeType":"1","dir":"O","orig":"大學站","dest":"錦英苑 (循環線)","stopList":[{"id":"878A6FDD75689A2D","name":"大學站","lat":"22.412923","long":"114.210274"},{"id":"0209A3C455B1DBE9","name":"耀安邨耀遜樓","lat":"22.419014","long":"114.232161"},{"id":"507E8F5167002BC5","name":"錦英苑","lat":"22.423923","long":"114.238674"},{"id":"A235DF28053F60FE","name":"錦龍苑","lat":"22.425847","long":"114.239571"},{"id":"761CDB62DC025007","name":"富寶花園","lat":"22.425444","long":"114.235451"},{"id":"5E082FCF5C58328C","name":"馬鞍山警署","lat":"22.422399","long":"114.232966"},{"id":"E2602DD1C8EA1AC8","name":"雅景台","lat":"22.419173","long":"114.232389"},{"id":"878A6FDD75689A2D","name":"大學站","lat":"22.412923","long":"114.210274"}],"routeId":"87S"},{"company":"KMB","route":"87S","routeType":"1","dir":"I","orig":"錦英苑","dest":"大學站 (循環線)","stopList":[{"id":"507E8F5167002BC5","name":"錦英苑","lat":"22.423923","long":"114.238674"},{"id":"A235DF28053F60FE","name":"錦龍苑","lat":"22.425847","long":"114.239571"},{"id":"761CDB62DC025007","name":"富寶花園","lat":"22.425444","long":"114.235451"},{"id":"5E082FCF5C58328C","name":"馬鞍山警署","lat":"22.422399","long":"114.232966"},{"id":"E2602DD1C8EA1AC8","name":"雅景台","lat":"22.419173","long":"114.232389"},{"id":"548DB838B4673D93","name":"大學站","lat":"22.412633","long":"114.210648"},{"id":"0209A3C455B1DBE9","name":"耀安邨耀遜樓","lat":"22.419014","long":"114.232161"},{"id":"507E8F5167002BC5","name":"錦英苑","lat":"22.423923","long":"114.238674"}],"routeId":"87S"}]