[{"company":"gmb","route":"88D","routeType":1,"orig":"宏福花園","dest":"葵芳站","stopList":[{"id":1,"name":"宏福花園小巴總站","lat":22.354465937265946,"long":22.354465937265946},{"id":2,"name":"青衣鄉事會路, 近青衣警署","lat":22.35178746082515,"long":22.35178746082515},{"id":3,"name":"涌美路, 近長青邨青楊樓","lat":22.35001337631618,"long":22.35001337631618},{"id":4,"name":"涌美路, 近長康邨康富樓","lat":22.35047742090808,"long":22.35047742090808},{"id":5,"name":"涌美路, 近長康邨康祥樓","lat":22.35013844632978,"long":22.35013844632978},{"id":6,"name":"青康路, 近長青邨青榕樓","lat":22.344893351528725,"long":22.344893351528725},{"id":7,"name":"青衣路, 長青邨青桃樓外","lat":22.34627041727668,"long":22.34627041727668},{"id":8,"name":"葵青路, 近葵涌公園","lat":22.354600251093895,"long":22.354600251093895},{"id":9,"name":"興芳路, 近葵涌運動場","lat":22.357755889253458,"long":22.357755889253458},{"id":10,"name":"興寧路,近新都會廣場","lat":22.357210160885288,"long":22.357210160885288}],"routeId":2005979,"description":"正常班次"},{"company":"gmb","route":"88D","routeType":2,"orig":"葵芳站","dest":"宏福花園","stopList":[{"id":1,"name":"興寧路,近新都會廣場","lat":22.357210160885288,"long":22.357210160885288},{"id":2,"name":"興芳路, 葵涌運動場對面","lat":22.357689385861008,"long":22.357689385861008},{"id":3,"name":"葵青路, 近葵涌工業污水泵房","lat":22.354302185988846,"long":22.354302185988846},{"id":4,"name":"青康路, 近美景花園第七座","lat":22.344863451218895,"long":22.344863451218895},{"id":5,"name":"涌美路, 近長康邨康順樓","lat":22.35021255229781,"long":22.35021255229781},{"id":6,"name":"青衣鄉事會路, 近青衣已婚警察宿舍Ａ座","lat":22.351814095469,"long":22.351814095469},{"id":7,"name":"宏福花園小巴總站","lat":22.354465937265946,"long":22.354465937265946}],"routeId":2005979,"description":"正常班次"}]