[{"company":"gmb","route":"88F","routeType":1,"orig":"青衣站","dest":"藍澄灣","stopList":[{"id":20016746,"name":"港鐵青衣站小巴總站","lat":22.359886690001595,"long":114.10662174224855},{"id":20012810,"name":"青衣鄉事會路, 近翠怡花園第三座","lat":22.35178746082515,"long":114.1077482700348},{"id":20014125,"name":"涌美路, 近長康邨康祥樓","lat":22.35013844632978,"long":114.10083553623247},{"id":20016767,"name":"青康路, 近長青邨民政事務總署長青社區中心","lat":22.34820285343316,"long":114.10672634840013},{"id":20014126,"name":"青康路, 近長青邨青榕樓","lat":22.344893351528725,"long":114.10797615711994},{"id":20016768,"name":"藍澄灣第三座","lat":22.342978298727736,"long":114.10991281270982}],"routeId":2008604,"description":"額外班次"},{"company":"gmb","route":"88F","routeType":2,"orig":"藍澄灣","dest":"青衣站","stopList":[{"id":20016768,"name":"藍澄灣第三座","lat":22.342978298727736,"long":114.10991281270982},{"id":20014127,"name":"青康路, 近美景花園第七座","lat":22.344863451218895,"long":114.10772885115618},{"id":20016795,"name":"青康路, 近青康路遊樂場","lat":22.347987028128127,"long":114.10653591156007},{"id":20016796,"name":"涌美路, 近長康邨康順樓","lat":22.349922001686934,"long":114.10058140754701},{"id":20012808,"name":"青衣鄉事會路, 近青衣已婚警察宿舍Ａ座","lat":22.351814095469,"long":114.10744786262514},{"id":20016746,"name":"港鐵青衣站小巴總站","lat":22.359886690001595,"long":114.10662174224855}],"routeId":2008604,"description":"額外班次"},{"company":"gmb","route":"88F","routeType":1,"orig":"藍澄灣","dest":"青衣站","stopList":[{"id":20016768,"name":"藍澄灣第三座","lat":22.342978298727736,"long":114.10991281270982},{"id":20012808,"name":"青衣鄉事會路, 近青衣已婚警察宿舍Ａ座","lat":22.351814095469,"long":114.10744786262514},{"id":20016746,"name":"港鐵青衣站小巴總站","lat":22.359886690001595,"long":114.10662174224855}],"routeId":2008619,"description":"短程班次"},{"company":"gmb","route":"88F","routeType":2,"orig":"青衣站","dest":"藍澄灣","stopList":[{"id":20016753,"name":"港鐵青衣站小巴總站","lat":22.359886690001595,"long":114.10662174224855},{"id":20012810,"name":"青衣鄉事會路, 近翠怡花園第三座","lat":22.35178746082515,"long":114.1077482700348},{"id":20016768,"name":"藍澄灣第三座","lat":22.342978298727736,"long":114.10991281270982}],"routeId":2008619,"description":"短程班次"}]