[{"company":"kmb","route":"893","routeType":"1","dir":"O","orig":"沙田馬場","dest":"康盛花園","stopList":[{"id":"0F76C05C69B00953","name":"沙田馬場巴士總站","lat":"22.397546","long":"114.201805"},{"id":"FFBEBD7068E01EA4","name":"大老山隧道","lat":"22.377571","long":"114.212260"},{"id":"3EB5320C2212F52F","name":"將軍澳隧道轉車站 (P3)","lat":"22.316056","long":"114.240427"},{"id":"4E62491AA640A5EB","name":"唐明苑","lat":"22.310207","long":"114.257594"},{"id":"3E8B459E94CD57E5","name":"尚智樓","lat":"22.311304","long":"114.260750"},{"id":"69B96A44A754E404","name":"煜明苑","lat":"22.314955","long":"114.268610"},{"id":"5016E25156D72ADA","name":"明德邨","lat":"22.317431","long":"114.268914"},{"id":"336FF66D1F0AC4A0","name":"重華路","lat":"22.316993","long":"114.265883"},{"id":"AF36CBF039B7CB03","name":"培成路","lat":"22.315229","long":"114.263958"},{"id":"1D5530B0037C0143","name":"厚德邨","lat":"22.319137","long":"114.264312"},{"id":"1078119989C67B82","name":"景林邨","lat":"22.322301","long":"114.260993"},{"id":"3047EC57E5BC5FA6","name":"欣景路","lat":"22.322949","long":"114.259137"},{"id":"544FDBB0FC074ABC","name":"英明苑","lat":"22.327016","long":"114.256218"},{"id":"E86C2ACAFC72D243","name":"寶仁樓","lat":"22.326295","long":"114.252315"},{"id":"3CEDAAAC5071EF7B","name":"翠林邨","lat":"22.321524","long":"114.250355"},{"id":"A5B328EAF882C44B","name":"康盛花園巴士總站","lat":"22.318619","long":"114.253883"}],"routeId":"893"}]