[{"company":"nwfb","route":"8R","routeType":null,"dir":"O","orig":"香港大球場","dest":"小西灣 (藍灣半島)","stopList":[{"id":"002575","name":"香港大球場 (2R, 8R, 117R 上客站)","lat":"22.277561542091","long":"114.18843274053"},{"id":"001207","name":"筲箕灣","lat":"22.278421122091","long":"114.22833128053"},{"id":"003305","name":"香港東樹木組, 東喜道","lat":"22.281346692091","long":"114.23008649053"},{"id":"001377","name":"海防博物館, 東喜道","lat":"22.282748932091","long":"114.23350634053"},{"id":"001371","name":"張振興伉儷書院, 東區走廊","lat":"22.267284472091","long":"114.23771063053"},{"id":"001223","name":"宏德居, 柴灣道","lat":"22.263850992091","long":"114.23989662053"},{"id":"001224","name":"漁灣邨, 柴灣道","lat":"22.265262802091","long":"114.24180700053"},{"id":"001225","name":"常安街, 柴灣道","lat":"22.265964212091","long":"114.24531836053"},{"id":"001362","name":"富欣花園, 小西灣道","lat":"22.264655872091","long":"114.24820799053"},{"id":"001369","name":"富怡花園, 小西灣道","lat":"22.262476132091","long":"114.25029280053"},{"id":"001370","name":"富景花園, 小西灣道","lat":"22.263506162091","long":"114.25180554053"},{"id":"001382","name":"小西灣 (藍灣半島)","lat":"22.266350942091","long":"114.25095264053"}],"routeId":"8R","description":"正常班次"}]