[{"company":"nwfb","route":"8R","routeType":null,"dir":"O","orig":"香港大球場","dest":"小西灣 (藍灣半島)(經:筲箕灣及柴灣)","stopList":[{"id":"003777","name":"香港大球場 (8R、930R 上客站)","lat":"22.278718522091","long":"114.18827273053"},{"id":"001379","name":"太古城中心, 太古城道","lat":"22.286124572091","long":"114.21685857053"},{"id":"001378","name":"太古城雅蓮閣, 太古灣道","lat":"22.287362762091","long":"114.21924311053"},{"id":"002792","name":"太古城太湖閣, 太古城道","lat":"22.284671572091","long":"114.22038694053"},{"id":"001296","name":"太安樓, 筲箕灣道","lat":"22.282504342091","long":"114.22170603053"},{"id":"001297","name":"海晏街, 筲箕灣道","lat":"22.280776032091","long":"114.22363882053"},{"id":"001298","name":"愛秩序灣道, 筲箕灣道","lat":"22.280349712091","long":"114.22504094053"},{"id":"002694","name":"愛賢街, 愛秩序灣道","lat":"22.279807302091","long":"114.22720635053"},{"id":"003305","name":"香港東樹木組, 東喜道","lat":"22.281346692091","long":"114.23008649053"},{"id":"001377","name":"海防博物館, 東喜道","lat":"22.282748932091","long":"114.23350634053"},{"id":"001371","name":"張振興伉儷書院, 東區走廊","lat":"22.267284472091","long":"114.23771063053"},{"id":"001223","name":"宏德居, 柴灣道","lat":"22.263850992091","long":"114.23989662053"},{"id":"001224","name":"漁灣邨, 柴灣道","lat":"22.265262802091","long":"114.24180700053"},{"id":"001225","name":"常安街, 柴灣道","lat":"22.265964212091","long":"114.24531836053"},{"id":"001362","name":"富欣花園, 小西灣道","lat":"22.264655872091","long":"114.24820799053"},{"id":"001369","name":"富怡花園, 小西灣道","lat":"22.262476132091","long":"114.25029280053"},{"id":"001370","name":"富景花園, 小西灣道","lat":"22.263506162091","long":"114.25180554053"},{"id":"001382","name":"小西灣 (藍灣半島)","lat":"22.266350942091","long":"114.25095264053"}],"routeId":"8R","description":"正常班次"}]