[{"company":"kmb","route":"907B","routeType":"1","dir":"O","orig":"大埔廣福球場","dest":"灣仔(會展)","stopList":[{"id":"7AC279608B65128C","name":"廣福球場","lat":"22.448044","long":"114.172048"},{"id":"2DA1D06B46A56276","name":"運頭塘總站","lat":"22.442251","long":"114.166609"},{"id":"56C003E99C21984A","name":"大埔墟街市","lat":"22.445994","long":"114.167019"},{"id":"6219234626AC9DD5","name":"大埔寶鄉街","lat":"22.448218","long":"114.166325"},{"id":"DA30F5393480B81D","name":"大埔寶鄉橋","lat":"22.449903","long":"114.167006"},{"id":"A3A7B2B94458A263","name":"林村河畔","lat":"22.450930","long":"114.166753"},{"id":"CCC4773031BC0FD8","name":"太和廣場","lat":"22.450735","long":"114.160718"},{"id":"E18D73287340B634","name":"西區海底隧道 (A3)","lat":"22.304356","long":"114.159916"},{"id":"F4D2D9D3575AECF6","name":"港澳碼頭","lat":"22.288101","long":"114.150185"},{"id":"89ED5D96534CED83","name":"中環街市","lat":"22.285077","long":"114.155435"},{"id":"AE6FE615893E8C89","name":"遮打道","lat":"22.281514","long":"114.160131"},{"id":"3007D34FB91FB27E","name":"金鐘站","lat":"22.278270","long":"114.165080"},{"id":"1AB934EFE0E1470A","name":"軍器廠街","lat":"22.277881","long":"114.169013"},{"id":"16CE9E8D17681839","name":"菲林明道","lat":"22.277778","long":"114.173601"},{"id":"E727E56EF8937CD1","name":"香港會議展覽中心","lat":"22.281387","long":"114.174153"}],"routeId":"907B","description":"特別班次"},{"company":"ctb","route":"907B","routeType":null,"dir":"I","orig":"灣仔 (會議展覽中心)","dest":"大埔 (廣福球場)","stopList":[],"routeId":"907B","description":"正常班次"},{"company":"ctb","route":"907B","routeType":null,"dir":"O","orig":"大埔 (廣福球場)","dest":"灣仔 (會議展覽中心)","stopList":[{"id":"003412","name":"廣福球場, 南運路","lat":"22.447610112091","long":"114.17208086053"},{"id":"002054","name":"運頭塘","lat":"22.442110482091","long":"114.16651466053"},{"id":"003323","name":"大埔墟街市, 運頭街","lat":"22.445828402091","long":"114.16698044053"},{"id":"003573","name":"寶鄉街","lat":"22.448246702091","long":"114.16633754053"},{"id":"002019","name":"寶鄉橋,  寶鄉街","lat":"22.449939122091","long":"114.16705568053"},{"id":"003574","name":"林村河畔, 大埔太和路","lat":"22.450957212091","long":"114.16644343053"},{"id":"003244","name":"太和廣場, 寶雅路","lat":"22.450459542091","long":"114.16094631053"},{"id":"001629","name":"西區海底隧道收費廣場","lat":"22.304233652091","long":"114.15979682053"},{"id":"003409","name":"港澳碼頭, 干諾道中","lat":"22.288009492091","long":"114.15024149053"},{"id":"001046","name":"中環街市, 德輔道中","lat":"22.285207892091","long":"114.15517314053"},{"id":"001025","name":"皇后像廣場, 遮打道","lat":"22.281482342091","long":"114.16005494053"},{"id":"001137","name":"金鐘站, 金鐘道","lat":"22.278348592091","long":"114.16493918053"},{"id":"002427","name":"軍器廠街, 軒尼詩道","lat":"22.277848662091","long":"114.16894462053"},{"id":"002432","name":"菲林明道, 軒尼詩道","lat":"22.277753192091","long":"114.17369502053"},{"id":"002565","name":"香港會議展覽中心, 菲林明道","lat":"22.281164532091","long":"114.17420326053"}],"routeId":"907B","description":"正常班次"}]