[{"company":"kmb","route":"907C","routeType":"1","dir":"O","orig":"大埔頭","dest":"灣仔(會展)","stopList":[{"id":"8BD1BD1B2D687075","name":"大埔頭總站","lat":"22.454811","long":"114.161284"},{"id":"E796B592A3D045F0","name":"大埔公眾泳池","lat":"22.454643","long":"114.163986"},{"id":"F1F1C3A91C6EB439","name":"海寶花園","lat":"22.452967","long":"114.166705"},{"id":"27222F0DE22582ED","name":"大埔中心總站","lat":"22.452896","long":"114.168960"},{"id":"325FDAE396B59480","name":"新興花園","lat":"22.452910","long":"114.172626"},{"id":"597CE200C2824BEE","name":"廣福邨廣智樓","lat":"22.449785","long":"114.171981"},{"id":"7AC279608B65128C","name":"廣福球場","lat":"22.448044","long":"114.172048"},{"id":"12E4BAFA2B73435B","name":"廣福邨","lat":"22.446599","long":"114.173474"},{"id":"E18D73287340B634","name":"西區海底隧道 (A3)","lat":"22.304356","long":"114.159916"},{"id":"F4D2D9D3575AECF6","name":"港澳碼頭","lat":"22.288101","long":"114.150185"},{"id":"89ED5D96534CED83","name":"中環街市","lat":"22.285077","long":"114.155435"},{"id":"AE6FE615893E8C89","name":"遮打道","lat":"22.281514","long":"114.160131"},{"id":"3007D34FB91FB27E","name":"金鐘站","lat":"22.278270","long":"114.165080"},{"id":"1AB934EFE0E1470A","name":"軍器廠街","lat":"22.277881","long":"114.169013"},{"id":"16CE9E8D17681839","name":"菲林明道","lat":"22.277778","long":"114.173601"},{"id":"E727E56EF8937CD1","name":"香港會議展覽中心","lat":"22.281387","long":"114.174153"}],"routeId":"907C","description":"特別班次"},{"company":"kmb","route":"907C","routeType":"1","dir":"I","orig":"金鐘站","dest":"大埔頭","stopList":[{"id":"7467743E276518E9","name":"金鐘站","lat":"22.278437","long":"114.164445"},{"id":"3B487B85E3F07416","name":"置地廣場","lat":"22.281520","long":"114.158043"},{"id":"67387941757BB9DC","name":"中環街市","lat":"22.284250","long":"114.155869"},{"id":"FACA192DB8589295","name":"急庇利街","lat":"22.286577","long":"114.151512"},{"id":"7C99CFD0D8908BE7","name":"西區海底隧道 (B3)","lat":"22.304637","long":"114.158912"},{"id":"CDB292D507E4302D","name":"廣福邨","lat":"22.446299","long":"114.173076"},{"id":"C55F50E43F6108EB","name":"大埔廣福道","lat":"22.448116","long":"114.167887"},{"id":"530F970BB56D778D","name":"大埔寶鄉橋","lat":"22.449775","long":"114.166962"},{"id":"6716018C3EE42733","name":"大埔安祥路","lat":"22.451779","long":"114.167238"},{"id":"3DDE81FE5DB08180","name":"大埔中心總站","lat":"22.453282","long":"114.169202"},{"id":"1A0BF02F827F6A20","name":"大埔安慈路","lat":"22.452495","long":"114.165632"},{"id":"9FDEEC09AD1B601B","name":"太和廣場","lat":"22.450689","long":"114.160767"},{"id":"8BD1BD1B2D687075","name":"大埔頭總站","lat":"22.454811","long":"114.161284"}],"routeId":"907C","description":"特別班次"},{"company":"ctb","route":"907C","routeType":null,"dir":"I","orig":"灣仔 (會議展覽中心)","dest":"大埔頭","stopList":[{"id":"001136","name":"金鐘站, 金鐘道","lat":"22.278462002091","long":"114.16453368053"},{"id":"001054","name":"置地廣場, 德輔道中","lat":"22.281316152091","long":"114.15825054053"},{"id":"001184","name":"中環街市, 德輔道中","lat":"22.284417902091","long":"114.15575187053"},{"id":"001175","name":"急庇利街, 德輔道中","lat":"22.286597682091","long":"114.15157623053"},{"id":"001628","name":"西區海底隧道收費廣場","lat":"22.305020162091","long":"114.15920401053"},{"id":"002017","name":"廣福邨, 大埔公路","lat":"22.446408552091","long":"114.17296515053"},{"id":"002018","name":"廣福道","lat":"22.448119522091","long":"114.16793462053"},{"id":"002019","name":"寶鄉橋,  寶鄉街","lat":"22.449939122091","long":"114.16705568053"},{"id":"002020","name":"安祥路","lat":"22.451904962091","long":"114.16729553053"},{"id":"002021","name":"大埔中心","lat":"22.452921712091","long":"114.16936829053"},{"id":"003243","name":"安慈路, 汀角路","lat":"22.452233162091","long":"114.16553520053"},{"id":"003244","name":"太和廣場, 寶雅路","lat":"22.450459542091","long":"114.16094631053"},{"id":"003322","name":"大埔頭","lat":"22.454753092091","long":"114.16114444053"}],"routeId":"907C","description":"正常班次"},{"company":"ctb","route":"907C","routeType":null,"dir":"O","orig":"大埔頭","dest":"灣仔 (會議展覽中心)","stopList":[{"id":"003322","name":"大埔頭","lat":"22.454753092091","long":"114.16114444053"},{"id":"003245","name":"大埔公眾泳池, 汀太路","lat":"22.454717632091","long":"114.16429793053"},{"id":"003250","name":"海寶花園, 安慈路","lat":"22.452927262091","long":"114.16632821053"},{"id":"002021","name":"大埔中心","lat":"22.452921712091","long":"114.16936829053"},{"id":"003227","name":"新興花園, 南運路","lat":"22.452904542091","long":"114.17256034053"},{"id":"003411","name":"廣福邨廣智樓, 南運路","lat":"22.449730032091","long":"114.17192468053"},{"id":"003412","name":"廣福球場, 南運路","lat":"22.447610112091","long":"114.17208086053"},{"id":"002025","name":"廣福邨, 大埔公路","lat":"22.446524302091","long":"114.17352910053"},{"id":"001629","name":"西區海底隧道收費廣場","lat":"22.304233652091","long":"114.15979682053"},{"id":"003409","name":"港澳碼頭, 干諾道中","lat":"22.288009492091","long":"114.15024149053"},{"id":"001046","name":"中環街市, 德輔道中","lat":"22.285207892091","long":"114.15517314053"},{"id":"001025","name":"皇后像廣場, 遮打道","lat":"22.281482342091","long":"114.16005494053"},{"id":"001137","name":"金鐘站, 金鐘道","lat":"22.278348592091","long":"114.16493918053"},{"id":"002427","name":"軍器廠街, 軒尼詩道","lat":"22.277848662091","long":"114.16894462053"},{"id":"002432","name":"菲林明道, 軒尼詩道","lat":"22.277753192091","long":"114.17369502053"},{"id":"002565","name":"香港會議展覽中心, 菲林明道","lat":"22.281164532091","long":"114.17420326053"}],"routeId":"907C","description":"正常班次"}]