[{"company":"KMB","route":"918","routeType":"1","dir":"O","orig":"林錦公路","dest":"灣仔","stopList":[{"id":"CBA0D271ED709D14","name":"坑下莆","lat":"22.457378","long":"114.144270"},{"id":"B190B4EE3D663C7D","name":"放馬莆林村許願樹","lat":"22.455460","long":"114.142379"},{"id":"B3E9198D7E377749","name":"鍾屋村","lat":"22.453784","long":"114.140808"},{"id":"372CAD789479077E","name":"林村新村","lat":"22.450531","long":"114.137639"},{"id":"1C8D366A8E0235D2","name":"新塘","lat":"22.448578","long":"114.134976"},{"id":"A99EAA9BF58E4AAE","name":"坪朗","lat":"22.445871","long":"114.132524"},{"id":"9DD7971F2245445A","name":"大菴","lat":"22.444237","long":"114.130590"},{"id":"38E98CDA66797431","name":"寨乪","lat":"22.441628","long":"114.127704"},{"id":"7B000C45829679BB","name":"白牛石","lat":"22.440183","long":"114.125116"},{"id":"B42C02E04782AA24","name":"上村村公所","lat":"22.431266","long":"114.102830"},{"id":"B0E5C563CE57C375","name":"上村新村巴士站","lat":"22.430393","long":"114.100113"},{"id":"7934A27F6D03DED6","name":"富龍停車場","lat":"22.429872","long":"114.098380"},{"id":"12A827339D5B8454","name":"狗場","lat":"22.429464","long":"114.096569"},{"id":"C03A261956EEC378","name":"永慶圍","lat":"22.429836","long":"114.094559"},{"id":"163FC4BF240AFA4F","name":"黎屋村","lat":"22.429787","long":"114.092163"},{"id":"F264DF2F9F784D9F","name":"蓮花地","lat":"22.428708","long":"114.086425"},{"id":"286C969B42180EA0","name":"牛徑村","lat":"22.428314","long":"114.084311"},{"id":"D44D25EEC381AE44","name":"水盞田","lat":"22.427429","long":"114.082361"},{"id":"66E438CBC36DA32F","name":"東邊路","lat":"22.425391","long":"114.079601"},{"id":"47331F05FE637843","name":"元崗村","lat":"22.424394","long":"114.077815"},{"id":"81423EF62957C8C6","name":"大窩村","lat":"22.424623","long":"114.075528"},{"id":"A30F5B94F215CCBA","name":"石田路","lat":"22.427392","long":"114.072655"},{"id":"0F63227B1059FB0A","name":"波地路","lat":"22.437959","long":"114.065622"},{"id":"DC0ACF01ABE34E06","name":"祠堂村","lat":"22.438147","long":"114.064544"},{"id":"ECEBA677BFFECC4B","name":"錦上路休憩處","lat":"22.439900","long":"114.060703"},{"id":"9064D9087DDD5811","name":"中景道","lat":"22.288088","long":"114.150071"},{"id":"AEE2BF6EF1B0E46E","name":"郵政總局","lat":"22.283385","long":"114.159436"},{"id":"16C6B12E0609B683","name":"力寶中心","lat":"22.279108","long":"114.164002"},{"id":"5868CBF1CE627437","name":"修頓球場 (NR918)","lat":"22.277392","long":"114.172504"}],"routeId":"918"},{"company":"KMB","route":"918","routeType":"1","dir":"I","orig":"灣仔","dest":"林錦公路","stopList":[{"id":"F158D6A7E4B11A35","name":"修頓球場","lat":"22.277392","long":"114.172504"},{"id":"AC23815E9EE706A2","name":"皇后像廣場","lat":"22.281515","long":"114.160060"},{"id":"1F01222C3FA70452","name":"錦上路休憩處","lat":"22.440017","long":"114.061383"},{"id":"275DFEB8CD10D6C6","name":"祠堂村","lat":"22.438331","long":"114.064254"},{"id":"527795AF6DEC209C","name":"波地路","lat":"22.438172","long":"114.065335"},{"id":"911D0729433130DA","name":"石田路","lat":"22.426857","long":"114.073479"},{"id":"811FB8DCC6291CAB","name":"大窩村","lat":"22.425269","long":"114.075183"},{"id":"18447EC46C82C949","name":"元崗村","lat":"22.424301","long":"114.077323"},{"id":"EB9CE4C04C42159E","name":"東邊路","lat":"22.425769","long":"114.079941"},{"id":"78B21BFA082E3A4F","name":"水盞田","lat":"22.427286","long":"114.081931"},{"id":"9B141D5F54B50B8D","name":"牛徑村","lat":"22.428020","long":"114.082838"},{"id":"14F32FE7E25220F7","name":"蓮花地","lat":"22.428952","long":"114.086775"},{"id":"E9D461B27264E10C","name":"黎屋村","lat":"22.429854","long":"114.091686"},{"id":"147A9F32CAF4E111","name":"永慶圍","lat":"22.429897","long":"114.095076"},{"id":"851A8AF37A521C3B","name":"狗場","lat":"22.429660","long":"114.097083"},{"id":"27C85B117FE98A5B","name":"富龍停車場","lat":"22.430008","long":"114.098210"},{"id":"D28FBFA4FB62E93C","name":"南苑上村新村","lat":"22.430623","long":"114.100275"},{"id":"5C90B394C135CDC1","name":"上村村公所","lat":"22.431547","long":"114.102937"},{"id":"50B174D21ADD3A77","name":"白牛石","lat":"22.440402","long":"114.125296"},{"id":"544EACB723E5EAC8","name":"寨乪","lat":"22.441788","long":"114.127552"},{"id":"55D4F8EB67764C98","name":"大菴","lat":"22.445257","long":"114.131620"},{"id":"6BAD600ACE13F305","name":"坪朗","lat":"22.446397","long":"114.132748"},{"id":"8709FE759542F799","name":"新塘","lat":"22.449142","long":"114.135275"},{"id":"461929A6C01B5EF2","name":"林村新村","lat":"22.450872","long":"114.137952"},{"id":"18A684D59CEFCE8E","name":"鍾屋村","lat":"22.454081","long":"114.140848"},{"id":"0FA88F978E9AEE82","name":"放馬莆林村許願樹","lat":"22.455738","long":"114.142376"},{"id":"FCBFCA78F105A7FD","name":"坑下莆 (NR918)","lat":"22.457569","long":"114.144354"}],"routeId":"918"}]