[{"company":"kmb","route":"91R","routeType":"1","dir":"O","orig":"清水灣","dest":"將軍澳(彩明)","stopList":[{"id":"440AEE375A242B6D","name":"清水灣總站","lat":"22.286983","long":"114.287299"},{"id":"55950D2113A80E72","name":"清水灣第一灘","lat":"22.290759","long":"114.289534"},{"id":"31C7E8E4A4626178","name":"大環頭路","lat":"22.295668","long":"114.291022"},{"id":"F7EE3594526686DB","name":"相思灣","lat":"22.297829","long":"114.289667"},{"id":"80D6E715DA51CA02","name":"兩塊田","lat":"22.301361","long":"114.286271"},{"id":"225FBE9D52AD0ED2","name":"下洋","lat":"22.304077","long":"114.285326"},{"id":"2A62A6244F598604","name":"上洋","lat":"22.309901","long":"114.284423"},{"id":"0CF0429A4BEE8F4C","name":"檳榔灣","lat":"22.311956","long":"114.283372"},{"id":"F937BECF8C53EEF3","name":"五塊田","lat":"22.316245","long":"114.281998"},{"id":"EA5AF653CB5975F8","name":"孟公屋","lat":"22.315362","long":"114.277676"},{"id":"7BFE214AF3036D86","name":"碧沙路","lat":"22.317713","long":"114.274155"},{"id":"5B4EE863B18FED7D","name":"銀線灣廣場","lat":"22.320726","long":"114.271200"},{"id":"8353D95EF9733231","name":"坑口道","lat":"22.322030","long":"114.269685"},{"id":"511D1F0A4F2B25C0","name":"水邊村","lat":"22.321881","long":"114.269060"},{"id":"C9E33E7E7EDAA459","name":"半見村","lat":"22.317092","long":"114.270832"},{"id":"5016E25156D72ADA","name":"明德邨","lat":"22.317431","long":"114.268914"},{"id":"10590D40479607E8","name":"重華路","lat":"22.316889","long":"114.266003"},{"id":"54FCA9F5D8F3587E","name":"煜明苑","lat":"22.314696","long":"114.266582"},{"id":"711927A9FAEF1158","name":"寶盈花園","lat":"22.307892","long":"114.262507"},{"id":"F09FF6C6349030C6","name":"將軍澳站","lat":"22.307809","long":"114.261095"},{"id":"D13C7436B13B4A4B","name":"唐明街公園","lat":"22.310441","long":"114.258958"},{"id":"26F23B1B4A5AB703","name":"調景嶺站","lat":"22.304787","long":"114.252229"},{"id":"938667F4F953DFCA","name":"彩明總站","lat":"22.305903","long":"114.251711"}],"routeId":"91R","description":"正常班次"}]