[{"company":"ctb","route":"930R","routeType":null,"dir":"O","orig":"香港大球場","dest":"荃灣 (愉景新城) (經:葵芳及大窩口)","stopList":[{},{"id":"001628","name":"西區海底隧道收費廣場","lat":"22.305020162091","long":"114.15920401053"},{"id":"001929","name":"葵涌廣場, 葵富路","lat":"22.358479362091","long":"114.12776248053"},{"id":"001921","name":"智芳街, 興芳路","lat":"22.359333032091","long":"114.12777800053"},{"id":"001918","name":"林士德體育館, 興芳路","lat":"22.361036402091","long":"114.12957120053"},{"id":"001974","name":"葵康苑, 大窩口道","lat":"22.363199112091","long":"114.13051902053"},{"id":"001975","name":"葵涌邨夏葵樓, 大窩口道","lat":"22.366280442091","long":"114.13110127053"},{"id":"001976","name":"葵涌邨秋葵樓, 大窩口道","lat":"22.368083342091","long":"114.13029130053"},{"id":"002057","name":"葵馥苑, 大窩口道","lat":"22.367132012091","long":"114.12906374053"},{"id":"001977","name":"葵涌邨茵葵樓, 大窩口道","lat":"22.366949612091","long":"114.12708648053"},{"id":"001978","name":"大窩口邨富華樓, 大窩口道","lat":"22.366136962091","long":"114.12517337053"},{"id":"001979","name":"大窩口邨富安樓, 大窩口道","lat":"22.367524642091","long":"114.12455629053"},{"id":"001987","name":"荃富街, 德士古道","lat":"22.368122382091","long":"114.12224666053"},{"id":"001955","name":"尚翠苑, 沙咀道","lat":"22.367635902091","long":"114.12030093053"},{"id":"001956","name":"寶石大廈, 沙咀道","lat":"22.368900362091","long":"114.11800009053"},{"id":"001957","name":"戴麟趾夫人診療所, 沙咀道","lat":"22.370364432091","long":"114.11537611053"},{"id":"003341","name":"祈德尊新邨, 大涌道","lat":"22.371589252091","long":"114.10992319053"},{"id":"003340","name":"荃灣 (愉景新城)","lat":"22.377589932091","long":"114.11130005053"}],"routeId":"930R","description":"正常班次"}]