[{"company":"kmb","route":"93A","routeType":"1","dir":"O","orig":"寶林","dest":"觀塘碼頭","stopList":[{"id":"DCF1319E6136DDB1","name":"寶林總站","lat":"22.323564","long":"114.257519"},{"id":"3B16EE96D0A7BA72","name":"欣明苑","lat":"22.323757","long":"114.259760"},{"id":"C74927024F67EAD5","name":"英明苑","lat":"22.327029","long":"114.256149"},{"id":"D8CEF4232A0B7E4D","name":"寶仁樓","lat":"22.326280","long":"114.252245"},{"id":"3CEDAAAC5071EF7B","name":"翠林邨","lat":"22.321524","long":"114.250355"},{"id":"4A84482F3A54E4CC","name":"康盛花園","lat":"22.318080","long":"114.254298"},{"id":"5D034EAC6A8853A3","name":"茅湖仔","lat":"22.317440","long":"114.252343"},{"id":"70A7D4C9EDA6D50A","name":"馬游塘村","lat":"22.320282","long":"114.244503"},{"id":"EA2CFF27310EAEC3","name":"寶達邨","lat":"22.318256","long":"114.237594"},{"id":"93084A14AE624C6F","name":"上秀茂坪","lat":"22.315229","long":"114.236377"},{"id":"28A55D04DC72B1EA","name":"梁式芝書院","lat":"22.315347","long":"114.233153"},{"id":"41E81A921D79F375","name":"曉麗苑","lat":"22.318714","long":"114.229840"},{"id":"04B6438688E12AC0","name":"祥和苑","lat":"22.319803","long":"114.227405"},{"id":"073C44CE5FF431BC","name":"和樂邨","lat":"22.317237","long":"114.226791"},{"id":"B5CB3F0D26BBBD03","name":"觀塘同仁街","lat":"22.313363","long":"114.226412"},{"id":"71E3EB7E709522C7","name":"觀塘開源道","lat":"22.309769","long":"114.223892"},{"id":"8D0555A78A132018","name":"觀塘碼頭 (落客站)","lat":"22.307430","long":"114.221682"},{"id":"6F58AF0D366EB8CA","name":"觀塘碼頭","lat":"22.308179","long":"114.221665"}],"routeId":"93A","description":"特別班次"},{"company":"kmb","route":"93A","routeType":"1","dir":"I","orig":"觀塘碼頭","dest":"寶林","stopList":[{"id":"6F58AF0D366EB8CA","name":"觀塘碼頭","lat":"22.308179","long":"114.221665"},{"id":"D0F535009C53F787","name":"敬業街","lat":"22.308305","long":"114.225898"},{"id":"C8FD960431F7210C","name":"成業街休憩公園","lat":"22.309357","long":"114.228494"},{"id":"11EC0BEF4F8781A9","name":"和樂邨","lat":"22.317167","long":"114.226561"},{"id":"D3FEF85E4DAEEE4E","name":"秀雅道遊樂場","lat":"22.320471","long":"114.227324"},{"id":"C3201264CC8E5C5D","name":"曉麗苑","lat":"22.319078","long":"114.229349"},{"id":"C8830886D41FB5FA","name":"曉光街遊樂場","lat":"22.317021","long":"114.231554"},{"id":"D9ABBD996944C4D3","name":"梁式芝書院","lat":"22.314896","long":"114.233811"},{"id":"D83C4CC1305E35E9","name":"上秀茂坪","lat":"22.315073","long":"114.235696"},{"id":"1FBAAE29AF1CA50E","name":"秀暉樓","lat":"22.316851","long":"114.235856"},{"id":"03C3F537C41E4986","name":"寶達邨","lat":"22.318565","long":"114.236118"},{"id":"2FFC93C766E566B5","name":"安達臣道","lat":"22.320918","long":"114.243930"},{"id":"F5A61D37E2DDA9D8","name":"馬游塘村","lat":"22.319505","long":"114.245650"},{"id":"31079A9B244C679B","name":"茅湖仔","lat":"22.317495","long":"114.252038"},{"id":"ABC15E2110BF7A49","name":"康盛花園","lat":"22.319847","long":"114.254072"},{"id":"932D83E09BF6ADE6","name":"翠林邨","lat":"22.322967","long":"114.250222"},{"id":"848CA90EB0DB1146","name":"寶林消防局","lat":"22.326540","long":"114.252091"},{"id":"7486D53F341F1AAC","name":"英明苑","lat":"22.327247","long":"114.256144"},{"id":"C73A03D6C468B767","name":"將軍澳賽馬會診所","lat":"22.324922","long":"114.259363"},{"id":"4AF1A7C103D16636","name":"新都城二期","lat":"22.322453","long":"114.257982"},{"id":"DCF1319E6136DDB1","name":"寶林總站","lat":"22.323564","long":"114.257519"}],"routeId":"93A","description":"特別班次"},{"company":"nwfb","route":"93A","routeType":null,"dir":"I","orig":"羅便臣道","dest":"利東邨","stopList":[],"routeId":"93A","description":"正常班次"},{"company":"nwfb","route":"93A","routeType":null,"dir":"O","orig":"利東邨","dest":"羅便臣道","stopList":[{"id":"002210","name":"利東邨東興樓, 利東邨道","lat":"22.240572052091","long":"114.15491479053"},{"id":"002211","name":"利東街市, 利東邨道","lat":"22.241479512091","long":"114.15483183053"},{"id":"002212","name":"漁安苑, 利東邨道","lat":"22.243031932091","long":"114.15782740053"},{"id":"002160","name":"逸港居, 香港仔海傍道","lat":"22.247488362091","long":"114.15902634053"},{"id":"002161","name":"香港仔海濱公園, 香港仔海傍道","lat":"22.246983922091","long":"114.15584999053"},{"id":"002162","name":"香港仔魚類批發市場, 香港仔海傍道","lat":"22.247980382091","long":"114.15243083053"},{"id":"002163","name":"田灣街, 香港仔海傍道","lat":"22.248632712091","long":"114.14809052053"},{"id":"002261","name":"華富道, 石排灣道","lat":"22.252557142091","long":"114.14024833053"},{"id":"002226","name":"余振強紀念第二中學, 薄扶林道","lat":"22.256090272091","long":"114.13753478053"},{"id":"002227","name":"薄扶林村, 薄扶林道","lat":"22.260643072091","long":"114.13612199053"},{"id":"002228","name":"薄扶林水塘道, 薄扶林道","lat":"22.262870012091","long":"114.13490606053"},{"id":"002229","name":"嘉林閣, 薄扶林道","lat":"22.264648112091","long":"114.13328494053"},{"id":"002230","name":"心光學校, 薄扶林道","lat":"22.267096712091","long":"114.13213924053"},{"id":"002231","name":"瑪麗醫院, 薄扶林道","lat":"22.269072732091","long":"114.13063329053"},{"id":"002232","name":"香港華人基督教聯會薄扶林道墳場, 薄扶林道","lat":"22.274060082091","long":"114.12987976053"},{"id":"001109","name":"摩星嶺道, 薄扶林道","lat":"22.278376602091","long":"114.13095479053"},{"id":"001110","name":"富林苑, 薄扶林道","lat":"22.280020342091","long":"114.13131470053"},{"id":"001111","name":"蒲飛路, 薄扶林道","lat":"22.282022522091","long":"114.13223321053"},{"id":"001112","name":"何東夫人堂, 薄扶林道","lat":"22.283611332091","long":"114.13295982053"},{"id":"001188","name":"香港潮商學校, 薄扶林道","lat":"22.283597812091","long":"114.13606114053"},{"id":"001006","name":"英皇書院, 般咸道","lat":"22.284271882091","long":"114.13975405053"},{"id":"001007","name":"寧養台, 般咸道","lat":"22.284803832091","long":"114.14117667053"},{"id":"001092","name":"聖士提反女子中學, 柏道","lat":"22.283869362091","long":"114.14350996053"},{"id":"001091","name":"豫苑, 柏道","lat":"22.284372122091","long":"114.14469393053"},{"id":"001146","name":"英華女學校, 羅便臣道","lat":"22.282571772091","long":"114.14670968053"},{"id":"001148","name":"西摩道, 羅便臣道","lat":"22.280494672091","long":"114.15057437053"},{"id":"001149","name":"高主教書院, 羅便臣道","lat":"22.278541232091","long":"114.15324279053"},{"id":"001150","name":"花園台, 羅便臣道","lat":"22.276011452091","long":"114.15489341053"}],"routeId":"93A","description":"正常班次"}]