[{"company":"ctb","route":"93C","routeType":null,"dir":"O","orig":"鴨脷洲大街／田灣","dest":"堅道","stopList":[{"id":"002299","name":"田灣邨","lat":"22.250655332091","long":"114.14976256053"},{"id":"002294","name":"耀中幼教學院, 田灣山道","lat":"22.250298772091","long":"114.14756291053"},{"id":"002296","name":"興偉工業中心, 田灣海旁道","lat":"22.248569812091","long":"114.14726387053"},{"id":"002297","name":"牛奶公司冰廠及冷房, 田灣海旁道","lat":"22.248590042091","long":"114.14442990053"},{"id":"002372","name":"華貴邨","lat":"22.249877332091","long":"114.13994005053"},{"id":"002295","name":"牛奶公司冰廠及冷房, 田灣海旁道","lat":"22.248630782091","long":"114.14418340053"},{"id":"002174","name":"鴨脷洲大街","lat":"22.243798472091","long":"114.15325017053"},{"id":"002172","name":"利枝道, 鴨脷洲橋道","lat":"22.243305822091","long":"114.15525315053"},{"id":"002173","name":"鴨脷洲徑, 鴨脷洲橋道","lat":"22.243626692091","long":"114.15653776053"},{"id":"002160","name":"逸港居, 香港仔海傍道","lat":"22.247488362091","long":"114.15902634053"},{"id":"002161","name":"香港仔海濱公園, 香港仔海傍道","lat":"22.246983922091","long":"114.15584999053"},{"id":"002162","name":"香港仔魚類批發市場, 香港仔海傍道","lat":"22.247980382091","long":"114.15243083053"},{"id":"002163","name":"田灣街, 香港仔海傍道","lat":"22.248632712091","long":"114.14809052053"},{"id":"002261","name":"華富道, 石排灣道","lat":"22.252557142091","long":"114.14024833053"},{"id":"002226","name":"余振強紀念第二中學, 薄扶林道","lat":"22.256090272091","long":"114.13753478053"},{"id":"002183","name":"置富徑, 置富道","lat":"22.255735372091","long":"114.13843539053"},{"id":"002184","name":"置富花園 1- 7 座, 置富道","lat":"22.255954222091","long":"114.13974633053"},{"id":"002185","name":"置富南區廣場, 置富道","lat":"22.257587032091","long":"114.13938413053"},{"id":"002187","name":"置富花園網球場, 置富道","lat":"22.259081792091","long":"114.13754534053"},{"id":"002227","name":"薄扶林村, 薄扶林道","lat":"22.260643072091","long":"114.13612199053"},{"id":"002228","name":"薄扶林水塘道, 薄扶林道","lat":"22.262870012091","long":"114.13490606053"},{"id":"002229","name":"嘉林閣, 薄扶林道","lat":"22.264648112091","long":"114.13328494053"},{"id":"002230","name":"心光學校, 薄扶林道","lat":"22.267096712091","long":"114.13213924053"},{"id":"002231","name":"瑪麗醫院, 薄扶林道","lat":"22.269072732091","long":"114.13063329053"},{"id":"002232","name":"香港華人基督教聯會薄扶林道墳場, 薄扶林道","lat":"22.274060082091","long":"114.12987976053"},{"id":"001109","name":"摩星嶺道, 薄扶林道","lat":"22.278376602091","long":"114.13095479053"},{"id":"001110","name":"富林苑, 薄扶林道","lat":"22.279835062091","long":"114.13126545053"},{"id":"001111","name":"蒲飛路, 薄扶林道","lat":"22.282022522091","long":"114.13223321053"},{"id":"001112","name":"何東夫人堂, 薄扶林道","lat":"22.283611332091","long":"114.13295982053"},{"id":"001188","name":"香港潮商學校, 薄扶林道","lat":"22.283597812091","long":"114.13606114053"},{"id":"001006","name":"英皇書院, 般咸道","lat":"22.284271882091","long":"114.13975405053"},{"id":"001007","name":"寧養台, 般咸道","lat":"22.284803832091","long":"114.14117667053"},{"id":"001008","name":"東邊街, 般咸道","lat":"22.284292742091","long":"114.14346201053"},{"id":"001009","name":"高街, 般咸道","lat":"22.284881822091","long":"114.14575316053"},{"id":"001010","name":"醫院道, 般咸道","lat":"22.283648272091","long":"114.14741541053"},{"id":"001015","name":"樓梯街, 堅道","lat":"22.283116402091","long":"114.14886791053"},{"id":"001016","name":"鴨巴甸街, 堅道","lat":"22.282471402091","long":"114.15073989053"},{"id":"001017","name":"明愛中心, 堅道","lat":"22.280152942091","long":"114.15391248053"}],"routeId":"93C","description":"正常班次"}]