[{"company":"kmb","route":"93M","routeType":"1","dir":"O","orig":"將軍澳(彩明)","dest":"寶林","stopList":[{"id":"938667F4F953DFCA","name":"彩明總站","lat":"22.305903","long":"114.251711"},{"id":"1EF9F54185151A2F","name":"健明邨","lat":"22.306723","long":"114.251823"},{"id":"4E62491AA640A5EB","name":"唐明苑","lat":"22.310207","long":"114.257594"},{"id":"3E8B459E94CD57E5","name":"尚智樓","lat":"22.311304","long":"114.260750"},{"id":"D0B1FC246C384949","name":"廣明苑","lat":"22.313191","long":"114.260334"},{"id":"3998A0C9E65D379B","name":"茵怡花園","lat":"22.321382","long":"114.255497"},{"id":"B64E0F355A9F4223","name":"寶儉樓","lat":"22.324533","long":"114.256904"},{"id":"9B90BAE383F14AD3","name":"英明苑","lat":"22.327039","long":"114.256080"},{"id":"E86C2ACAFC72D243","name":"寶仁樓","lat":"22.326295","long":"114.252315"},{"id":"68799FD9ECBF50B1","name":"翠林邨","lat":"22.321438","long":"114.250388"},{"id":"4A84482F3A54E4CC","name":"康盛花園","lat":"22.318080","long":"114.254298"},{"id":"5D034EAC6A8853A3","name":"茅湖仔","lat":"22.317440","long":"114.252343"},{"id":"70A7D4C9EDA6D50A","name":"馬游塘村","lat":"22.320282","long":"114.244503"},{"id":"EA2CFF27310EAEC3","name":"寶達邨","lat":"22.318256","long":"114.237594"},{"id":"824D0847BAAD9128","name":"秀暉樓","lat":"22.316879","long":"114.235972"},{"id":"F36C1B3AC57D96FA","name":"藍田站 (落客站)","lat":"22.307670","long":"114.233509"},{"id":"B1B0E08245C0FC15","name":"藍田站","lat":"22.307159","long":"114.233540"},{"id":"2E2AD8BFE00F9FAB","name":"基孝中學","lat":"22.306249","long":"114.235296"},{"id":"3CB982FBC9E50AAA","name":"康田苑","lat":"22.307071","long":"114.235116"},{"id":"F85916921D80C45A","name":"啟田商場","lat":"22.308910","long":"114.233980"},{"id":"1EF0671DB830C59D","name":"啟田邨","lat":"22.310086","long":"114.234467"},{"id":"B7082198F517B1E8","name":"興田","lat":"22.313062","long":"114.239436"},{"id":"62F395D60229C8F5","name":"秀茂坪曉光街","lat":"22.315423","long":"114.237232"},{"id":"1FBAAE29AF1CA50E","name":"秀暉樓","lat":"22.316851","long":"114.235856"},{"id":"03C3F537C41E4986","name":"寶達邨","lat":"22.318565","long":"114.236118"},{"id":"2FFC93C766E566B5","name":"安達臣道","lat":"22.320918","long":"114.243930"},{"id":"F5A61D37E2DDA9D8","name":"馬游塘村","lat":"22.319505","long":"114.245650"},{"id":"31079A9B244C679B","name":"茅湖仔","lat":"22.317495","long":"114.252038"},{"id":"ABC15E2110BF7A49","name":"康盛花園","lat":"22.319847","long":"114.254072"},{"id":"932D83E09BF6ADE6","name":"翠林邨","lat":"22.322967","long":"114.250222"},{"id":"848CA90EB0DB1146","name":"寶林消防局","lat":"22.326540","long":"114.252091"},{"id":"7486D53F341F1AAC","name":"英明苑","lat":"22.327247","long":"114.256144"},{"id":"C73A03D6C468B767","name":"將軍澳賽馬會診所","lat":"22.324922","long":"114.259363"},{"id":"4AF1A7C103D16636","name":"新都城二期","lat":"22.322453","long":"114.257982"}],"routeId":"93M","description":"正常班次"}]