[{"company":"kmb","route":"945","routeType":"1","dir":"O","orig":"元朗(鳳翔路)","dest":"北角","stopList":[{"id":"E63F94561E97C533","name":"鳳翔路","lat":"22.442996","long":"114.032671"},{"id":"46C9B5997CFBF8C2","name":"東堤街","lat":"22.446222","long":"114.030511"},{"id":"C67C7D69D2EDA292","name":"海港政府大樓","lat":"22.286746","long":"114.155061"},{"id":"C466F7104D101BED","name":"力寶中心","lat":"22.279058","long":"114.163968"},{"id":"693C1DEE3AEEEE51","name":"軒尼詩道","lat":"22.277566","long":"114.172419"},{"id":"A4EDC4D5E336D4B4","name":"興發街","lat":"22.283460","long":"114.191088"},{"id":"8144A0422908BE73","name":"電氣道","lat":"22.290131","long":"114.194335"},{"id":"3E1D9EABF11829F2","name":"渣華道","lat":"22.292146","long":"114.199289"},{"id":"4C78B66918ACB647","name":"琴行街 (NR945)","lat":"22.292466","long":"114.200724"}],"routeId":"945","description":"特別班次"},{"company":"kmb","route":"945","routeType":"1","dir":"I","orig":"北角","dest":"元朗(鳳翔路)","stopList":[{"id":"064C195509AC01EE","name":"琴行街","lat":"22.292466","long":"114.200724"},{"id":"BFEC36AAF24DCFCC","name":"港運大廈","lat":"22.291612","long":"114.202874"},{"id":"DF0F8F9667BADA6A","name":"英皇道","lat":"22.288939","long":"114.194259"},{"id":"6DED9BB3FAD04626","name":"軒尼詩道","lat":"22.277380","long":"114.172404"},{"id":"CC16DAD26A76901D","name":"干諾道中","lat":"22.285288","long":"114.155939"},{"id":"BA20545E77FA6C62","name":"鳳翔路","lat":"22.442951","long":"114.032667"},{"id":"A15836A4CAF064BF","name":"東堤街 (NR945)","lat":"22.446266","long":"114.030522"}],"routeId":"945","description":"特別班次"}]