[{"company":"kmb","route":"95","routeType":"1","dir":"O","orig":"翠林","dest":"佐敦(西九龍站)","stopList":[{"id":"E15A06305804D0AA","name":"翠林總站","lat":"22.322908","long":"114.249183"},{"id":"A5B328EAF882C44B","name":"康盛花園巴士總站","lat":"22.318619","long":"114.253883"},{"id":"4A84482F3A54E4CC","name":"康盛花園","lat":"22.318080","long":"114.254298"},{"id":"70A7D4C9EDA6D50A","name":"馬游塘村","lat":"22.320282","long":"114.244503"},{"id":"AE0DC8745DFCA0FA","name":"寶達邨","lat":"22.318255","long":"114.237469"},{"id":"93084A14AE624C6F","name":"上秀茂坪","lat":"22.315229","long":"114.236377"},{"id":"D17050E8964504BB","name":"秀明樓","lat":"22.315934","long":"114.233922"},{"id":"04DDF4F7F1C74876","name":"秀富樓","lat":"22.317096","long":"114.232170"},{"id":"D6F16850DA906373","name":"秀茂坪商場","lat":"22.319131","long":"114.231266"},{"id":"2BB6115BF9346B34","name":"秀樂樓","lat":"22.321683","long":"114.230444"},{"id":"6765DD696FA8BF8D","name":"寧波第二中學","lat":"22.323885","long":"114.227862"},{"id":"BA68A40274B99650","name":"順利邨公園","lat":"22.328916","long":"114.225299"},{"id":"3BA9C90738A8600D","name":"白虹樓","lat":"22.332289","long":"114.215322"},{"id":"29B66F2353388E18","name":"彩虹站","lat":"22.334168","long":"114.209980"},{"id":"917DF4AF0ED7B258","name":"丹鳳樓","lat":"22.335294","long":"114.207582"},{"id":"92540DF9CB08304C","name":"錦雲樓","lat":"22.337344","long":"114.204749"},{"id":"442D6A78E1015EAE","name":"新蒲崗四美街","lat":"22.337780","long":"114.201904"},{"id":"17EB4B9A9DE2FAF6","name":"黃大仙警署","lat":"22.338896","long":"114.197075"},{"id":"BAA5C48341F400C8","name":"新蒲崗衍慶街","lat":"22.335956","long":"114.194555"},{"id":"401EAF24B736C5B6","name":"新蒲崗寧遠街","lat":"22.333999","long":"114.194959"},{"id":"D477F40E64BFF7D8","name":"富豪東方酒店","lat":"22.327364","long":"114.190921"},{"id":"3161D898CD89AA38","name":"侯王道","lat":"22.327437","long":"114.188845"},{"id":"9DBBC71CB1578A87","name":"喇沙利道","lat":"22.326473","long":"114.183159"},{"id":"312CD2A987AA2773","name":"伯爵街","lat":"22.325975","long":"114.180423"},{"id":"40E8A4AA35AEB18A","name":"勵德街","lat":"22.325359","long":"114.176886"},{"id":"60F1DDDCB555E319","name":"拔萃男書院","lat":"22.324949","long":"114.174484"},{"id":"65B934D14EA190F1","name":"協和小學","lat":"22.324613","long":"114.172570"},{"id":"6F5585807DB07812","name":"太子站","lat":"22.324122","long":"114.169733"},{"id":"783CE18C333C6069","name":"旺角站 (S13)","lat":"22.319834","long":"114.169353"},{"id":"7BE18698D0E8FDCE","name":"旺角豉油街 (S22)","lat":"22.316021","long":"114.170116"},{"id":"8748720365CEA134","name":"油麻地碧街 (S29)","lat":"22.313461","long":"114.170674"},{"id":"25B94D808EC232D8","name":"加士居道 (S38)","lat":"22.308921","long":"114.171408"},{"id":"2F165341B07CBDB9","name":"佐敦吳松街","lat":"22.305229","long":"114.169912"},{"id":"FD1B403FD4EC3E8D","name":"佐敦炮台街","lat":"22.305617","long":"114.168054"},{"id":"508D1C5BF90CE574","name":"佐敦(西九龍站)巴士總站","lat":"22.307550","long":"114.164551"}],"routeId":"95","description":"正常班次"},{"company":"kmb","route":"95","routeType":"1","dir":"I","orig":"佐敦(西九龍站)","dest":"翠林","stopList":[{"id":"31072508CEF942C6","name":"雅翔道(環球貿易廣場) (C1)","lat":"22.303565","long":"114.159802"},{"id":"450A96AF1DA8E41C","name":"柯士甸站","lat":"22.303707","long":"114.167718"},{"id":"C91C122CFC3FF66B","name":"佐敦炮台街","lat":"22.305803","long":"114.168193"},{"id":"0E9F8B5A3734D9CE","name":"油麻地寧波街 (N27)","lat":"22.306759","long":"114.171390"},{"id":"FABC0445FC1C04D7","name":"九龍中央郵政局 (N32)","lat":"22.308978","long":"114.171179"},{"id":"3A43E432D0588F79","name":"油麻地碧街 (N47)","lat":"22.313744","long":"114.170364"},{"id":"6D286CD9A26AAFB3","name":"旺角奶路臣街 (N63)","lat":"22.318058","long":"114.169499"},{"id":"4884DCF89AD7BA6A","name":"旺角站","lat":"22.319688","long":"114.170707"},{"id":"A72D15160CC3AF31","name":"亞皆老街中電","lat":"22.320532","long":"114.175816"},{"id":"83CAC07FF3CA1BDA","name":"九龍醫院","lat":"22.322695","long":"114.180355"},{"id":"B0DDF2CD704116C8","name":"醫院管理局","lat":"22.323790","long":"114.182797"},{"id":"6C1DEF32B8CB92C4","name":"香港眼科醫院","lat":"22.324908","long":"114.184866"},{"id":"6965D1D655C2DD5F","name":"亞皆老街球場","lat":"22.327009","long":"114.188955"},{"id":"20A7DAD5A8294964","name":"富豪東方酒店","lat":"22.329212","long":"114.192610"},{"id":"A0EFE3E68568F194","name":"譽．港灣","lat":"22.333136","long":"114.196760"},{"id":"7EC2A04EAD230873","name":"采頤花園","lat":"22.335055","long":"114.201602"},{"id":"D887822D673804CA","name":"彩虹邨","lat":"22.335336","long":"114.204301"},{"id":"E7116B44D9E9393A","name":"彩雲聖若瑟小學","lat":"22.334458","long":"114.211619"},{"id":"29740CCBBD82FC33","name":"白虹樓","lat":"22.332630","long":"114.215379"},{"id":"EB666DF59D741258","name":"基順學校","lat":"22.332535","long":"114.223473"},{"id":"A0AB9A2B2D648FF5","name":"利康樓","lat":"22.330415","long":"114.225940"},{"id":"F1B974EDD8C15DBC","name":"安頌樓","lat":"22.328922","long":"114.225641"},{"id":"BBBDC092F96C0A41","name":"寧波第二中學","lat":"22.324023","long":"114.228358"},{"id":"4A14A012710E80B1","name":"秀樂樓","lat":"22.321801","long":"114.230416"},{"id":"25D24692B2A312FB","name":"秀逸樓","lat":"22.317818","long":"114.231893"},{"id":"6F106FD26B684372","name":"秀安樓","lat":"22.316738","long":"114.233354"},{"id":"D83C4CC1305E35E9","name":"上秀茂坪","lat":"22.315073","long":"114.235696"},{"id":"1FBAAE29AF1CA50E","name":"秀暉樓","lat":"22.316851","long":"114.235856"},{"id":"03C3F537C41E4986","name":"寶達邨","lat":"22.318565","long":"114.236118"},{"id":"2FFC93C766E566B5","name":"安達臣道","lat":"22.320918","long":"114.243930"},{"id":"F5A61D37E2DDA9D8","name":"馬游塘村","lat":"22.319505","long":"114.245650"},{"id":"31079A9B244C679B","name":"茅湖仔","lat":"22.317495","long":"114.252038"},{"id":"ABC15E2110BF7A49","name":"康盛花園","lat":"22.319847","long":"114.254072"}],"routeId":"95","description":"正常班次"},{"company":"nwfb","route":"95","routeType":null,"dir":"I","orig":"香港仔 / 石排灣","dest":"鴨脷洲邨 / 利南道工業區","stopList":[{"id":"002164","name":"崇文街, 香港仔水塘道","lat":"22.249643922091","long":"114.15591632053"},{"id":"002165","name":"漁光村白沙樓, 香港仔水塘道","lat":"22.251493752091","long":"114.15661982053"},{"id":"002365","name":"漁光村海鷗樓, 漁光道","lat":"22.251929752091","long":"114.15786263053"},{"id":"002366","name":"扶康會康復中心, 漁光道","lat":"22.249937652091","long":"114.15891285053"},{"id":"002367","name":"石排灣邨, 漁光道","lat":"22.248231762091","long":"114.15774788053"},{"id":"002368","name":"漁暉苑日暉閣, 漁光道","lat":"22.248786452091","long":"114.15676886053"},{"id":"002938","name":"漁暉苑景暉閣, 漁光道","lat":"22.250061482091","long":"114.15715298053"},{"id":"002215","name":"洛陽街","lat":"22.249225372091","long":"114.15530381053"},{"id":"002158","name":"漁暉道, 香港仔大道","lat":"22.248585702091","long":"114.15575506053"},{"id":"002159","name":"業漁大廈, 香港仔大道","lat":"22.247578892091","long":"114.15849066053"},{"id":"002167","name":"鴨脷洲徑, 鴨脷洲橋道","lat":"22.243437112091","long":"114.15652985053"},{"id":"002168","name":"利枝道, 鴨脷洲橋道","lat":"22.243012942091","long":"114.15500259053"},{"id":"002166","name":"鴨脷洲邨","lat":"22.244376802091","long":"114.15097708053"},{"id":"002206","name":"御庭園, 利南道","lat":"22.242660822091","long":"114.15030606053"},{"id":"002207","name":"污水處理廠, 利南道","lat":"22.239670772091","long":"114.14981125053"},{"id":"002208","name":"新海怡廣場, 利南道","lat":"22.238743852091","long":"114.15218617053"},{"id":"002956","name":"鴨脷洲 (利景街)","lat":"22.238094992091","long":"114.15319133053"},{"id":"002166","name":"鴨脷洲邨","lat":"22.244376802091","long":"114.15097708053"}],"routeId":"95","description":"正常班次"},{"company":"nwfb","route":"95","routeType":null,"dir":"O","orig":"鴨脷洲邨 / 利南道工業區","dest":"香港仔 / 石排灣","stopList":[{"id":"002956","name":"鴨脷洲 (利景街)","lat":"22.238094992091","long":"114.15319133053"},{"id":"002203","name":"利景街, 利南道","lat":"22.238357942091","long":"114.15239993053"},{"id":"002205","name":"污水處理廠, 利南道","lat":"22.239641852091","long":"114.14975594053"},{"id":"002204","name":"怡南路, 利南道","lat":"22.241250482091","long":"114.14836660053"},{"id":"002166","name":"鴨脷洲邨","lat":"22.244376802091","long":"114.15097708053"},{"id":"002172","name":"利枝道, 鴨脷洲橋道","lat":"22.243305822091","long":"114.15525315053"},{"id":"002173","name":"鴨脷洲徑, 鴨脷洲橋道","lat":"22.243626692091","long":"114.15653776053"},{"id":"002160","name":"逸港居, 香港仔海傍道","lat":"22.247488362091","long":"114.15902634053"},{"id":"002161","name":"香港仔海濱公園, 香港仔海傍道","lat":"22.246983922091","long":"114.15584999053"},{"id":"002164","name":"崇文街, 香港仔水塘道","lat":"22.249643922091","long":"114.15591632053"},{"id":"002165","name":"漁光村白沙樓, 香港仔水塘道","lat":"22.251493752091","long":"114.15661982053"},{"id":"002365","name":"漁光村海鷗樓, 漁光道","lat":"22.251929752091","long":"114.15786263053"},{"id":"002366","name":"扶康會康復中心, 漁光道","lat":"22.249937652091","long":"114.15891285053"},{"id":"002367","name":"石排灣邨, 漁光道","lat":"22.248231762091","long":"114.15774788053"},{"id":"002368","name":"漁暉苑日暉閣, 漁光道","lat":"22.248786452091","long":"114.15676886053"},{"id":"002938","name":"漁暉苑景暉閣, 漁光道","lat":"22.250061482091","long":"114.15715298053"},{"id":"002215","name":"洛陽街","lat":"22.249225372091","long":"114.15530381053"}],"routeId":"95","description":"正常班次"}]