[{"company":"kmb","route":"95M","routeType":"1","dir":"O","orig":"翠林","dest":"觀塘(雅麗道)","stopList":[{"id":"2973FA26FC035FE7","name":"翠林總站","lat":"22.322834","long":"114.249125"},{"id":"A5B328EAF882C44B","name":"康盛花園巴士總站","lat":"22.318619","long":"114.253883"},{"id":"4A84482F3A54E4CC","name":"康盛花園","lat":"22.318080","long":"114.254298"},{"id":"70A7D4C9EDA6D50A","name":"馬游塘村","lat":"22.320282","long":"114.244503"},{"id":"EA2CFF27310EAEC3","name":"寶達轉車站 - 寶達邨 (H2)","lat":"22.318256","long":"114.237594"},{"id":"3C0AF6BA82588E2F","name":"秀程樓","lat":"22.320022","long":"114.233232"},{"id":"F8DEE1D5F9A349AD","name":"秀康樓","lat":"22.323034","long":"114.230584"},{"id":"6765DD696FA8BF8D","name":"寧波第二中學","lat":"22.323885","long":"114.227862"},{"id":"DD5B5646768C5F09","name":"聯合醫院","lat":"22.322105","long":"114.226132"},{"id":"6CF34EF02CDBE26B","name":"祥和苑","lat":"22.318588","long":"114.227400"},{"id":"073C44CE5FF431BC","name":"和樂邨","lat":"22.317237","long":"114.226791"},{"id":"45C2286729E1475B","name":"裕民坊","lat":"22.313405","long":"114.225071"},{"id":"00A529823BEBABA7","name":"觀塘（雅麗道）總站","lat":"22.315072","long":"114.219890"}],"routeId":"95M","description":"正常班次"},{"company":"kmb","route":"95M","routeType":"1","dir":"I","orig":"觀塘(雅麗道)","dest":"翠林","stopList":[{"id":"00A529823BEBABA7","name":"觀塘（雅麗道）總站","lat":"22.315072","long":"114.219890"},{"id":"5FD7848A339751B6","name":"觀塘轉車站 - 觀塘市中心 (T4)","lat":"22.313239","long":"114.224419"},{"id":"072046BF00257739","name":"和樂邨","lat":"22.317107","long":"114.226525"},{"id":"BFF2560B1C1687B2","name":"聯合醫院","lat":"22.322257","long":"114.225928"},{"id":"6882248B39345F28","name":"寧波第二中學","lat":"22.324091","long":"114.228401"},{"id":"B809C24DC8C87767","name":"秀康樓","lat":"22.323111","long":"114.230621"},{"id":"3BA4DBB4520188DF","name":"秀程樓","lat":"22.320010","long":"114.233479"},{"id":"03C3F537C41E4986","name":"寶達轉車站 - 寶達邨 (N1)","lat":"22.318565","long":"114.236118"},{"id":"2FFC93C766E566B5","name":"安達臣道","lat":"22.320918","long":"114.243930"},{"id":"F5A61D37E2DDA9D8","name":"馬游塘村","lat":"22.319505","long":"114.245650"},{"id":"31079A9B244C679B","name":"茅湖仔","lat":"22.317495","long":"114.252038"},{"id":"ABC15E2110BF7A49","name":"康盛花園","lat":"22.319847","long":"114.254072"},{"id":"2973FA26FC035FE7","name":"翠林總站","lat":"22.322834","long":"114.249125"}],"routeId":"95M","description":"正常班次"},{"company":"gmb","route":"95M","routeType":1,"orig":"荃灣站","dest":"荃灣中心","stopList":[{"id":20016071,"name":"荃灣站","lat":22.37259888078643,"long":114.118949174881},{"id":20001877,"name":"青山公路-荃灣段287號外","lat":22.373382465175627,"long":114.11614987586186},{"id":20016003,"name":"青山公路-荃灣段413號外","lat":22.37483982665977,"long":114.11251723766328},{"id":20016072,"name":"荃景圍荃灣警署外","lat":22.377274194599266,"long":114.11027491092683},{"id":20015998,"name":"荃灣中心","lat":22.379005385013997,"long":114.10787165164949}],"routeId":2008058,"description":"正常班次"},{"company":"gmb","route":"95M","routeType":2,"orig":"荃灣中心","dest":"荃灣站","stopList":[{"id":20015998,"name":"荃灣中心","lat":22.379005385013997,"long":114.10787165164949},{"id":20016073,"name":"荃景圍荃景花園停車場外","lat":22.37826380321813,"long":114.10962581634523},{"id":20001872,"name":"青山公路-荃灣段中染大廈外","lat":22.374961543639547,"long":114.11286727464953},{"id":20001873,"name":"西樓角路南豐中心對面","lat":22.37409600040671,"long":114.11647969813795},{"id":20016071,"name":"荃灣站","lat":22.37259888078643,"long":114.118949174881}],"routeId":2008058,"description":"正常班次"}]