[{"company":"kmb","route":"960B","routeType":"1","dir":"O","orig":"鰂魚涌(英皇道)","dest":"洪水橋(洪福邨)","stopList":[{"id":"F75D0D2C6014A854","name":"鰂魚涌（英皇道）總站","lat":"22.286032","long":"114.210839"},{"id":"8A573E6526B8EF88","name":"北角官立小學","lat":"22.289104","long":"114.209503"},{"id":"1D53F0BB47AB8441","name":"模範邨","lat":"22.291524","long":"114.207651"},{"id":"AD97EA183A25102C","name":"西區海底隧道 (B1)","lat":"22.304471","long":"114.158659"},{"id":"DFE346B2C7332BC0","name":"屯門公路轉車站 (B6)","lat":"22.358063","long":"114.019164"},{"id":"88229183EDC0B6E9","name":"屯門公路轉車站 (B2)","lat":"22.358615","long":"114.018633"},{"id":"64312A5DFF11636C","name":"豐景園","lat":"22.384009","long":"113.972822"},{"id":"CB2A65E69B2B71BE","name":"翠寧花園","lat":"22.383922","long":"113.974412"},{"id":"5A592ED96E34B583","name":"友愛邨","lat":"22.387777","long":"113.975177"},{"id":"5D14B75687F60509","name":"屯門公園","lat":"22.392122","long":"113.975127"},{"id":"69EA07FBAB612E68","name":"屯門站總站","lat":"22.395081","long":"113.973782"},{"id":"7F4EB0203DF27B35","name":"屯門消防局","lat":"22.394590","long":"113.970556"},{"id":"F4D9335688592803","name":"鳴琴站","lat":"22.396654","long":"113.967361"},{"id":"C192BEF2264E0CC6","name":"石排站","lat":"22.401910","long":"113.967871"},{"id":"542CC0EC83BAEA01","name":"新圍苑","lat":"22.405362","long":"113.964142"},{"id":"840532B7C95DF870","name":"兆邦苑","lat":"22.407738","long":"113.965595"},{"id":"315BE0CA231DCD4F","name":"寶田","lat":"22.409406","long":"113.967043"},{"id":"274BF3A877FB8E6C","name":"建生總站","lat":"22.405981","long":"113.968887"}],"routeId":"960B","description":"正常班次"}]