[{"company":"kmb","route":"961S","routeType":"1","dir":"O","orig":"屯門(良景邨)","dest":"銅鑼灣(維園)","stopList":[{"id":"7C2F503A3743D32D","name":"良景邨總站","lat":"22.406441","long":"113.963953"},{"id":"1F6BFDF34BABCE6A","name":"田景邨田裕樓","lat":"22.405482","long":"113.964709"},{"id":"19B569A51034271F","name":"石排站","lat":"22.402023","long":"113.968039"},{"id":"B3CCA98CC6CE7C8C","name":"鳴琴站","lat":"22.397121","long":"113.967538"},{"id":"1F5BF0C69F30C752","name":"青雲站","lat":"22.393642","long":"113.967801"},{"id":"854E787D0F56BF91","name":"聖彼得堂","lat":"22.392096","long":"113.967806"},{"id":"2560149CE75EABA0","name":"屯門公路轉車站 (A6)","lat":"22.362751","long":"114.015706"},{"id":"ACB5FEA2BF9FC5AD","name":"屯門公路轉車站 (A4)","lat":"22.362444","long":"114.015978"},{"id":"466111DE1A3E4656","name":"西區海底隧道 (A2)","lat":"22.304356","long":"114.159916"},{"id":"28B264A688848238","name":"港澳碼頭","lat":"22.288101","long":"114.150185"},{"id":"5FEC91F62EE33DA1","name":"永和街","lat":"22.285751","long":"114.154316"},{"id":"4328371AE3AD16B9","name":"恒生銀行總行","lat":"22.284427","long":"114.155948"},{"id":"46CB01C7F12428A3","name":"德忌利士街","lat":"22.283296","long":"114.156887"},{"id":"D5FEF340EE98A7E8","name":"皇后像廣場","lat":"22.280703","long":"114.159910"},{"id":"3FCC00D1D01ACD28","name":"金鐘站 (B1)","lat":"22.278410","long":"114.164530"},{"id":"AD1B202B678A3B56","name":"軍器廠街","lat":"22.277878","long":"114.169050"},{"id":"B30799FB3732222B","name":"菲林明道","lat":"22.277831","long":"114.174009"},{"id":"4C333C4D4E80902B","name":"史釗域道","lat":"22.278228","long":"114.177304"},{"id":"F1A22B170518051B","name":"灣仔消防局","lat":"22.279647","long":"114.181855"},{"id":"69F0130ADB11EF8B","name":"崇光百貨","lat":"22.280249","long":"114.183934"},{"id":"17B98BD1165A7B92","name":"維多利亞公園","lat":"22.280958","long":"114.189949"}],"routeId":"961S"}]