[{"company":"kmb","route":"968","routeType":"1","dir":"O","orig":"元朗(西)","dest":"銅鑼灣(天后)","stopList":[{"id":"DAFFF59B0718B464","name":"元朗（西）總站","lat":"22.445432","long":"114.024608"},{"id":"C296D9B3313C1F77","name":"元朗同樂街 (N9)","lat":"22.444617","long":"114.028259"},{"id":"AD4CB5E1CAAF8063","name":"元朗谷亭街 (N15)","lat":"22.444525","long":"114.030933"},{"id":"723EF8D7809D3ADB","name":"形點 II","lat":"22.446646","long":"114.035151"},{"id":"591FA32FB4B53682","name":"形點 I","lat":"22.445065","long":"114.036445"},{"id":"3ECEF3B735084236","name":"大欖隧道 (A5)","lat":"22.420685","long":"114.064379"},{"id":"211D93217331B040","name":"大欖隧道 (A3)","lat":"22.420003","long":"114.064388"},{"id":"466111DE1A3E4656","name":"西區海底隧道 (A2)","lat":"22.304356","long":"114.159916"},{"id":"8D845BED93F1CDD3","name":"西消防街","lat":"22.288852","long":"114.145137"},{"id":"25D811895B82ABCA","name":"港澳碼頭","lat":"22.287641","long":"114.151866"},{"id":"709C8604AFB90F27","name":"海港政府大樓","lat":"22.286969","long":"114.155364"},{"id":"8379C4B1265C27F7","name":"怡和大廈","lat":"22.282710","long":"114.159271"},{"id":"C804CCACB2781EEE","name":"力寶中心 (E1)","lat":"22.279831","long":"114.163252"},{"id":"AD1B202B678A3B56","name":"軍器廠街","lat":"22.277878","long":"114.169050"},{"id":"C88DEC0AF0D1102B","name":"菲林明道","lat":"22.277774","long":"114.173550"},{"id":"4C333C4D4E80902B","name":"史釗域道","lat":"22.278228","long":"114.177304"},{"id":"F1A22B170518051B","name":"灣仔消防局","lat":"22.279647","long":"114.181855"},{"id":"7F0D726107B2540E","name":"怡和街","lat":"22.279601","long":"114.186754"},{"id":"17B98BD1165A7B92","name":"維多利亞公園","lat":"22.280958","long":"114.189949"},{"id":"186754E04899194F","name":"銅鑼灣天后總站","lat":"22.282713","long":"114.191616"}],"routeId":"968","description":"正常班次"},{"company":"kmb","route":"968","routeType":"2","dir":"O","orig":"元朗公園","dest":"銅鑼灣(天后)","stopList":[{"id":"51B4CB169B73CAF5","name":"元朗公園總站","lat":"22.442051","long":"114.020163"},{"id":"B896D9459B2C84FA","name":"御豪山莊","lat":"22.442417","long":"114.017772"},{"id":"E53367ABE6927F27","name":"藝典居","lat":"22.440092","long":"114.018928"},{"id":"3DE45DC85392F3E9","name":"翹翠峰","lat":"22.438894","long":"114.019918"},{"id":"6225FE329900326D","name":"馬田村","lat":"22.438144","long":"114.023016"},{"id":"C187E3771B7032EC","name":"馬田壆","lat":"22.437594","long":"114.028462"},{"id":"41C9CAACDC573B48","name":"蝶翠峰","lat":"22.438365","long":"114.030900"},{"id":"3ECEF3B735084236","name":"大欖隧道 (A5)","lat":"22.420685","long":"114.064379"},{"id":"211D93217331B040","name":"大欖隧道 (A3)","lat":"22.420003","long":"114.064388"},{"id":"466111DE1A3E4656","name":"西區海底隧道 (A2)","lat":"22.304356","long":"114.159916"},{"id":"8D845BED93F1CDD3","name":"西消防街","lat":"22.288852","long":"114.145137"},{"id":"25D811895B82ABCA","name":"港澳碼頭","lat":"22.287641","long":"114.151866"},{"id":"709C8604AFB90F27","name":"海港政府大樓","lat":"22.286969","long":"114.155364"},{"id":"8379C4B1265C27F7","name":"怡和大廈","lat":"22.282710","long":"114.159271"},{"id":"C804CCACB2781EEE","name":"力寶中心 (E1)","lat":"22.279831","long":"114.163252"},{"id":"AD1B202B678A3B56","name":"軍器廠街","lat":"22.277878","long":"114.169050"},{"id":"C88DEC0AF0D1102B","name":"菲林明道","lat":"22.277774","long":"114.173550"},{"id":"4C333C4D4E80902B","name":"史釗域道","lat":"22.278228","long":"114.177304"},{"id":"F1A22B170518051B","name":"灣仔消防局","lat":"22.279647","long":"114.181855"},{"id":"7F0D726107B2540E","name":"怡和街","lat":"22.279601","long":"114.186754"},{"id":"17B98BD1165A7B92","name":"維多利亞公園","lat":"22.280958","long":"114.189949"},{"id":"186754E04899194F","name":"銅鑼灣天后總站","lat":"22.282713","long":"114.191616"}],"routeId":"968","description":"特別班次"},{"company":"kmb","route":"968","routeType":"1","dir":"I","orig":"銅鑼灣(天后)","dest":"元朗(西)","stopList":[{"id":"186754E04899194F","name":"銅鑼灣天后總站","lat":"22.282713","long":"114.191616"},{"id":"CFC063BFE7F6F67B","name":"中央圖書館","lat":"22.280326","long":"114.189351"},{"id":"BBFDDE87E6A6DD13","name":"怡和街","lat":"22.279806","long":"114.185362"},{"id":"D073FFE1CF019F1F","name":"天樂里","lat":"22.278923","long":"114.180447"},{"id":"569100345CF1E324","name":"廣生行大廈","lat":"22.278032","long":"114.177487"},{"id":"C3D2F84C0F0FF415","name":"菲林明道","lat":"22.277581","long":"114.174166"},{"id":"47A2AA98F8E20AE2","name":"盧押道","lat":"22.277431","long":"114.171323"},{"id":"1E10D70B8D3AC179","name":"太古廣場 (A1)","lat":"22.277987","long":"114.165221"},{"id":"C0667F887514F03F","name":"滙豐總行","lat":"22.280636","long":"114.159234"},{"id":"1D8A902219897402","name":"永吉街","lat":"22.285430","long":"114.154473"},{"id":"13E0A0449C73F4DE","name":"皇后街","lat":"22.288394","long":"114.147216"},{"id":"AD97EA183A25102C","name":"西區海底隧道 (B1)","lat":"22.304471","long":"114.158659"},{"id":"643D73028E9E8490","name":"大欖隧道 (B5)","lat":"22.420245","long":"114.063487"},{"id":"52241C2AEB38627B","name":"大欖隧道 (B2)","lat":"22.421143","long":"114.063778"},{"id":"14157BA5C06B0B6B","name":"形點 I","lat":"22.444403","long":"114.034469"},{"id":"AC935792C88AF135","name":"元朗又新街 (S5)","lat":"22.444300","long":"114.030811"},{"id":"43E5D3A445382F82","name":"元朗大棠路 (S8)","lat":"22.444344","long":"114.028219"},{"id":"DAFFF59B0718B464","name":"元朗（西）總站","lat":"22.445432","long":"114.024608"}],"routeId":"968","description":"正常班次"}]