[{"company":"ctb","route":"969B","routeType":null,"dir":"I","orig":"灣仔","dest":"天水圍市中心","stopList":[{"id":"002447","name":"盧押道, 軒尼詩道","lat":"22.277479362091","long":"114.17117721053"},{"id":"001140","name":"太古廣場, 金鐘道","lat":"22.278070732091","long":"114.16486695053"},{"id":"001053","name":"滙豐總行大廈, 德輔道中","lat":"22.280739462091","long":"114.15905007053"},{"id":"001034","name":"砵典乍街, 干諾道中","lat":"22.283587582091","long":"114.15730419053"},{"id":"001628","name":"西區海底隧道收費廣場","lat":"22.305020162091","long":"114.15920401053"},{"id":"001947","name":"天盛苑, 屏廈路","lat":"22.446910952091","long":"114.00287220053"},{"id":"002000","name":"天盛苑, 天耀路","lat":"22.449489822091","long":"114.00291812053"},{"id":"001999","name":"嘉湖山莊賞湖居, 天湖路","lat":"22.452590032091","long":"114.00237240053"},{"id":"002620","name":"嘉湖山莊景湖居, 天龍路","lat":"22.458826432091","long":"114.00516511053"},{"id":"001988","name":"嘉湖山莊麗湖居, 天葵路","lat":"22.460359002091","long":"114.00461987053"},{"id":"001997","name":"天頌苑, 天榮路","lat":"22.459884542091","long":"114.00021680053"},{"id":"002003","name":"天水圍市中心","lat":"22.458893972091","long":"114.00192243053"}],"routeId":"969B"},{"company":"ctb","route":"969B","routeType":null,"dir":"O","orig":"天水圍市中心","dest":"灣仔","stopList":[{"id":"003541","name":"天水圍站","lat":"22.446751862091","long":"114.00388501053"},{"id":"002002","name":"嘉湖山莊 (樂湖居)","lat":"22.451577952091","long":"114.00142385053"},{"id":"002001","name":"天耀邨耀民樓, 天耀路","lat":"22.449808912091","long":"114.00296780053"},{"id":"001946","name":"天盛苑, 屏廈路","lat":"22.446795952091","long":"114.00300851053"},{"id":"002003","name":"天水圍市中心","lat":"22.458893972091","long":"114.00192243053"},{"id":"001995","name":"嘉湖山莊 (翠湖居)","lat":"22.457850502091","long":"113.99913032053"},{"id":"002059","name":"天晴邨晴彩樓, 天華路","lat":"22.462215262091","long":"114.00287362053"},{"id":"001989","name":"嘉湖山莊美湖居, 天葵路","lat":"22.459617252091","long":"114.00542070053"},{"id":"002030","name":"嘉湖山莊景湖居, 天城路","lat":"22.457399692091","long":"114.00556500053"},{"id":"001629","name":"西區海底隧道收費廣場","lat":"22.304233652091","long":"114.15979682053"},{"id":"001027","name":"中環 (港澳碼頭)","lat":"22.288274152091","long":"114.15042248053"},{"id":"001046","name":"中環街市, 德輔道中","lat":"22.285207892091","long":"114.15517314053"},{"id":"001025","name":"皇后像廣場, 遮打道","lat":"22.281482342091","long":"114.16005494053"},{"id":"001137","name":"金鐘站, 金鐘道","lat":"22.278348592091","long":"114.16493918053"},{"id":"002427","name":"軍器廠街, 軒尼詩道","lat":"22.277848662091","long":"114.16894462053"},{"id":"002432","name":"菲林明道, 軒尼詩道","lat":"22.277753192091","long":"114.17369502053"}],"routeId":"969B"}]