[{"company":"ctb","route":"969N","routeType":null,"dir":"I","orig":"銅鑼灣 (摩頓台)","dest":"天水圍市中心","stopList":[],"routeId":"969N","description":"正常班次"},{"company":"ctb","route":"969N","routeType":null,"dir":"O","orig":"天水圍市中心","dest":"銅鑼灣 (摩頓台)","stopList":[{"id":"002003","name":"天水圍市中心","lat":"22.458893972091","long":"114.00192243053"},{"id":"002062","name":"天頌苑, 天華路","lat":"22.461874322091","long":"113.99991377053"},{"id":"002621","name":"天恩邨, 天瑞路","lat":"22.464563622091","long":"113.99733895053"},{"id":"002075","name":"天澤邨, 天瑞路","lat":"22.468084792091","long":"113.99914061053"},{"id":"002622","name":"香港濕地公園, 濕地公園路","lat":"22.469698272091","long":"114.00276472053"},{"id":"002667","name":"香港青年協會李兆基書院, 天葵路","lat":"22.462870402091","long":"114.00405298053"},{"id":"001989","name":"嘉湖山莊美湖居, 天葵路","lat":"22.459617252091","long":"114.00542070053"},{"id":"001996","name":"嘉湖山莊翠湖居, 天榮路","lat":"22.459509232091","long":"113.99984302053"},{"id":"001991","name":"天瑞邨, 天瑞路","lat":"22.456389052091","long":"113.99942977053"},{"id":"001992","name":"天水圍公園, 天瑞路","lat":"22.454526502091","long":"114.00295133053"},{"id":"001998","name":"天耀邨耀盛樓, 天湖路","lat":"22.452288962091","long":"114.00221005053"},{"id":"002001","name":"天耀邨耀民樓, 天耀路","lat":"22.449808912091","long":"114.00296780053"},{"id":"002153","name":"天祐苑, 天福路","lat":"22.450265462091","long":"114.00608368053"},{"id":"001973","name":"大欖隧道收費廣場","lat":"22.420811642091","long":"114.06438367053"},{"id":"001629","name":"西區海底隧道收費廣場","lat":"22.304233652091","long":"114.15979682053"},{"id":"001028","name":"港澳碼頭, 干諾道中","lat":"22.287714882091","long":"114.15133682053"},{"id":"001046","name":"中環街市, 德輔道中","lat":"22.285207892091","long":"114.15517314053"},{"id":"001047","name":"德忌利士街, 德輔道中","lat":"22.283301982091","long":"114.15683404053"},{"id":"001051","name":"皇后像廣場, 德輔道中","lat":"22.280748762091","long":"114.15964401053"},{"id":"001052","name":"遮打花園, 德輔道中","lat":"22.280108962091","long":"114.16064635053"},{"id":"001137","name":"金鐘站, 金鐘道","lat":"22.278348592091","long":"114.16493918053"},{"id":"002427","name":"軍器廠街, 軒尼詩道","lat":"22.277848662091","long":"114.16894462053"},{"id":"002432","name":"菲林明道, 軒尼詩道","lat":"22.277753192091","long":"114.17369502053"},{"id":"002435","name":"杜老誌道, 軒尼詩道","lat":"22.278720922091","long":"114.17909682053"},{"id":"002437","name":"灣仔消防局, 軒尼詩道","lat":"22.279686862091","long":"114.18178779053"},{"id":"002574","name":"百德新街, 怡和街","lat":"22.279778702091","long":"114.18607065053"},{"id":"002535","name":"聖保祿醫院, 銅鑼灣道","lat":"22.278919992091","long":"114.18806171053"},{"id":"002536","name":"銅鑼灣 (摩頓台)","lat":"22.278739572091","long":"114.18998843053"}],"routeId":"969N","description":"正常班次"}]