[{"company":"CTB","route":"969X","routeType":null,"dir":"I","orig":"銅鑼灣 (經天水圍南)","dest":"天水圍市中心","stopList":[],"routeId":"969X"},{"company":"CTB","route":"969X","routeType":null,"dir":"O","orig":"天水圍市中心","dest":"銅鑼灣 (經天水圍南)","stopList":[{"id":"002003","name":"天水圍市中心","lat":"22.458893972091","long":"114.00192243053"},{"id":"002062","name":"天頌苑, 天華路","lat":"22.461874322091","long":"113.99991377053"},{"id":"002063","name":"天頌苑, 天瑞路","lat":"22.460368862091","long":"113.99721464053"},{"id":"001991","name":"天瑞邨, 天瑞路","lat":"22.456389052091","long":"113.99942977053"},{"id":"001992","name":"天水圍公園, 天瑞路","lat":"22.454526502091","long":"114.00295133053"},{"id":"001998","name":"天耀邨耀盛樓, 天湖路","lat":"22.452288962091","long":"114.00221005053"},{"id":"002001","name":"天耀邨耀民樓, 天耀路","lat":"22.449808912091","long":"114.00296780053"},{"id":"001946","name":"天盛苑, 屏廈路","lat":"22.446795952091","long":"114.00300851053"},{"id":"001629","name":"西區海底隧道收費廣場","lat":"22.304233652091","long":"114.15979682053"},{"id":"002423","name":"入境事務大樓, 告士打道","lat":"22.279435952091","long":"114.17270317053"},{"id":"002568","name":"百德新街, 告士打道","lat":"22.282502402091","long":"114.18503389053"},{"id":"002475","name":"利舞臺廣場, 波斯富街","lat":"22.278848092091","long":"114.18319116053"},{"id":"002458","name":"紀利華木球會, 禮頓道","lat":"22.276970692091","long":"114.18220985053"}],"routeId":"969X"}]