[{"company":"nwfb","route":"971R","routeType":null,"dir":"I","orig":"旺角","dest":"數碼港 (經域多利道)","stopList":[],"routeId":"971R","description":"正常班次"},{"company":"nwfb","route":"971R","routeType":null,"dir":"O","orig":"數碼港 (經域多利道)","dest":"旺角","stopList":[{"id":"002392","name":"數碼港","lat":"22.261985192091","long":"114.13067185053"},{"id":"002393","name":"數碼港三座, 數碼港道","lat":"22.259657562091","long":"114.13261742053"},{"id":"002394","name":"貝沙灣, 數碼港道","lat":"22.256625312091","long":"114.13276861053"},{"id":"002697","name":"貝沙灣南灣, 數碼港道","lat":"22.255283702091","long":"114.13365031053"},{"id":"002332","name":"美景臺, 域多利道","lat":"22.270355812091","long":"114.12545522053"},{"id":"002331","name":"香港華人基督教聯會薄扶林道墳場, 域多利道","lat":"22.271322722091","long":"114.12693412053"},{"id":"002395","name":"大口環道, 域多利道","lat":"22.272764882091","long":"114.12750132053"},{"id":"002306","name":"西島中學, 域多利道","lat":"22.272834062091","long":"114.12532081053"},{"id":"001162","name":"西寧街, 域多利道","lat":"22.281730232091","long":"114.12264206053"},{"id":"001163","name":"西市街, 域多利道","lat":"22.282182852091","long":"114.12521679053"},{"id":"001628","name":"西區海底隧道收費廣場","lat":"22.305020162091","long":"114.15920401053"},{"id":"002862","name":"柯士甸站, 佐敦道","lat":"22.306182772091","long":"114.16629719053"},{"id":"001483","name":"上海街, 佐敦道","lat":"22.305642122091","long":"114.16884751053"},{"id":"001546","name":"南京街, 彌敦道","lat":"22.306137342091","long":"114.17144709053"},{"id":"001547","name":"眾坊街, 彌敦道","lat":"22.310731692091","long":"114.17098889053"},{"id":"001548","name":"登打士街, 彌敦道","lat":"22.314815892091","long":"114.17018718053"},{"id":"001552","name":"山東街, 彌敦道","lat":"22.316744762091","long":"114.16978326053"},{"id":"001554","name":"弼街, 彌敦道","lat":"22.321742152091","long":"114.16875665053"},{"id":"003133","name":"弼街, 上海街","lat":"22.322239802091","long":"114.16751251053"},{"id":"001775","name":"旺角中心, 彌敦道","lat":"22.319921942091","long":"114.16931542053"},{"id":"001559","name":"銀行中心, 彌敦道","lat":"22.318424162091","long":"114.16962058053"},{"id":"001562","name":"登打士街, 彌敦道","lat":"22.314748642091","long":"114.17037382053"},{"id":"001564","name":"文明里, 彌敦道","lat":"22.312210192091","long":"114.17088450053"},{"id":"001567","name":"彌敦酒店, 彌敦道","lat":"22.307183152091","long":"114.17152353053"},{"id":"002811","name":"白加士街, 佐敦道","lat":"22.305164142091","long":"114.17031406053"},{"id":"001482","name":"炮台街, 佐敦道","lat":"22.305531742091","long":"114.16858691053"},{"id":"001586","name":"柯士甸站, 佐敦道","lat":"22.306171312091","long":"114.16463931053"},{"id":"001629","name":"西區海底隧道收費廣場","lat":"22.304233652091","long":"114.15979682053"},{"id":"001004","name":"北街, 卑路乍街","lat":"22.282646942091","long":"114.12866820053"},{"id":"001164","name":"加惠民道, 域多利道","lat":"22.282072692091","long":"114.12493465053"},{"id":"001165","name":"西寧閣, 域多利道","lat":"22.281063612091","long":"114.12080737053"},{"id":"002309","name":"西島中學, 域多利道","lat":"22.273204742091","long":"114.12627389053"},{"id":"002310","name":"香港華人基督教聯會薄扶林道墳場, 域多利道","lat":"22.272365942091","long":"114.12777663053"},{"id":"002327","name":"美景臺, 域多利道","lat":"22.270093092091","long":"114.12552732053"},{"id":"002696","name":"貝沙灣南灣, 數碼港道","lat":"22.255717912091","long":"114.13371182053"},{"id":"002391","name":"貝沙灣, 數碼港道","lat":"22.258219982091","long":"114.13291952053"}],"routeId":"971R","description":"正常班次"}]