[{"company":"kmb","route":"98C","routeType":"1","dir":"O","orig":"坑口(北)(將軍澳醫院)","dest":"美孚","stopList":[{"id":"8E246EE4AB82C670","name":"坑口(北) (將軍澳醫院)","lat":"22.317914","long":"114.269270"},{"id":"92672FB7B8F1C0B1","name":"重華路","lat":"22.317032","long":"114.265837"},{"id":"AF36CBF039B7CB03","name":"培成路","lat":"22.315229","long":"114.263958"},{"id":"44A2D3DCAB8DD9BE","name":"厚德邨","lat":"22.319124","long":"114.264454"},{"id":"1078119989C67B82","name":"景林邨","lat":"22.322301","long":"114.260993"},{"id":"9DC52818C41A2A1B","name":"欣明苑","lat":"22.324838","long":"114.259098"},{"id":"B8B58730D4D7304A","name":"英明苑","lat":"22.326998","long":"114.255803"},{"id":"D8CEF4232A0B7E4D","name":"寶仁樓","lat":"22.326280","long":"114.252245"},{"id":"5F1FC8AAD0B020D7","name":"翠林邨","lat":"22.321609","long":"114.250331"},{"id":"4A84482F3A54E4CC","name":"康盛花園","lat":"22.318080","long":"114.254298"},{"id":"70A7D4C9EDA6D50A","name":"馬游塘村","lat":"22.320282","long":"114.244503"},{"id":"AE0DC8745DFCA0FA","name":"寶達邨","lat":"22.318255","long":"114.237469"},{"id":"824D0847BAAD9128","name":"秀暉樓","lat":"22.316879","long":"114.235972"},{"id":"4D9419874306D82F","name":"采頤花園","lat":"22.334909","long":"114.201967"},{"id":"D625B0997C3DBCFE","name":"譽．港灣","lat":"22.332000","long":"114.196917"},{"id":"E9468D2AE13C3F39","name":"富豪東方酒店","lat":"22.327473","long":"114.191106"},{"id":"EC45A4372B661DDE","name":"亞皆老街球場","lat":"22.326589","long":"114.188776"},{"id":"D7EDDEA5A942843B","name":"九龍城警署","lat":"22.324574","long":"114.185031"},{"id":"A7F679945ED1DB31","name":"雅麗居","lat":"22.323148","long":"114.182050"},{"id":"88DF3B36087267EB","name":"九龍醫院","lat":"22.321766","long":"114.179182"},{"id":"8C44D48B9BAAB774","name":"怡安閣","lat":"22.320458","long":"114.176111"},{"id":"300D1812E3A085C3","name":"太平道","lat":"22.319953","long":"114.173591"},{"id":"A5C65B0A68257CF1","name":"旺角站","lat":"22.319436","long":"114.170734"},{"id":"99256D08CF861BA5","name":"旺角弼街 (N71)","lat":"22.321592","long":"114.168744"},{"id":"D0A763AFCDE36124","name":"太子站 (N75)","lat":"22.325490","long":"114.167954"},{"id":"E6ED785726AED4AE","name":"深水埗楓樹街","lat":"22.327562","long":"114.166148"},{"id":"15FCDE0753176016","name":"深水埗北河街","lat":"22.330543","long":"114.162338"},{"id":"098AF67CBBB9FBA9","name":"怡閣苑","lat":"22.333466","long":"114.158514"},{"id":"04FC6E130D4953F4","name":"長沙灣遊樂場","lat":"22.335618","long":"114.155787"},{"id":"EEBBD352B7F16E3F","name":"長沙灣徑","lat":"22.338147","long":"114.151104"},{"id":"6762DEA1B89E6354","name":"長沙灣長荔街","lat":"22.336786","long":"114.147023"},{"id":"CBB9FC4A0C13979B","name":"美孚巴士總站 (T1)","lat":"22.337284","long":"114.139940"}],"routeId":"98C","description":"正常班次"},{"company":"kmb","route":"98C","routeType":"1","dir":"I","orig":"美孚","dest":"坑口(北)(將軍澳醫院)","stopList":[{"id":"CBB9FC4A0C13979B","name":"美孚巴士總站 (T1)","lat":"22.337284","long":"114.139940"},{"id":"F01F8CF411A34AA7","name":"荔枝角站","lat":"22.337559","long":"114.148620"},{"id":"A6013462EAC8AA50","name":"長沙灣光昌街","lat":"22.338442","long":"114.151193"},{"id":"2035C91B61C6DFC0","name":"長沙灣興華街","lat":"22.337928","long":"114.153199"},{"id":"AAB25066B96C6588","name":"元州邨","lat":"22.335706","long":"114.156039"},{"id":"789384E5DC5AF7A9","name":"深水埗九江街","lat":"22.332801","long":"114.159824"},{"id":"0F4D809AED62F6E9","name":"深水埗欽州街","lat":"22.331237","long":"114.161858"},{"id":"833DE523F16B97C3","name":"深水埗黃竹街","lat":"22.328895","long":"114.164877"},{"id":"A70DCB46EC98F43E","name":"太子站 (S4)","lat":"22.325459","long":"114.168234"},{"id":"7B98BAE3D93817AC","name":"旺角水渠道 (S9)","lat":"22.323419","long":"114.168639"},{"id":"F3540B3A1B36BBF5","name":"旺角道","lat":"22.321064","long":"114.169766"},{"id":"D01D18C6EB79F84B","name":"嘉道理道","lat":"22.320407","long":"114.174387"},{"id":"A72D15160CC3AF31","name":"亞皆老街中電","lat":"22.320532","long":"114.175816"},{"id":"83CAC07FF3CA1BDA","name":"九龍醫院","lat":"22.322695","long":"114.180355"},{"id":"B0DDF2CD704116C8","name":"醫院管理局","lat":"22.323790","long":"114.182797"},{"id":"6C1DEF32B8CB92C4","name":"香港眼科醫院","lat":"22.324908","long":"114.184866"},{"id":"6965D1D655C2DD5F","name":"亞皆老街球場","lat":"22.327009","long":"114.188955"},{"id":"20A7DAD5A8294964","name":"富豪東方酒店","lat":"22.329212","long":"114.192610"},{"id":"A0EFE3E68568F194","name":"譽．港灣","lat":"22.333136","long":"114.196760"},{"id":"62F395D60229C8F5","name":"秀茂坪曉光街","lat":"22.315423","long":"114.237232"},{"id":"1FBAAE29AF1CA50E","name":"秀暉樓","lat":"22.316851","long":"114.235856"},{"id":"03C3F537C41E4986","name":"寶達邨","lat":"22.318565","long":"114.236118"},{"id":"2FFC93C766E566B5","name":"安達臣道","lat":"22.320918","long":"114.243930"},{"id":"F5A61D37E2DDA9D8","name":"馬游塘村","lat":"22.319505","long":"114.245650"},{"id":"31079A9B244C679B","name":"茅湖仔","lat":"22.317495","long":"114.252038"},{"id":"ABC15E2110BF7A49","name":"康盛花園","lat":"22.319847","long":"114.254072"},{"id":"BC66863007C0592B","name":"翠林邨","lat":"22.323025","long":"114.250283"},{"id":"848CA90EB0DB1146","name":"寶林消防局","lat":"22.326540","long":"114.252091"},{"id":"7486D53F341F1AAC","name":"英明苑","lat":"22.327247","long":"114.256144"},{"id":"FC42DCBDC3AB0B6F","name":"欣景路","lat":"22.323790","long":"114.258615"},{"id":"22E2678081E88368","name":"景林邨","lat":"22.322301","long":"114.261306"},{"id":"7613538D58A9C452","name":"厚德邨","lat":"22.319436","long":"114.264290"},{"id":"336FF66D1F0AC4A0","name":"重華路","lat":"22.316993","long":"114.265883"},{"id":"7E035AF141396291","name":"培成路","lat":"22.315282","long":"114.263897"},{"id":"99A3DFDBDF41F0E9","name":"富寧花園","lat":"22.318567","long":"114.267833"},{"id":"8E246EE4AB82C670","name":"坑口(北) (將軍澳醫院)","lat":"22.317914","long":"114.269270"}],"routeId":"98C","description":"正常班次"}]