[{"company":"kmb","route":"99","routeType":"1","dir":"O","orig":"恆安","dest":"西貢","stopList":[{"id":"B94A85EF9F1C8E92","name":"恆安巴士總站","lat":"22.418177","long":"114.228621"},{"id":"857F6F958A96DCDB","name":"曾璧山中學","lat":"22.421785","long":"114.228481"},{"id":"3A450B5AD5AF1605","name":"海栢花園","lat":"22.425043","long":"114.231566"},{"id":"0E2175C0750054FE","name":"雅典居","lat":"22.426028","long":"114.236373"},{"id":"A90443FD0C19C4B1","name":"利安邨","lat":"22.427627","long":"114.240415"},{"id":"0CB1F7979192FBB2","name":"烏溪沙站","lat":"22.428373","long":"114.243567"},{"id":"2C5CA5F47FB6EB3F","name":"樟木頭帝琴灣","lat":"22.430218","long":"114.250966"},{"id":"6B775855F6FB16D9","name":"泥涌","lat":"22.430570","long":"114.254690"},{"id":"40C9465E380F04C5","name":"輋下","lat":"22.428922","long":"114.260638"},{"id":"C67E139743E66D71","name":"馬牯纜","lat":"22.426474","long":"114.262301"},{"id":"704C764F674E500D","name":"大洞","lat":"22.424209","long":"114.263530"},{"id":"58BC7AA90028AAD9","name":"瓦窰頭","lat":"22.419933","long":"114.266125"},{"id":"8249FC875132E1FA","name":"西徑","lat":"22.417026","long":"114.266221"},{"id":"92680F8CE20F8FDB","name":"企嶺下新圍","lat":"22.414414","long":"114.270431"},{"id":"46E8837F566582D2","name":"企嶺下老圍","lat":"22.408316","long":"114.274217"},{"id":"94BA9F1C0A85C1B3","name":"水浪窩","lat":"22.405654","long":"114.276292"},{"id":"16A08A7452834C0F","name":"澳頭","lat":"22.401062","long":"114.282267"},{"id":"888D5E0DD7261BB3","name":"黃竹灣","lat":"22.397977","long":"114.284001"},{"id":"C7548A3C37ADC1AA","name":"麥邊","lat":"22.395480","long":"114.283453"},{"id":"7BA7AF0DB4924B4E","name":"大環","lat":"22.393584","long":"114.277395"},{"id":"A8526F930120F94A","name":"木棉山","lat":"22.388571","long":"114.273283"},{"id":"D4D5DDEE7B735D83","name":"沙角尾","lat":"22.386922","long":"114.271689"},{"id":"23B5C67999C778E0","name":"西貢警署","lat":"22.383127","long":"114.272113"},{"id":"378A8EA13D10FB05","name":"西貢總站","lat":"22.382044","long":"114.273822"}],"routeId":"99","description":"正常班次"},{"company":"kmb","route":"99","routeType":"1","dir":"I","orig":"西貢","dest":"恆安","stopList":[{"id":"378A8EA13D10FB05","name":"西貢總站","lat":"22.382044","long":"114.273822"},{"id":"F85F7F6FEB0812B5","name":"沙角尾","lat":"22.386630","long":"114.271450"},{"id":"819825E8F8264727","name":"木棉山","lat":"22.388650","long":"114.273304"},{"id":"499689237498878B","name":"大環","lat":"22.394707","long":"114.277805"},{"id":"B2F4485FA517FEED","name":"麥邊","lat":"22.395667","long":"114.283511"},{"id":"3EC8AF0246E94A09","name":"黃竹灣","lat":"22.397861","long":"114.283825"},{"id":"48CD670CA33290B3","name":"澳頭","lat":"22.401432","long":"114.282152"},{"id":"326A0C5D99374762","name":"澳頭新村","lat":"22.404202","long":"114.281005"},{"id":"773C9D3BB95AACC6","name":"水浪窩","lat":"22.405900","long":"114.275865"},{"id":"6BA43C06A9AD502A","name":"企嶺下老圍","lat":"22.408666","long":"114.273943"},{"id":"742EB6200E03493B","name":"企嶺下新圍","lat":"22.414413","long":"114.269962"},{"id":"B2A9D7F90A56F6EA","name":"西徑","lat":"22.417609","long":"114.266135"},{"id":"273C1BD825293576","name":"瓦窰頭","lat":"22.420896","long":"114.266104"},{"id":"79B88295548184C1","name":"田寮","lat":"22.424789","long":"114.263067"},{"id":"9CEC1F1000AFE806","name":"輋下","lat":"22.428026","long":"114.261156"},{"id":"5D86C919F15C0611","name":"西澳","lat":"22.430471","long":"114.254474"},{"id":"F63D25B428F1C1D9","name":"樟木頭帝琴灣","lat":"22.430095","long":"114.251168"},{"id":"91CD1740B6AC752B","name":"烏溪沙站","lat":"22.428333","long":"114.243275"},{"id":"8337F935242C5CC3","name":"利安邨","lat":"22.427459","long":"114.240591"},{"id":"013F884CBCB1CBE4","name":"富寶花園","lat":"22.425459","long":"114.235563"},{"id":"7E2611CD03F9450A","name":"馬鞍山市中心","lat":"22.424602","long":"114.231779"},{"id":"D96A94B0ED4E873A","name":"曾璧山中學","lat":"22.421873","long":"114.228903"},{"id":"53451B51DC815C50","name":"耀安邨","lat":"22.421150","long":"114.229615"},{"id":"7A550F91E3171941","name":"恆安巴士總站","lat":"22.417949","long":"114.228322"},{"id":"B94A85EF9F1C8E92","name":"恆安巴士總站","lat":"22.418177","long":"114.228621"}],"routeId":"99","description":"正常班次"},{"company":"ctb","route":"99","routeType":null,"dir":"I","orig":"筲箕灣","dest":"海怡半島","stopList":[{"id":"001207","name":"筲箕灣","lat":"22.278421122091","long":"114.22833128053"},{"id":"002782","name":"海灣華庭, 筲箕灣道","lat":"22.277932192091","long":"114.22670333053"},{"id":"001301","name":"新成街, 筲箕灣道","lat":"22.278724872091","long":"114.22622512053"},{"id":"001356","name":"筲箕灣廣場, 耀興道","lat":"22.277141762091","long":"114.22622565053"},{"id":"001357","name":"東盛苑, 耀興道","lat":"22.276099342091","long":"114.22651147053"},{"id":"001358","name":"耀東商場, 耀興道","lat":"22.277461762091","long":"114.22336773053"},{"id":"001359","name":"耀東邨耀華樓, 耀興道","lat":"22.278960842091","long":"114.22017321053"},{"id":"001360","name":"東熹苑景熹閣, 耀興道","lat":"22.280371792091","long":"114.21789080053"},{"id":"001361","name":"興東邨, 耀興道","lat":"22.280801702091","long":"114.21958441053"},{"id":"001375","name":"太寧街, 惠亨街","lat":"22.281800712091","long":"114.22049840053"},{"id":"001313","name":"太康樓, 太康街","lat":"22.283340892091","long":"114.22177946053"},{"id":"001293","name":"鯉景灣, 鯉景道","lat":"22.284069312091","long":"114.22354484053"},{"id":"001315","name":"港島民生書院, 太安街","lat":"22.283046192091","long":"114.22329985053"},{"id":"001304","name":"太祥街, 筲箕灣道","lat":"22.283579282091","long":"114.22061919053"},{"id":"001288","name":"康怡廣場, 康山道","lat":"22.284499762091","long":"114.21671745053"},{"id":"001271","name":"寶峰園, 英皇道","lat":"22.284594642091","long":"114.21416959053"},{"id":"001272","name":"鰂魚涌街, 英皇道","lat":"22.284722942091","long":"114.21210328053"},{"id":"001273","name":"太古坊, 英皇道","lat":"22.286667942091","long":"114.21039739053"},{"id":"001274","name":"民新街, 英皇道","lat":"22.289926312091","long":"114.20930325053"},{"id":"001275","name":"模範邨, 英皇道","lat":"22.291544482091","long":"114.20766679053"},{"id":"001276","name":"健康村, 英皇道","lat":"22.291912702091","long":"114.20634072053"},{"id":"001277","name":"健威花園, 英皇道","lat":"22.291810122091","long":"114.20389006053"},{"id":"001279","name":"琴行街, 英皇道","lat":"22.291204122091","long":"114.20095851053"},{"id":"001281","name":"美麗閣, 英皇道","lat":"22.290567652091","long":"114.19788360053"},{"id":"001282","name":"新時代廣場, 英皇道","lat":"22.289909792091","long":"114.19515688053"},{"id":"001285","name":"清風街天橋, 英皇道","lat":"22.286174722091","long":"114.19303544053"},{"id":"002414","name":"景隆街, 告士打道","lat":"22.281732142091","long":"114.18280892053"},{"id":"002348","name":"香港仔隧道收費廣場","lat":"22.249770482091","long":"114.17533612053"},{"id":"002355","name":"黃竹坑遊樂場, 黃竹坑道","lat":"22.250122902091","long":"114.16985106053"},{"id":"002356","name":"業興街, 黃竹坑道","lat":"22.249175622091","long":"114.16779618053"},{"id":"002358","name":"勝利工廠大廈, 黃竹坑道","lat":"22.248392422091","long":"114.16314899053"},{"id":"002213","name":"香港真光書院, 利東邨道","lat":"22.241680522091","long":"114.15792123053"},{"id":"002210","name":"利東邨東興樓, 利東邨道","lat":"22.240572052091","long":"114.15491479053"},{"id":"002211","name":"利東街市, 利東邨道","lat":"22.241479512091","long":"114.15483183053"},{"id":"002167","name":"鴨脷洲徑, 鴨脷洲橋道","lat":"22.243437112091","long":"114.15652985053"},{"id":"002168","name":"利枝道, 鴨脷洲橋道","lat":"22.243012942091","long":"114.15500259053"},{"id":"002169","name":"御庭園, 鴨脷洲橋道","lat":"22.244095462091","long":"114.14969945053"},{"id":"002936","name":"海怡半島怡韻閣, 海怡路","lat":"22.243391432091","long":"114.14632115053"},{"id":"002263","name":"海怡半島海韻閣, 海怡路","lat":"22.244439312091","long":"114.14732855053"},{"id":"002364","name":"海怡半島","lat":"22.242733542091","long":"114.14933054053"}],"routeId":"99","description":"正常班次"},{"company":"ctb","route":"99","routeType":null,"dir":"O","orig":"海怡半島","dest":"筲箕灣","stopList":[{"id":"002364","name":"海怡半島","lat":"22.242733542091","long":"114.14933054053"},{"id":"002262","name":"海怡半島美暉閣, 海怡路","lat":"22.243157002091","long":"114.14715151053"},{"id":"002263","name":"海怡半島海韻閣, 海怡路","lat":"22.244439312091","long":"114.14732855053"},{"id":"002170","name":"鴨脷洲邨利澤樓, 鴨脷洲橋道","lat":"22.244216852091","long":"114.14986319053"},{"id":"002172","name":"利枝道, 鴨脷洲橋道","lat":"22.243305822091","long":"114.15525315053"},{"id":"002173","name":"鴨脷洲徑, 鴨脷洲橋道","lat":"22.243626692091","long":"114.15653776053"},{"id":"002210","name":"利東邨東興樓, 利東邨道","lat":"22.240572052091","long":"114.15491479053"},{"id":"002211","name":"利東街市, 利東邨道","lat":"22.241479512091","long":"114.15483183053"},{"id":"002212","name":"漁安苑, 利東邨道","lat":"22.243031932091","long":"114.15782740053"},{"id":"002344","name":"甄沾記大廈, 黃竹坑道","lat":"22.248523252091","long":"114.16362493053"},{"id":"002383","name":"業興街, 黃竹坑道","lat":"22.249540662091","long":"114.16811154053"},{"id":"002345","name":"黃竹坑遊樂場, 黃竹坑道","lat":"22.250546142091","long":"114.17056977053"},{"id":"002347","name":"香港仔隧道收費廣場","lat":"22.249960892091","long":"114.17585543053"},{"id":"001335","name":"銅鑼灣避風塘, 維園道","lat":"22.284074312091","long":"114.18628546053"},{"id":"001374","name":"永興街","lat":"22.285345432091","long":"114.19236143053"},{"id":"001260","name":"七海商業中心, 英皇道","lat":"22.287742812091","long":"114.19296558053"},{"id":"001261","name":"電廠街, 英皇道","lat":"22.290056622091","long":"114.19505769053"},{"id":"001262","name":"糖水道, 英皇道","lat":"22.290808072091","long":"114.19810570053"},{"id":"001373","name":"琴行街, 英皇道","lat":"22.291435122091","long":"114.20118525053"},{"id":"001264","name":"港運城, 英皇道","lat":"22.291703622091","long":"114.20248986053"},{"id":"001265","name":"健康村, 英皇道","lat":"22.292089592091","long":"114.20652344053"},{"id":"002677","name":"模範邨, 英皇道","lat":"22.291670382091","long":"114.20785144053"},{"id":"001267","name":"北角官立小學, 英皇道","lat":"22.288825782091","long":"114.20986716053"},{"id":"001268","name":"新威園, 英皇道","lat":"22.285544382091","long":"114.21133814053"},{"id":"001269","name":"惠安苑, 英皇道","lat":"22.284763112091","long":"114.21319278053"},{"id":"001270","name":"太古城中心, 英皇道","lat":"22.285287892091","long":"114.21758355053"},{"id":"001313","name":"太康樓, 太康街","lat":"22.283340892091","long":"114.22177946053"},{"id":"001315","name":"港島民生書院, 太安街","lat":"22.283046192091","long":"114.22329985053"},{"id":"001316","name":"西灣河站, 太安街","lat":"22.282354632091","long":"114.22239868053"},{"id":"001376","name":"東欣苑, 耀興道","lat":"22.280708762091","long":"114.22082397053"},{"id":"001350","name":"東熹苑, 耀興道","lat":"22.280367472091","long":"114.21968477053"},{"id":"001351","name":"東熹苑逸熹閣, 耀興道","lat":"22.279405242091","long":"114.21832255053"},{"id":"001352","name":"耀東邨耀華樓, 耀興道","lat":"22.279321902091","long":"114.22110893053"},{"id":"002676","name":"耀東邨","lat":"22.277949642091","long":"114.22288024053"},{"id":"001353","name":"耀東邨耀興樓, 耀興道","lat":"22.276338372091","long":"114.22430241053"},{"id":"001354","name":"耀東邨耀貴樓, 耀興道","lat":"22.275634332091","long":"114.22574088053"},{"id":"001355","name":"筲箕灣廣場, 耀興道","lat":"22.277483002091","long":"114.22594223053"},{"id":"001299","name":"南安里, 筲箕灣道","lat":"22.277849882091","long":"114.22690650053"},{"id":"001207","name":"筲箕灣","lat":"22.278421122091","long":"114.22833128053"}],"routeId":"99","description":"正常班次"},{"company":"gmb","route":"99","routeType":1,"orig":"海貴路公共運輸交匯處","dest":"海濱花園","stopList":[{"id":20015279,"name":"海貴路公共運輸交匯處","lat":22.368312831806037,"long":114.11067187786104},{"id":20014853,"name":"楊屋道楊屋道市政大廈外","lat":22.368674735499994,"long":114.1146743658598},{"id":20015277,"name":"馬頭壩道爵悅庭外","lat":22.366665842706336,"long":114.11539793014528},{"id":20012736,"name":"永順街荃灣公園對面","lat":22.365799455086844,"long":114.11383453756574},{"id":20012315,"name":"永順街海灣花園外","lat":22.364175478816264,"long":114.11353647708894},{"id":20015280,"name":"海濱花園","lat":22.362925319196762,"long":114.11429554224016}],"routeId":2007266,"description":"正常班次"},{"company":"gmb","route":"99","routeType":2,"orig":"海濱花園","dest":"海貴路公共運輸交匯處","stopList":[{"id":20015280,"name":"海濱花園","lat":22.362925319196762,"long":114.11429554224016},{"id":20015281,"name":"永順街海灣花園對面","lat":22.364031611812447,"long":114.11341845989229},{"id":20013529,"name":"永順街荃灣公園外 ","lat":22.36592033865276,"long":114.11372825503352},{"id":20015282,"name":"楊屋道荃新天地二期外","lat":22.368536066781083,"long":114.1142123937607},{"id":20015279,"name":"海貴路公共運輸交匯處","lat":22.368312831806037,"long":114.11067187786104}],"routeId":2007266,"description":"正常班次"}]