[{"company":"ctb","route":"A23","routeType":null,"dir":"I","orig":"機場 (經港珠澳大橋香港口岸)","dest":"慈雲山 (北)","stopList":[{"id":"001837","name":"機場 (地面運輸中心)","lat":"22.314155382091","long":"113.93690708053"},{"id":"003540","name":"港珠澳大橋香港口岸","lat":"22.316366922091","long":"113.95088219053"},{"id":"001854","name":"青嶼幹線巴士轉乘站","lat":"22.339339292091","long":"114.04211697053"},{"id":"002862","name":"柯士甸站, 佐敦道","lat":"22.306182772091","long":"114.16629719053"},{"id":"001483","name":"上海街, 佐敦道","lat":"22.305642122091","long":"114.16884751053"},{"id":"001484","name":"志和街, 佐敦道","lat":"22.305855102091","long":"114.17250225053"},{"id":"001691","name":"衛理道, 加士居道","lat":"22.306771802091","long":"114.17585079053"},{"id":"001805","name":"機利士南路","lat":"22.307153962091","long":"114.18463828053"},{"id":"001806","name":"紅磡南道","lat":"22.305341232091","long":"114.18523770053"},{"id":"001807","name":"民泰街, 紅磡道","lat":"22.306396192091","long":"114.18927691053"},{"id":"001478","name":"紅磡邨, 紅磡道","lat":"22.307995742091","long":"114.19008253053"},{"id":"001397","name":"崇潔街, 庇利街","lat":"22.312225692091","long":"114.18895106053"},{"id":"002985","name":"石塘街, 馬頭圍道","lat":"22.314076192091","long":"114.18751886053"},{"id":"002986","name":"浙江街, 土瓜灣道","lat":"22.316112382091","long":"114.18932158053"},{"id":"003326","name":"上鄉道, 土瓜灣道","lat":"22.317352642091","long":"114.19050002053"},{"id":"003580","name":"美華工業中心, 土瓜灣道","lat":"22.318981002091","long":"114.19201691053"},{"id":"003369","name":"德朗邨, 承啟道","lat":"22.330536462091","long":"114.20469159053"},{"id":"003505","name":"沐虹街, 承啟道","lat":"22.332201092091","long":"114.20465053053"},{"id":"001452","name":"四美街, 彩虹道","lat":"22.338128872091","long":"114.20174977053"},{"id":"001709","name":"真鐸學校, 斧山道","lat":"22.339652462091","long":"114.20713892053"},{"id":"001710","name":"宏景花園, 蒲崗村道","lat":"22.342339532091","long":"114.20795619053"},{"id":"003033","name":"德愛中學, 慈雲山道","lat":"22.347603602091","long":"114.20413403053"},{"id":"001711","name":"慈民邨, 慈雲山道","lat":"22.348680882091","long":"114.20245965053"},{"id":"001712","name":"慈安苑, 惠華街","lat":"22.348715682091","long":"114.20121263053"},{"id":"001757","name":"慈雲山 (北)","lat":"22.351141972091","long":"114.19806638053"}],"routeId":"A23","description":"正常班次"},{"company":"ctb","route":"A23","routeType":null,"dir":"O","orig":"慈雲山 (北)","dest":"機場 (經港珠澳大橋香港口岸)","stopList":[{"id":"001757","name":"慈雲山 (北)","lat":"22.351141972091","long":"114.19806638053"},{"id":"003028","name":"慈雲山 (中)","lat":"22.348597652091","long":"114.20018681053"},{"id":"001702","name":"慈正邨正康樓, 慈雲山道","lat":"22.348658942091","long":"114.20301440053"},{"id":"001703","name":"德愛中學, 慈雲山道","lat":"22.347405502091","long":"114.20422544053"},{"id":"001704","name":"富山邨, 蒲崗村道","lat":"22.342419562091","long":"114.20805112053"},{"id":"001705","name":"斧山道運動場, 斧山道","lat":"22.339720692091","long":"114.20736776053"},{"id":"001699","name":"四美街, 彩虹道","lat":"22.337937222091","long":"114.20174654053"},{"id":"003370","name":"啟德 (啟晴邨)","lat":"22.331936732091","long":"114.20380015053"},{"id":"003537","name":"德朗邨, 承啟道","lat":"22.329424582091","long":"114.20487963053"},{"id":"001811","name":"翔龍灣, 土瓜灣道","lat":"22.319877362091","long":"114.19312049053"},{"id":"001813","name":"落山道, 土瓜灣道","lat":"22.317070972091","long":"114.19047281053"},{"id":"001600","name":"啟明街, 土瓜灣道","lat":"22.314264292091","long":"114.18781552053"},{"id":"003578","name":"環安街, 庇利街","lat":"22.312363222091","long":"114.18820913053"},{"id":"001808","name":"海逸豪園","lat":"22.307798872091","long":"114.19221990053"},{"id":"003579","name":"紅磡邨, 紅磡道","lat":"22.307557422091","long":"114.19020725053"},{"id":"001480","name":"九龍佑寧堂, 佐敦道","lat":"22.305712482091","long":"114.17260305053"},{"id":"001481","name":"吳松街, 佐敦道","lat":"22.305239392091","long":"114.16990756053"},{"id":"001482","name":"炮台街, 佐敦道","lat":"22.305531742091","long":"114.16858691053"},{"id":"001586","name":"柯士甸站, 佐敦道","lat":"22.306171312091","long":"114.16463931053"},{"id":"001853","name":"青嶼幹線巴士轉乘站","lat":"22.338232802091","long":"114.04196854053"},{"id":"003550","name":"港珠澳大橋旅檢大樓","lat":"22.317023822091","long":"113.95084021053"},{"id":"002714","name":"機場 (1 號客運大樓)","lat":"22.315439732091","long":"113.93622731053"},{"id":"001837","name":"機場 (地面運輸中心)","lat":"22.314155382091","long":"113.93690708053"}],"routeId":"A23","description":"正常班次"}]