[{"company":"CTB","route":"A29P","routeType":null,"dir":"I","orig":"機場","dest":"將軍澳站","stopList":[{"id":"001837","name":"機場 (地面運輸中心)","lat":"22.314155382091","long":"113.93690708053"},{"id":"002672","name":"機場博覽館, 航展路","lat":"22.319382992091","long":"113.94047324053"},{"id":"003304","name":"香港天際萬豪酒店, 航天城東路","lat":"22.317832912091","long":"113.94325716053"},{"id":"003482","name":"航天城交匯處, 航天城東路","lat":"22.317103272091","long":"113.94335744053"},{"id":"001854","name":"青嶼幹線巴士轉乘站","lat":"22.339339292091","long":"114.04211697053"},{"id":"001766","name":"畢架山花園, 龍翔道","lat":"22.341561202091","long":"114.16732372053"},{"id":"001523","name":"黃大仙站, 龍翔道","lat":"22.341815742091","long":"114.19217929053"},{"id":"001688","name":"沙田坳道, 龍翔道","lat":"22.341786682091","long":"114.19549949053"},{"id":"001696","name":"鑽石山站, 大磡道","lat":"22.339299962091","long":"114.20302525053"},{"id":"001697","name":"牛池灣村, 龍翔道","lat":"22.336768802091","long":"114.20701576053"},{"id":"001653","name":"牛池灣街市, 清水灣道","lat":"22.334264972091","long":"114.20935387053"},{"id":"001652","name":"彩雲邨白虹樓, 新清水灣道","lat":"22.332613332091","long":"114.21556010053"},{"id":"001780","name":"基順小學, 新清水灣道","lat":"22.332452392091","long":"114.22353468053"},{"id":"001743","name":"順利邨利康樓, 順清街","lat":"22.330657542091","long":"114.22576251053"},{"id":"001744","name":"順安邨安逸樓, 利安道","lat":"22.327285442091","long":"114.22676750053"},{"id":"001781","name":"秀茂坪邨秀樂樓, 秀明道","lat":"22.321295142091","long":"114.23088557053"},{"id":"001746","name":"秀茂坪商場, 秀明道","lat":"22.319147142091","long":"114.23144359053"},{"id":"001782","name":"秀茂坪邨秀明樓, 秀明道","lat":"22.315026212091","long":"114.23459637053"},{"id":"002703","name":"寶達邨, 寶琳路","lat":"22.318542972091","long":"114.23600282053"},{"id":"002705","name":"馬游塘村, 寶琳路","lat":"22.319565222091","long":"114.24561403053"},{"id":"001677","name":"康盛花園, 寶琳北路","lat":"22.319789002091","long":"114.25412188053"},{"id":"001678","name":"翠林邨, 寶琳北路","lat":"22.322747372091","long":"114.25016544053"},{"id":"003234","name":"富麗花園, 寶康路","lat":"22.322887942091","long":"114.25414805053"},{"id":"001823","name":"唐明街公園, 唐明街","lat":"22.310442242091","long":"114.25886195053"},{"id":"001763","name":"彩明苑彩富閣, 景嶺路","lat":"22.308146392091","long":"114.25317597053"},{"id":"001764","name":"調景嶺站, 景嶺路","lat":"22.305291742091","long":"114.25292725053"},{"id":"001824","name":"將軍澳中心, 寶邑路","lat":"22.306218742091","long":"114.25713001053"},{"id":"002918","name":"將軍澳站","lat":"22.308567362091","long":"114.26004574053"}],"routeId":"A29P"},{"company":"CTB","route":"A29P","routeType":null,"dir":"O","orig":"將軍澳站","dest":"機場","stopList":[{"id":"003329","name":"日出康城","lat":"22.295872872091","long":"114.26836001053"},{"id":"002919","name":"峻瀅, 環保大道","lat":"22.297406192091","long":"114.27252052053"},{"id":"002928","name":"日出康城領都, 環保大道","lat":"22.294212732091","long":"114.27339453053"},{"id":"002929","name":"日出康城首都, 環保大道","lat":"22.296755222091","long":"114.27266472053"},{"id":"002930","name":"百勝角, 環保大道","lat":"22.303469562091","long":"114.27138882053"},{"id":"002931","name":"清水灣半島","lat":"22.308858532091","long":"114.26646605053"},{"id":"001818","name":"寶盈花園, 寶邑路","lat":"22.307711102091","long":"114.26217901053"},{"id":"002918","name":"將軍澳站","lat":"22.308567362091","long":"114.26004574053"},{"id":"002917","name":"調景嶺站","lat":"22.304894682091","long":"114.25161911053"},{"id":"001728","name":"尚德邨尚智樓, 唐明街","lat":"22.311288322091","long":"114.26075763053"},{"id":"001684","name":"怡心園, 寶康路","lat":"22.323019892091","long":"114.25351646053"},{"id":"001675","name":"翠林邨, 寶琳北路","lat":"22.321397042091","long":"114.25026554053"},{"id":"002699","name":"康盛花園, 寶琳北路","lat":"22.318120232091","long":"114.25435204053"},{"id":"002700","name":"馬游塘村, 寶琳路","lat":"22.320301632091","long":"114.24448187053"},{"id":"002701","name":"寶達邨, 寶琳路","lat":"22.318232052091","long":"114.23766574053"},{"id":"001719","name":"秀茂坪邨秀明樓, 秀明道","lat":"22.315965132091","long":"114.23391033053"},{"id":"002702","name":"秀茂坪商場, 秀明道","lat":"22.319075912091","long":"114.23136657053"},{"id":"001663","name":"順天邨","lat":"22.326370052091","long":"114.22674623053"},{"id":"001787","name":"順利邨利業樓, 利安道","lat":"22.331876202091","long":"114.22579345053"},{"id":"001788","name":"順利消防局, 利安道","lat":"22.332063722091","long":"114.22266669053"},{"id":"001779","name":"彩雲邨白虹樓, 新清水灣道","lat":"22.332335452091","long":"114.21519595053"},{"id":"001654","name":"坪石邨","lat":"22.334128192091","long":"114.21002009053"},{"id":"001525","name":"彩虹邨丹鳳樓, 龍翔道","lat":"22.335290892091","long":"114.20761701053"},{"id":"001695","name":"鑽石山站, 龍翔道","lat":"22.339272392091","long":"114.20228739053"},{"id":"001690","name":"沙田坳道, 龍翔道","lat":"22.341586742091","long":"114.19546107053"},{"id":"001725","name":"畢架山花園, 龍翔道","lat":"22.341581972091","long":"114.16679537053"},{"id":"001853","name":"青嶼幹線巴士轉乘站","lat":"22.338232802091","long":"114.04196854053"},{"id":"001844","name":"國泰城, 觀景路","lat":"22.297636222091","long":"113.93331853053"},{"id":"002714","name":"機場 (1 號客運大樓)","lat":"22.315439732091","long":"113.93622731053"},{"id":"001837","name":"機場 (地面運輸中心)","lat":"22.314155382091","long":"113.93690708053"}],"routeId":"A29P"}]