[{"company":"CTB","route":"E21","routeType":null,"dir":"I","orig":"大角咀 (維港灣)","dest":"機場博覽館","stopList":[{"id":"002671","name":"機場博覽館","lat":"22.319487352091","long":"113.94058953053"},{"id":"001837","name":"機場 (地面運輸中心)","lat":"22.314155382091","long":"113.93690708053"},{"id":"001845","name":"國泰城, 駿明路","lat":"22.297630222091","long":"113.93286939053"},{"id":"001831","name":"機場警署, 航膳西路","lat":"22.301332102091","long":"113.93150811053"},{"id":"001872","name":"駿運南路, 駿運路","lat":"22.296307722091","long":"113.92828152053"},{"id":"001838","name":"機場空運中心, 駿運路","lat":"22.295103112091","long":"113.92453797053"},{"id":"001842","name":"亞洲空運中心, 駿坪路","lat":"22.295849412091","long":"113.92082136053"},{"id":"001862","name":"赤鱲角南路","lat":"22.291866272091","long":"113.92870664053"},{"id":"001875","name":"東涌發展碼頭","lat":"22.293753002091","long":"113.94056897053"},{"id":"001876","name":"海堤灣畔, 惠東路","lat":"22.292666082091","long":"113.94342698053"},{"id":"001878","name":"藍天海岸, 文東路","lat":"22.290875862091","long":"113.94592407053"},{"id":"001880","name":"映灣園二期, 文東路","lat":"22.291896912091","long":"113.95009960053"},{"id":"001882","name":"映灣園一期, 文東路","lat":"22.293375402091","long":"113.95181383053"},{"id":"003452","name":"昇薈, 迎東路","lat":"22.295825692091","long":"113.95194844053"},{"id":"003453","name":"迎東邨","lat":"22.297217432091","long":"113.95343539053"},{"id":"003443","name":"迎禧路","lat":"22.294402432091","long":"113.95045893053"},{"id":"001858","name":"東涌纜車站, 達東路","lat":"22.289058372091","long":"113.93864113053"},{"id":"001859","name":"富東廣場, 達東路","lat":"22.288890032091","long":"113.94202073053"},{"id":"001857","name":"裕東苑, 順東路","lat":"22.286236662091","long":"113.94127140053"},{"id":"001854","name":"青嶼幹線巴士轉乘站","lat":"22.339339292091","long":"114.04211697053"},{"id":"002004","name":"青華苑, 青衣西路","lat":"22.348649672091","long":"114.09689066053"},{"id":"002005","name":"長亨邨, 青衣西路","lat":"22.353983202091","long":"114.09901248053"},{"id":"002032","name":"葵涌交匯處, 葵涌道","lat":"22.339981592091","long":"114.13240166053"},{"id":"001435","name":"美孚, 長沙灣道","lat":"22.337474962091","long":"114.14038907053"},{"id":"001436","name":"荔枝角站, 長沙灣道","lat":"22.337482972091","long":"114.14837354053"},{"id":"001437","name":"昌華街, 長沙灣道","lat":"22.338601292091","long":"114.15198567053"},{"id":"001438","name":"長沙灣站, 長沙灣道","lat":"22.335872122091","long":"114.15580727053"},{"id":"001442","name":"怡閣苑, 長沙灣道","lat":"22.332844652091","long":"114.15969853053"},{"id":"001802","name":"欽州街, 長沙灣道","lat":"22.331232942091","long":"114.16177790053"},{"id":"001445","name":"深水埗站, 長沙灣道","lat":"22.330131342091","long":"114.16319624053"},{"id":"001446","name":"黃竹街, 長沙灣道","lat":"22.328880872091","long":"114.16481636053"},{"id":"001770","name":"旺角警署, 彌敦道","lat":"22.324568192091","long":"114.16836400053"},{"id":"002849","name":"西洋菜南街","lat":"22.320571512091","long":"114.16975671053"},{"id":"001396","name":"旺角街市, 亞皆老街","lat":"22.318800102091","long":"114.16693654053"},{"id":"001423","name":"銘基書院, 櫻桃街","lat":"22.318582002091","long":"114.16438793053"},{"id":"002878","name":"帝柏海灣, 櫻桃街","lat":"22.317851152091","long":"114.16189949053"},{"id":"003511","name":"奧運站, 深旺道","lat":"22.318440772091","long":"114.16036899053"},{"id":"003512","name":"君匯港, 深旺道","lat":"22.321902502091","long":"114.15970244053"},{"id":"001603","name":"維港灣","lat":"22.318871332091","long":"114.15882688053"}],"routeId":"E21"},{"company":"CTB","route":"E21","routeType":null,"dir":"O","orig":"大角咀 (維港灣)","dest":"機場博覽館","stopList":[{"id":"001603","name":"維港灣","lat":"22.318871332091","long":"114.15882688053"},{"id":"001777","name":"中匯街, 深旺道","lat":"22.322569492091","long":"114.15982485053"},{"id":"001692","name":"奧運站, 深旺道","lat":"22.318588122091","long":"114.16049646053"},{"id":"001595","name":"富貴街, 大角咀道","lat":"22.318698052091","long":"114.16193982053"},{"id":"001424","name":"銘基書院, 櫻桃街","lat":"22.318762592091","long":"114.16435069053"},{"id":"001585","name":"快富街, 新填地街","lat":"22.319756552091","long":"114.16747074053"},{"id":"001554","name":"弼街, 彌敦道","lat":"22.321742152091","long":"114.16875665053"},{"id":"001555","name":"太子站, 彌敦道","lat":"22.325582342091","long":"114.16796635053"},{"id":"001425","name":"楓樹街, 長沙灣道","lat":"22.327543332091","long":"114.16618789053"},{"id":"001427","name":"黃竹街, 長沙灣道","lat":"22.328596142091","long":"114.16483148053"},{"id":"001428","name":"北河街, 長沙灣道","lat":"22.329949092091","long":"114.16310554053"},{"id":"003303","name":"欽州街, 長沙灣道","lat":"22.331306142091","long":"114.16136141053"},{"id":"001430","name":"怡閣苑, 長沙灣道","lat":"22.333565102091","long":"114.15843488053"},{"id":"001431","name":"長沙灣遊樂場, 長沙灣道","lat":"22.335585632091","long":"114.15582069053"},{"id":"001432","name":"興華街, 長沙灣道","lat":"22.338282442091","long":"114.15226433053"},{"id":"001433","name":"長沙灣廣場, 長沙灣道","lat":"22.337286912091","long":"114.14845969053"},{"id":"001517","name":"美孚, 荔枝角道","lat":"22.336503572091","long":"114.14114285053"},{"id":"002033","name":"葵涌交匯處, 葵涌道","lat":"22.340814792091","long":"114.13155875053"},{"id":"002006","name":"長亨邨亨翠樓, 青衣西路","lat":"22.353272642091","long":"114.09885265053"},{"id":"002007","name":"青華苑, 青衣西路","lat":"22.347892622091","long":"114.09695969053"},{"id":"001853","name":"青嶼幹線巴士轉乘站","lat":"22.338232802091","long":"114.04196854053"},{"id":"001856","name":"東涌消防局, 順東路","lat":"22.286159532091","long":"113.94102948053"},{"id":"001855","name":"東堤灣畔, 順東路","lat":"22.287329312091","long":"113.93922233053"},{"id":"001864","name":"赤鱲角南路","lat":"22.291892082091","long":"113.92840376053"},{"id":"001839","name":"機場空運中心, 駿運路","lat":"22.294954752091","long":"113.92331355053"},{"id":"001863","name":"香港空運貨站, 駿運路","lat":"22.297087112091","long":"113.92984635053"},{"id":"001830","name":"空郵中心, 航膳西路","lat":"22.301900012091","long":"113.93105841053"},{"id":"001844","name":"國泰城, 觀景路","lat":"22.297636222091","long":"113.93331853053"},{"id":"002657","name":"國泰城 (東), 東岸路","lat":"22.298727102091","long":"113.93468702053"},{"id":"001832","name":"二號檢查閘, 暢連路","lat":"22.310769292091","long":"113.93645407053"},{"id":"001833","name":"一號客運大樓, 暢達路","lat":"22.313054432091","long":"113.93705021053"},{"id":"001834","name":"暢達路","lat":"22.316924932091","long":"113.93566252053"},{"id":"001836","name":"富豪機場酒店,  暢達路","lat":"22.319353342091","long":"113.93396777053"},{"id":"002671","name":"機場博覽館","lat":"22.319487352091","long":"113.94058953053"}],"routeId":"E21"}]