[{"company":"ctb","route":"E22","routeType":null,"dir":"I","orig":"機場博覽館","dest":"藍田 (平田街)","stopList":[{"id":"002671","name":"機場博覽館","lat":"22.319487352091","long":"113.94058953053"},{"id":"001837","name":"機場 (地面運輸中心)","lat":"22.314155382091","long":"113.93690708053"},{"id":"001845","name":"國泰城, 駿明路","lat":"22.297630222091","long":"113.93286939053"},{"id":"001866","name":"赤鱲角消防局, 航膳東路","lat":"22.300214432091","long":"113.93321379053"},{"id":"001867","name":"國泰空廚, 航膳東路","lat":"22.301812632091","long":"113.93478861053"},{"id":"001872","name":"駿運南路, 駿運路","lat":"22.296307722091","long":"113.92828152053"},{"id":"001838","name":"機場空運中心, 駿運路","lat":"22.295103112091","long":"113.92453797053"},{"id":"001842","name":"亞洲空運中心, 駿坪路","lat":"22.295849412091","long":"113.92082136053"},{"id":"001862","name":"赤鱲角南路","lat":"22.291866272091","long":"113.92870664053"},{"id":"001858","name":"東涌纜車站, 達東路","lat":"22.289058372091","long":"113.93864113053"},{"id":"001884","name":"東薈城, 達東路","lat":"22.289838092091","long":"113.94183216053"},{"id":"001857","name":"裕東苑, 順東路","lat":"22.286236662091","long":"113.94127140053"},{"id":"001854","name":"青嶼幹線巴士轉乘站","lat":"22.339339292091","long":"114.04211697053"},{"id":"001460","name":"則仁中心, 歌和老街","lat":"22.339980832091","long":"114.16720897053"},{"id":"001461","name":"石硤尾公園, 歌和老街","lat":"22.339475172091","long":"114.17015126053"},{"id":"001462","name":"義德道, 歌和老街","lat":"22.340096902091","long":"114.17862550053"},{"id":"001485","name":"金城道, 聯合道","lat":"22.339175222091","long":"114.18126979053"},{"id":"001467","name":"嘉強苑, 富美街","lat":"22.340695792091","long":"114.18504216053"},{"id":"001468","name":"橫頭磡邨宏照樓, 富美街","lat":"22.340661302091","long":"114.18735665053"},{"id":"001523","name":"黃大仙站, 龍翔道","lat":"22.341815742091","long":"114.19217929053"},{"id":"001688","name":"沙田坳道, 龍翔道","lat":"22.341786682091","long":"114.19549949053"},{"id":"001696","name":"鑽石山站, 大磡道","lat":"22.339299962091","long":"114.20302525053"},{"id":"001697","name":"牛池灣村, 龍翔道","lat":"22.336768802091","long":"114.20701576053"},{"id":"001505","name":"九龍灣站, 觀塘道","lat":"22.325498272091","long":"114.21429538053"},{"id":"001506","name":"牛頭角下邨, 觀塘道","lat":"22.321454812091","long":"114.21463179053"},{"id":"001507","name":"定富街, 觀塘道","lat":"22.316605442091","long":"114.21608286053"},{"id":"001508","name":"牛頭角站, 觀塘道","lat":"22.315130552091","long":"114.21954638053"},{"id":"001509","name":"觀塘市中心, 觀塘道","lat":"22.313441392091","long":"114.22397362053"},{"id":"001605","name":"容鳳書紀念中心, 偉發道","lat":"22.308845832091","long":"114.22968249053"},{"id":"001406","name":"麗港城商場, 茶果嶺道","lat":"22.306692812091","long":"114.22854828053"},{"id":"001407","name":"麗港中心, 茶果嶺道","lat":"22.305324082091","long":"114.22760389053"},{"id":"001489","name":"聖公會基孝中學, 啟田道","lat":"22.306171062091","long":"114.23531604053"},{"id":"001490","name":"康田苑, 啟田道","lat":"22.307092582091","long":"114.23511609053"},{"id":"001640","name":"啟田邨啟仁樓, 啟田道","lat":"22.309385422091","long":"114.23368006053"},{"id":"001641","name":"啟田邨啟旺樓, 德田街","lat":"22.309999602091","long":"114.23486253053"},{},{"id":"003800","name":"藍田 (平田街)","lat":"22.308608672091","long":"114.23652470053"}],"routeId":"E22","description":"正常班次"},{"company":"ctb","route":"E22","routeType":null,"dir":"O","orig":"藍田 (平田街)","dest":"機場博覽館","stopList":[{"id":"003800","name":"藍田 (平田街)","lat":"22.308608672091","long":"114.23652470053"},{"id":"001598","name":"藍田 (北)","lat":"22.309535062091","long":"114.23717064053"},{"id":"001599","name":"啟田邨啟旺樓, 德田街","lat":"22.309850072091","long":"114.23479138053"},{"id":"001491","name":"啟田商場, 啟田道","lat":"22.308503542091","long":"114.23445297053"},{"id":"001492","name":"聖公會基孝中學, 啟田道","lat":"22.305971352091","long":"114.23544646053"},{"id":"001522","name":"藍田站, 鯉魚門道","lat":"22.305529462091","long":"114.23413329053"},{"id":"001605","name":"容鳳書紀念中心, 偉發道","lat":"22.308845832091","long":"114.22968249053"},{"id":"001406","name":"麗港城商場, 茶果嶺道","lat":"22.306692812091","long":"114.22854828053"},{"id":"001407","name":"麗港中心, 茶果嶺道","lat":"22.305324082091","long":"114.22760389053"},{"id":"001494","name":"駿業里, 觀塘道","lat":"22.313346232091","long":"114.22351063053"},{"id":"001495","name":"創紀之城, 觀塘道","lat":"22.314321422091","long":"114.22087864053"},{"id":"001496","name":"定富街, 觀塘道","lat":"22.316092622091","long":"114.21629897053"},{"id":"001498","name":"牛頭角下邨, 觀塘道","lat":"22.320182512091","long":"114.21448890053"},{"id":"001499","name":"德福花園, 觀塘道","lat":"22.322004582091","long":"114.21431732053"},{"id":"001500","name":"九龍灣站, 觀塘道","lat":"22.325551032091","long":"114.21393835053"},{"id":"001501","name":"啟泰苑, 觀塘道","lat":"22.328831762091","long":"114.21175486053"},{"id":"001525","name":"彩虹邨丹鳳樓, 龍翔道","lat":"22.335290892091","long":"114.20761701053"},{"id":"001695","name":"鑽石山站, 龍翔道","lat":"22.339272392091","long":"114.20228739053"},{"id":"001690","name":"沙田坳道, 龍翔道","lat":"22.341586742091","long":"114.19546107053"},{"id":"001524","name":"摩士公園游泳池, 龍翔道","lat":"22.341541322091","long":"114.19151762053"},{"id":"001465","name":"橫頭磡邨宏業樓, 富美街","lat":"22.340518792091","long":"114.18872883053"},{"id":"001466","name":"橫頭磡邨宏富樓, 富美街","lat":"22.340615532091","long":"114.18661220053"},{"id":"001488","name":"浸會大學逸夫校園, 聯合道","lat":"22.339184602091","long":"114.18258831053"},{"id":"001457","name":"根德道, 歌和老街","lat":"22.340030252091","long":"114.17664627053"},{"id":"001458","name":"石硤尾公園, 歌和老街","lat":"22.339267912091","long":"114.17065076053"},{"id":"001459","name":"則仁中心, 歌和老街","lat":"22.339805772091","long":"114.16749755053"},{"id":"001853","name":"青嶼幹線巴士轉乘站","lat":"22.338232802091","long":"114.04196854053"},{"id":"001856","name":"東涌消防局, 順東路","lat":"22.286159532091","long":"113.94102948053"},{"id":"001855","name":"東堤灣畔, 順東路","lat":"22.287329312091","long":"113.93922233053"},{"id":"001864","name":"赤鱲角南路","lat":"22.291892082091","long":"113.92840376053"},{"id":"001839","name":"機場空運中心, 駿運路","lat":"22.294954752091","long":"113.92331355053"},{"id":"001863","name":"香港空運貨站, 駿運路","lat":"22.297087112091","long":"113.92984635053"},{"id":"001866","name":"赤鱲角消防局, 航膳東路","lat":"22.300214432091","long":"113.93321379053"},{"id":"001867","name":"國泰空廚, 航膳東路","lat":"22.301812632091","long":"113.93478861053"},{"id":"001844","name":"國泰城, 觀景路","lat":"22.297636222091","long":"113.93331853053"},{"id":"002657","name":"國泰城 (東), 東岸路","lat":"22.298727102091","long":"113.93468702053"},{"id":"001832","name":"二號檢查閘, 暢連路","lat":"22.310769292091","long":"113.93645407053"},{"id":"001833","name":"一號客運大樓, 暢達路","lat":"22.313054432091","long":"113.93705021053"},{"id":"001834","name":"暢達路","lat":"22.316924932091","long":"113.93566252053"},{"id":"001836","name":"富豪機場酒店,  暢達路","lat":"22.319353342091","long":"113.93396777053"},{"id":"002671","name":"機場博覽館","lat":"22.319487352091","long":"113.94058953053"}],"routeId":"E22","description":"正常班次"}]