[{"company":"KMB","route":"E32A","routeType":"1","dir":"O","orig":"葵芳(南)","dest":"東涌發展碼頭","stopList":[{"id":"32477B342BF2DC22","name":"葵芳(南)總站","lat":"22.354641","long":"114.126501"},{"id":"C9BF57C6B2F9BB92","name":"葵芳站總站","lat":"22.356831","long":"114.128406"},{"id":"4432CAFB004FF754","name":"葵芳廣場","lat":"22.358115","long":"114.130300"},{"id":"C0E90AAAA204D927","name":"光輝圍","lat":"22.367730","long":"114.133599"},{"id":"AF837BAF1DA794EF","name":"葵涌健全街","lat":"22.370294","long":"114.131279"},{"id":"395175EBEEC636B7","name":"大窩口站","lat":"22.370371","long":"114.125072"},{"id":"4ED04A0F5F9FF05F","name":"悅來酒店","lat":"22.369229","long":"114.120499"},{"id":"C8C450D3F688645A","name":"寶石大廈","lat":"22.368834","long":"114.118097"},{"id":"6328BFDC78246772","name":"川龍街","lat":"22.369845","long":"114.116216"},{"id":"725496526DF766B9","name":"大河道","lat":"22.371369","long":"114.114646"},{"id":"155A8CC00899AB1E","name":"富華街","lat":"22.373461","long":"114.115924"},{"id":"2E1126EB3A7EDB00","name":"大涌道福來邨","lat":"22.374168","long":"114.111502"},{"id":"711AE4AC67F88999","name":"祈德尊新邨","lat":"22.371342","long":"114.109806"},{"id":"C7217641124605E5","name":"青嶼幹線轉車站","lat":"22.338302","long":"114.042190"},{"id":"1C958B99EB171940","name":"迎禧路裕雅苑","lat":"22.294246","long":"113.947910"},{"id":"AB63C9E8465C6002","name":"東環","lat":"22.294556","long":"113.950328"},{"id":"CC57C2DF592993CB","name":"昇薈","lat":"22.295703","long":"113.951998"},{"id":"91DBF92544F472E6","name":"迎東邨","lat":"22.297050","long":"113.952582"},{"id":"D7AAC19538A45549","name":"映灣園第二期","lat":"22.292070","long":"113.950594"},{"id":"22A8C801A98F9B7D","name":"怡東路","lat":"22.290973","long":"113.947991"},{"id":"DBA1D592108DBA72","name":"怡文中學","lat":"22.290813","long":"113.944883"},{"id":"B1790A47B8FFEF37","name":"海堤灣畔","lat":"22.292676","long":"113.943293"},{"id":"E435992628015D22","name":"東涌發展碼頭","lat":"22.293636","long":"113.940527"}],"routeId":"E32A"},{"company":"KMB","route":"E32A","routeType":"1","dir":"I","orig":"東涌發展碼頭","dest":"葵芳(南)","stopList":[{"id":"E435992628015D22","name":"東涌發展碼頭","lat":"22.293636","long":"113.940527"},{"id":"24078B675A7FE3B3","name":"海堤灣畔","lat":"22.292422","long":"113.943618"},{"id":"DBB8E01BBE8C66ED","name":"藍天海岸","lat":"22.290995","long":"113.945854"},{"id":"7DF092F3A5418694","name":"映灣園第二期","lat":"22.291915","long":"113.950095"},{"id":"364754E2273129B7","name":"映灣園第一期","lat":"22.293290","long":"113.951688"},{"id":"7F8BF075DDF6231A","name":"迎東邨總站","lat":"22.297050","long":"113.952582"},{"id":"2AA862C9E7E497EE","name":"昇薈","lat":"22.295626","long":"113.952088"},{"id":"FE6D5955F777E39C","name":"迎禧路","lat":"22.294485","long":"113.950525"},{"id":"0E987A8094AF742E","name":"青嶼幹線轉車站","lat":"22.339065","long":"114.041670"},{"id":"901B696E0E8D9C3F","name":"祈德尊新邨","lat":"22.371580","long":"114.109574"},{"id":"230B03C34F2022D4","name":"大涌道福來邨","lat":"22.373726","long":"114.110950"},{"id":"29713FE36122A646","name":"愉景新城","lat":"22.375047","long":"114.112821"},{"id":"354AD31C538E99FE","name":"荃灣站","lat":"22.374308","long":"114.116223"},{"id":"F44091669D88A5D8","name":"大河道","lat":"22.371883","long":"114.115932"},{"id":"7298EF382FFDC665","name":"川龍街","lat":"22.369977","long":"114.116433"},{"id":"A9B8939F8ADD89CA","name":"寶石大廈","lat":"22.369150","long":"114.117961"},{"id":"323E8D4372AD0330","name":"名逸居","lat":"22.367662","long":"114.120724"},{"id":"101E821CA2F6D853","name":"大窩口站","lat":"22.370531","long":"114.123873"},{"id":"CD9E21CA712C9F96","name":"昌榮路迴旋處","lat":"22.370179","long":"114.131995"},{"id":"569C5AADDD0F3A28","name":"葵俊苑","lat":"22.364805","long":"114.132936"},{"id":"A56DA623B00B162E","name":"新葵興花園","lat":"22.362273","long":"114.132084"},{"id":"073EAEA8EDD7265C","name":"新都會廣場","lat":"22.357846","long":"114.126204"},{"id":"2A8231CC433F6B22","name":"葵青劇院","lat":"22.356258","long":"114.125948"},{"id":"32477B342BF2DC22","name":"葵芳(南)總站","lat":"22.354641","long":"114.126501"}],"routeId":"E32A"}]