[{"company":"NWFB","route":"H1","routeType":null,"dir":"I","orig":"尖沙咀","dest":"中環 (天星碼頭)","stopList":[{"id":"003445","name":"半島酒店","lat":"22.295329082091","long":"114.17121211053"},{"id":"001402","name":"北京道, 廣東道","lat":"22.295743602091","long":"114.16936782053"},{"id":"001587","name":"尖東站, 梳士巴利道","lat":"22.295215502091","long":"114.17460773053"},{"id":"002475","name":"利舞臺廣場, 波斯富街","lat":"22.278848092091","long":"114.18319116053"},{"id":"001033","name":"皇后像廣場, 干諾道中","lat":"22.281992192091","long":"114.16003822053"},{"id":"001171","name":"中環 (天星碼頭)","lat":"22.286604172091","long":"114.16035307053"}],"routeId":"H1"},{"company":"NWFB","route":"H1","routeType":null,"dir":"O","orig":"中環 (天星碼頭)","dest":"尖沙咀","stopList":[{"id":"001171","name":"中環 (天星碼頭)","lat":"22.286604172091","long":"114.16035307053"},{"id":"001032","name":"中環 (交易廣場)","lat":"22.283695952091","long":"114.15803274053"},{"id":"001040","name":"西港城, 干諾道西","lat":"22.287710712091","long":"114.14980124053"},{"id":"002743","name":"文武廟, 荷李活道","lat":"22.284112202091","long":"114.15027169053"},{"id":"002745","name":"卑利街, 荷李活道","lat":"22.283073802091","long":"114.15273213053"},{"id":"001075","name":"大館, 荷李活道","lat":"22.281907662091","long":"114.15431591053"},{"id":"001051","name":"皇后像廣場, 德輔道中","lat":"22.280748762091","long":"114.15964401053"},{"id":"001025","name":"皇后像廣場, 遮打道","lat":"22.281482342091","long":"114.16005494053"},{"id":"001139","name":"金鐘 (西)","lat":"22.279678602091","long":"114.16378945053"},{"id":"003300","name":"金紫荊廣場, 博覽道東","lat":"22.284303662091","long":"114.17391988053"},{"id":"003301","name":"星光大道, 梳士巴利道","lat":"22.296280932091","long":"114.17699772053"},{"id":"001589","name":"尖東站, 梳士巴利道","lat":"22.294751692091","long":"114.17402893053"},{"id":"003559","name":"香港文化中心, 梳士巴利道","lat":"22.294532712091","long":"114.17122742053"},{"id":"001588","name":"尖沙咀 (天星碼頭)","lat":"22.294426412091","long":"114.16919361053"},{"id":"003445","name":"半島酒店","lat":"22.295329082091","long":"114.17121211053"}],"routeId":"H1"}]