[{"company":"kmb","route":"K12","routeType":"1","dir":"O","orig":"八號花園","dest":"大埔墟站","stopList":[{"id":"F7D0214CE5D8F22F","name":"八號花園","lat":"22.452817","long":"114.166705"},{"id":"D758BEFF6536BFE9","name":"大埔超級城","lat":"22.451253","long":"114.169856"},{"id":"DD78D147EB6130E3","name":"大埔墟站巴士總站","lat":"22.443456","long":"114.169911"},{"id":"A20B8580B8E9B95D","name":"大埔墟站巴士總站","lat":"22.443785","long":"114.169347"}],"routeId":"K12","description":"正常班次"},{"company":"kmb","route":"K12","routeType":"1","dir":"I","orig":"大埔墟站","dest":"八號花園","stopList":[{"id":"A20B8580B8E9B95D","name":"大埔墟站巴士總站","lat":"22.443785","long":"114.169347"},{"id":"D4001CA2F385E700","name":"大埔超級城","lat":"22.450983","long":"114.169605"},{"id":"F7D0214CE5D8F22F","name":"八號花園","lat":"22.452817","long":"114.166705"}],"routeId":"K12","description":"正常班次"},{"company":"mtr","route":"K12","routeType":null,"dir":"O","orig":"大埔墟站","dest":"八號花園","stopList":[{"id":"K12-U010","name":"大埔墟站","lat":"22.444414","long":"114.169471"},{"id":"K12-U020","name":"大埔超級城","lat":"22.450971","long":"114.169957"},{"id":"K12-U030","name":"八號花園","lat":"22.452836","long":"114.166496"}],"routeId":"K12","description":"正常班次"},{"company":"mtr","route":"K12","routeType":null,"dir":"I","orig":"八號花園","dest":"大埔墟站","stopList":[{"id":"K12-D010","name":"八號花園","lat":"22.452836","long":"114.166496"},{"id":"K12-D020","name":"大埔超級城","lat":"22.451278","long":"114.170087"},{"id":"K12-D030","name":"新達廣場","lat":"22.443712","long":"114.16991"},{"id":"K12-D040","name":"大埔墟站","lat":"22.444414","long":"114.169471"}],"routeId":"K12","description":"正常班次"}]