[{"company":"mtr","route":"K54","routeType":null,"dir":"O","orig":"和田邨","dest":"和田邨","stopList":[{"id":"K54-U010","name":"和田邨","lat":"22.41295362","long":"113.9686386"},{"id":"K54-U020","name":"菁田邨","lat":"22.41229368","long":"113.9705794"},{"id":"K54-U030","name":"紫田村","lat":"22.41439481","long":"113.9738808"},{"id":"K54-U040","name":"欣田邨","lat":"22.41435","long":"113.97701"},{"id":"K54-U050","name":"港鐵兆康站 (北) (輕鐵兆康站)","lat":"22.4134","long":"113.97902"},{"id":"K54-U060","name":"紅橋","lat":"22.40199647","long":"113.977489"},{"id":"K54-U070","name":"屯門市中心","lat":"22.391389","long":"113.975465"},{"id":"K54-D010","name":"屯門市廣場","lat":"22.39272978","long":"113.9769618"},{"id":"K54-D020","name":"新墟街市","lat":"22.3989419","long":"113.9766028"},{"id":"K54-D030","name":"港鐵兆康站 (北) (輕鐵兆康站)","lat":"22.41357","long":"113.9791"},{"id":"K54-D040","name":"兆康苑","lat":"22.414907","long":"113.977412"},{"id":"K54-D050","name":"欣寶路公共運輸交匯處","lat":"22.41309916","long":"113.9723357"},{"id":"K54-D060","name":"菁田邨","lat":"22.41197411","long":"113.9703303"},{"id":"K54-D070","name":"和田邨","lat":"22.41295362","long":"113.9686386"}],"routeId":"K54","description":"正常班次"}]