[{"company":"mtr","route":"K75P","routeType":null,"dir":"O","orig":"天瑞","dest":"天瑞","stopList":[{"id":"K75P-U010","name":"天瑞","lat":"22.455356","long":"113.998975"},{"id":"K75P-U020","name":"天水圍公園","lat":"22.454494","long":"114.003128"},{"id":"K75P-U030","name":"天耀邨耀盛樓","lat":"22.452347","long":"114.002244"},{"id":"K75P-U040","name":"輕鐵天耀站","lat":"22.450039","long":"114.002836"},{"id":"K75P-U050","name":"天盛苑 (港鐵天水圍站)","lat":"22.446917","long":"114.003097"},{"id":"K75P-U060","name":"石埗路","lat":"22.446711","long":"113.998247"},{"id":"K75P-U070","name":"沙洲里村","lat":"22.446108","long":"113.995617"},{"id":"K75P-U080","name":"廈村市","lat":"22.446186","long":"113.993353"},{"id":"K75P-U090","name":"新屋村","lat":"22.445111","long":"113.992378"},{"id":"K75P-U100","name":"李屋村","lat":"22.443717","long":"113.991383"},{"id":"K75P-U110","name":"新生村","lat":"22.440183","long":"113.991708"},{"id":"K75P-U120","name":"新李屋村","lat":"22.436125","long":"113.992242"},{"id":"K75P-U130","name":"田心","lat":"22.433431","long":"113.992694"},{"id":"K75P-U140","name":"鄉事委員會","lat":"22.431597","long":"113.992822"},{"id":"K75P-D010","name":"輕鐵洪水橋站","lat":"22.433889","long":"113.997633"},{"id":"K75P-D020","name":"洪水橋巴士廠","lat":"22.436081","long":"113.99985"},{"id":"K75P-D030","name":"洪福邨","lat":"22.437436","long":"113.999028"},{"id":"K75P-D040","name":"石埗村","lat":"22.440381","long":"113.998406"},{"id":"K75P-D050","name":"天盛苑 (港鐵天水圍站)","lat":"22.446897","long":"114.002789"},{"id":"K75P-D060","name":"天水圍警署","lat":"22.449461","long":"114.002956"},{"id":"K75P-D070","name":"賞湖居","lat":"22.452539","long":"114.002228"},{"id":"K75P-D080","name":"天水圍公園","lat":"22.454522","long":"114.002736"},{"id":"K75P-U011","name":"天瑞","lat":"22.455356","long":"113.998975"}],"routeId":"K75P","description":"正常班次"}]