[{"company":"kmb","route":"N213","routeType":"1","dir":"O","orig":"尖沙咀東(麼地道)","dest":"安泰(西)","stopList":[{"id":"F388A6F066DE4562","name":"尖沙咀東（麼地道）","lat":"22.296679","long":"114.175866"},{"id":"243A28F74F73A045","name":"尖東站","lat":"22.294779","long":"114.174389"},{"id":"940A31DA2A6051A9","name":"半島酒店 (N1)","lat":"22.295138","long":"114.172249"},{"id":"DAE7B6CB56131B50","name":"尖沙咀海防道 (N4)","lat":"22.297640","long":"114.172064"},{"id":"68106C827BF891AB","name":"九龍清真寺 (N9)","lat":"22.298819","long":"114.171954"},{"id":"EA4A3876639F21B4","name":"金巴利道 (N11)","lat":"22.300253","long":"114.171866"},{"id":"5419928D472EAD8D","name":"栢麗購物大道 (N13)","lat":"22.301864","long":"114.171726"},{"id":"100FBBA946264714","name":"柯士甸道 (N17)","lat":"22.304057","long":"114.171601"},{"id":"E5E7111594073DE2","name":"油麻地南京街 (N24)","lat":"22.306300","long":"114.171428"},{"id":"D9F1ED8B7D7C5AAD","name":"九龍中央郵政局 (N31)","lat":"22.309097","long":"114.171108"},{"id":"038F62C619BF8650","name":"油麻地眾坊街 (N38)","lat":"22.310607","long":"114.170967"},{"id":"E50D6F218BC33CD0","name":"油麻地文明里 (N43)","lat":"22.311476","long":"114.170794"},{"id":"05D8591BD5405ED4","name":"旺角長沙街 (N53)","lat":"22.315851","long":"114.169933"},{"id":"258EDF9D3C3FD200","name":"旺角奶路臣街 (N62)","lat":"22.317993","long":"114.169513"},{"id":"30B08A7B2B2B623F","name":"西洋菜南街","lat":"22.320135","long":"114.169894"},{"id":"4884DCF89AD7BA6A","name":"旺角站","lat":"22.319688","long":"114.170707"},{"id":"A72D15160CC3AF31","name":"亞皆老街中電","lat":"22.320532","long":"114.175816"},{"id":"8D5C58075D3C1003","name":"九龍醫院","lat":"22.322801","long":"114.180560"},{"id":"6C1DEF32B8CB92C4","name":"香港眼科醫院","lat":"22.324908","long":"114.184866"},{"id":"6965D1D655C2DD5F","name":"亞皆老街球場","lat":"22.327009","long":"114.188955"},{"id":"6AEFD1C261E8E4D8","name":"富豪東方酒店","lat":"22.328601","long":"114.191962"},{"id":"A0EFE3E68568F194","name":"譽．港灣","lat":"22.333136","long":"114.196760"},{"id":"3D717F0365D5505B","name":"景泰街","lat":"22.334279","long":"114.199287"},{"id":"29759ECB92E1A91B","name":"工業貿易大樓","lat":"22.332189","long":"114.197970"},{"id":"B48B8F12CD929F0F","name":"啟德(啟晴邨)","lat":"22.332416","long":"114.203904"},{"id":"72999453ECAC4693","name":"麗晶花園第8座","lat":"22.331389","long":"114.205832"},{"id":"AA26D9F25826AA4A","name":"啟業邨","lat":"22.328645","long":"114.208437"},{"id":"FBE38593BDEB0802","name":"九龍灣運動場","lat":"22.326515","long":"114.208649"},{"id":"921C19F6147C74A6","name":"振華苑","lat":"22.322426","long":"114.218357"},{"id":"47C3597662B81B47","name":"樂雅苑","lat":"22.322730","long":"114.220872"},{"id":"7EF64469471FE344","name":"樂華南邨","lat":"22.320826","long":"114.222941"},{"id":"0A03521DFD20FEA9","name":"康寧道公園","lat":"22.320977","long":"114.224024"},{"id":"BBBDC092F96C0A41","name":"寧波第二中學","lat":"22.324023","long":"114.228358"},{"id":"4A14A012710E80B1","name":"秀樂樓","lat":"22.321801","long":"114.230416"},{"id":"25D24692B2A312FB","name":"秀逸樓","lat":"22.317818","long":"114.231893"},{"id":"6F106FD26B684372","name":"秀安樓","lat":"22.316738","long":"114.233354"},{"id":"26305AF62FBEE2BC","name":"秀明樓","lat":"22.315095","long":"114.234630"},{"id":"D83C4CC1305E35E9","name":"上秀茂坪","lat":"22.315073","long":"114.235696"},{"id":"1FBAAE29AF1CA50E","name":"秀暉樓","lat":"22.316851","long":"114.235856"},{"id":"466BC4C1908A1A06","name":"寶達邨","lat":"22.318565","long":"114.236118"},{"id":"AA52228890817D12","name":"善達樓","lat":"22.320283","long":"114.235550"},{"id":"D9563FD5B8CB0CEF","name":"愛達樓","lat":"22.321967","long":"114.232500"},{"id":"6410DDEFBBD17426","name":"錦泰樓","lat":"22.324370","long":"114.230667"},{"id":"FBE07247C3FDB904","name":"安泰(西)(和泰樓)","lat":"22.328027","long":"114.227750"}],"routeId":"N213","description":"正常班次"}]