[{"company":"kmb","route":"N281","routeType":"1","dir":"O","orig":"錦英苑","dest":"紅磡站","stopList":[{"id":"8CFD0DAAA2D9B47E","name":"錦英苑巴士總站","lat":"22.423558","long":"114.237219"},{"id":"D156C558FF163BE3","name":"錦龍苑","lat":"22.426073","long":"114.239403"},{"id":"013F884CBCB1CBE4","name":"富寶花園","lat":"22.425459","long":"114.235563"},{"id":"1D99BD02B9B45429","name":"馬鞍山市中心總站","lat":"22.424445","long":"114.231544"},{"id":"028E0B68D3166C00","name":"福安花園","lat":"22.423273","long":"114.228508"},{"id":"1D6A8B8C58C268FF","name":"馬鞍山運動場","lat":"22.422151","long":"114.228420"},{"id":"1F1A440137854ABF","name":"耀安邨耀謙樓","lat":"22.418190","long":"114.230528"},{"id":"30553FA19D045D25","name":"富安花園","lat":"22.407330","long":"114.222794"},{"id":"F508350699744D24","name":"富安花園巴士總站","lat":"22.405431","long":"114.224091"},{"id":"34740DD5ABC36F12","name":"亞公角","lat":"22.402205","long":"114.216004"},{"id":"25E1BAE2C272ED4C","name":"沙田醫院","lat":"22.398915","long":"114.212447"},{"id":"823E3EE2413E40E2","name":"石門轉車站及新界鄉議局大樓(S2)","lat":"22.391352","long":"114.206356"},{"id":"E7133179F5800E85","name":"沙田第一城","lat":"22.388375","long":"114.201751"},{"id":"A401ECF82924D465","name":"富豪花園","lat":"22.384604","long":"114.198065"},{"id":"3D5F8A471AE2AE99","name":"麗豪酒店","lat":"22.382174","long":"114.195749"},{"id":"6FA31E38468068B6","name":"博康邨","lat":"22.377335","long":"114.195146"},{"id":"5C6B22551FFEB285","name":"田家炳學校","lat":"22.375544","long":"114.192239"},{"id":"AF47DA55FCC27679","name":"曾大屋","lat":"22.375411","long":"114.189055"},{"id":"BF24F3D6A39D8D99","name":"秦石邨","lat":"22.374268","long":"114.186723"},{"id":"4E366AF78461E12D","name":"車公廟","lat":"22.374407","long":"114.184038"},{"id":"9ADE07CC443E4ACE","name":"新翠邨新明樓","lat":"22.372053","long":"114.180134"},{"id":"2A72F4041A7E6783","name":"田心村","lat":"22.370674","long":"114.177940"},{"id":"9C117FB6B6590825","name":"雲疊花園","lat":"22.368922","long":"114.175483"},{"id":"5FB8DC89C84A7F2B","name":"顯徑邨顯揚樓","lat":"22.365605","long":"114.173333"},{"id":"04C4E5AE4F8F21E1","name":"顯徑商場","lat":"22.364228","long":"114.171960"},{"id":"1D13B640481F4CD1","name":"顯慶樓","lat":"22.364032","long":"114.173908"},{"id":"AC2A4AB84E52364C","name":"顯沛樓","lat":"22.365267","long":"114.175018"},{"id":"A5C1234F60BBF1EB","name":"隆亨邨","lat":"22.368824","long":"114.178535"},{"id":"674BF383CB19E1A3","name":"世界花園","lat":"22.364711","long":"114.181313"},{"id":"E34E3D48842C9B66","name":"獅子山隧道","lat":"22.358837","long":"114.174677"},{"id":"DF9E89A391CAC245","name":"九龍塘聯合道","lat":"22.337913","long":"114.179235"},{"id":"657E5836BC932790","name":"九龍塘站","lat":"22.335577","long":"114.179089"},{"id":"330F82C1677EEC3D","name":"龍濤花園","lat":"22.331531","long":"114.178825"},{"id":"98FCC750B322B706","name":"九龍醫院","lat":"22.323064","long":"114.178288"},{"id":"7FAF7F6B57A8B606","name":"萬基大廈","lat":"22.319981","long":"114.176740"},{"id":"71C9731001C9C773","name":"何文田街","lat":"22.317661","long":"114.175062"},{"id":"F63C76EC97E38A91","name":"廣華醫院","lat":"22.314770","long":"114.172864"},{"id":"777ED0B1F3CF10DD","name":"油麻地消防局","lat":"22.313308","long":"114.171775"},{"id":"96442B84082D4DF5","name":"油麻地永星里 (S35)","lat":"22.311247","long":"114.171112"},{"id":"508D99EBC9AB3A9B","name":"油麻地長樂街 (S42)","lat":"22.306887","long":"114.171625"},{"id":"E10A0960D4E103B1","name":"尖沙咀德成街 (S45)","lat":"22.304279","long":"114.171799"},{"id":"EAE9158BE729E917","name":"金巴利道 (S50)","lat":"22.301046","long":"114.172057"},{"id":"D2217D7746597D10","name":"尖沙咀中間道 (S54)","lat":"22.295794","long":"114.172446"},{"id":"0840B3F75A7B00BD","name":"尖東站","lat":"22.295264","long":"114.174725"},{"id":"FE4E099AEA040C89","name":"尖沙咀麼地道","lat":"22.297728","long":"114.175406"},{"id":"E46A9F0C0CB609F5","name":"加連威老道","lat":"22.299691","long":"114.175809"},{"id":"F656A38D2A40F77D","name":"金德大廈","lat":"22.301104","long":"114.176208"},{"id":"3D040EE809057C6E","name":"香港理工大學","lat":"22.302827","long":"114.177953"},{"id":"2802E2DEE1D48B51","name":"紅磡站總站","lat":"22.303884","long":"114.182128"}],"routeId":"N281","description":"正常班次"},{"company":"kmb","route":"N281","routeType":"1","dir":"I","orig":"紅磡站","dest":"錦英苑","stopList":[{"id":"2802E2DEE1D48B51","name":"紅磡站總站","lat":"22.303884","long":"114.182128"},{"id":"FE2815CBCD21C57C","name":"香港歷史博物館","lat":"22.302694","long":"114.177430"},{"id":"F2508598F5A43655","name":"香港科學館","lat":"22.301061","long":"114.176514"},{"id":"3313287185163530","name":"尖沙咀麼地道","lat":"22.298540","long":"114.175858"},{"id":"8E8DB91C885F1230","name":"尖東站","lat":"22.294724","long":"114.174189"},{"id":"940A31DA2A6051A9","name":"半島酒店 (N1)","lat":"22.295138","long":"114.172249"},{"id":"4A38244491180BF7","name":"尖沙咀海防道 (N6)","lat":"22.297792","long":"114.172054"},{"id":"5419928D472EAD8D","name":"栢麗購物大道 (N13)","lat":"22.301864","long":"114.171726"},{"id":"357B7D41501CDACA","name":"柯士甸道 (N19)","lat":"22.304119","long":"114.171653"},{"id":"DF10BE627F25E7DD","name":"油麻地寧波街 (N28)","lat":"22.306879","long":"114.171386"},{"id":"D7C7D86E923EEAE1","name":"九龍中央郵政局 (N35)","lat":"22.309345","long":"114.171133"},{"id":"088B858E4B54D8AC","name":"油麻地文明里 (N41)","lat":"22.311337","long":"114.170814"},{"id":"05D8591BD5405ED4","name":"旺角長沙街 (N53)","lat":"22.315851","long":"114.169933"},{"id":"258EDF9D3C3FD200","name":"旺角奶路臣街 (N62)","lat":"22.317993","long":"114.169513"},{"id":"DE27CD3EB0AF43D8","name":"旺角道","lat":"22.321077","long":"114.169853"},{"id":"68A3AF80BADFDE9F","name":"亞皆老街中電","lat":"22.320775","long":"114.176203"},{"id":"89A4D25AC31A8388","name":"聖佐治大廈","lat":"22.323436","long":"114.178015"},{"id":"6465986EF7824816","name":"九龍塘會","lat":"22.329236","long":"114.178469"},{"id":"C53A00F15DC2DB20","name":"基督中心堂","lat":"22.332030","long":"114.178636"},{"id":"48E5A1EED91712EE","name":"九龍塘站","lat":"22.336254","long":"114.178788"},{"id":"D099C45C9443AFC8","name":"映月台","lat":"22.342180","long":"114.178621"},{"id":"45D0CFA28B3FEFE5","name":"獅子山隧道","lat":"22.358720","long":"114.173449"},{"id":"B8E2647E9C5019C9","name":"世界花園","lat":"22.366222","long":"114.180516"},{"id":"5EAE23D8DC3A7121","name":"隆亨邨","lat":"22.368414","long":"114.178154"},{"id":"A28C2F29B58A2E9A","name":"下徑口村","lat":"22.365536","long":"114.175431"},{"id":"BA9F2C58E03A38F0","name":"顯田村","lat":"22.362851","long":"114.172557"},{"id":"CA5AEC11C96BA678","name":"顯田遊樂場","lat":"22.365231","long":"114.172634"},{"id":"BE4CE56A7102816E","name":"名城","lat":"22.368715","long":"114.174948"},{"id":"A66159E033DDEA04","name":"大圍站","lat":"22.372606","long":"114.180304"},{"id":"C92E80A5D7E0E8EC","name":"車公廟","lat":"22.374668","long":"114.184164"},{"id":"52B02EAC7AAB23C1","name":"秦石邨","lat":"22.374551","long":"114.186748"},{"id":"B9EE83CA8ABB578B","name":"乙明邨街","lat":"22.376165","long":"114.191545"},{"id":"45809C20B6578E53","name":"沙角邨","lat":"22.377345","long":"114.194850"},{"id":"EB0D8F8D1AF9DDDE","name":"麗豪酒店","lat":"22.382690","long":"114.195818"},{"id":"A67E402790581309","name":"富豪花園","lat":"22.385055","long":"114.198133"},{"id":"145AA374D8CB7123","name":"沙田第一城","lat":"22.389465","long":"114.203314"},{"id":"8ECFB7DFFC0023DA","name":"石門轉車站及濱景花園 (N1)","lat":"22.391566","long":"114.206129"},{"id":"33A4BFE372C06BA8","name":"沙田醫院","lat":"22.399874","long":"114.213037"},{"id":"B8BBCCA288E1F862","name":"亞公角","lat":"22.402759","long":"114.216742"},{"id":"1CF4AE2F7045B848","name":"富安花園","lat":"22.406232","long":"114.221917"},{"id":"9EAC85DD5495DB6F","name":"富安花園巴士總站","lat":"22.405467","long":"114.224149"},{"id":"880BE8598CB0CCE7","name":"恆安邨","lat":"22.417800","long":"114.230758"},{"id":"5E073AD8BC9F2AC8","name":"馬鞍山運動場","lat":"22.421847","long":"114.228372"},{"id":"B31E6B9D8E5B4493","name":"福安花園","lat":"22.423627","long":"114.228332"},{"id":"3A450B5AD5AF1605","name":"海栢花園","lat":"22.425043","long":"114.231566"},{"id":"0E2175C0750054FE","name":"雅典居","lat":"22.426028","long":"114.236373"},{"id":"6BD93B827893E41E","name":"錦龍苑","lat":"22.425830","long":"114.239819"},{"id":"8CFD0DAAA2D9B47E","name":"錦英苑巴士總站","lat":"22.423558","long":"114.237219"}],"routeId":"N281","description":"正常班次"}]