[{"company":"kmb","route":"N287","routeType":"1","dir":"O","orig":"尖沙咀東(麼地道)","dest":"烏溪沙站","stopList":[{"id":"F3D86A2A72FF3582","name":"尖沙咀東（麼地道）","lat":"22.296805","long":"114.176056"},{"id":"8E8DB91C885F1230","name":"尖東站","lat":"22.294724","long":"114.174189"},{"id":"940A31DA2A6051A9","name":"半島酒店 (N1)","lat":"22.295138","long":"114.172249"},{"id":"4A38244491180BF7","name":"尖沙咀海防道 (N6)","lat":"22.297792","long":"114.172054"},{"id":"5419928D472EAD8D","name":"栢麗購物大道 (N13)","lat":"22.301864","long":"114.171726"},{"id":"357B7D41501CDACA","name":"柯士甸道 (N19)","lat":"22.304119","long":"114.171653"},{"id":"DF10BE627F25E7DD","name":"油麻地寧波街 (N28)","lat":"22.306879","long":"114.171386"},{"id":"D7C7D86E923EEAE1","name":"九龍中央郵政局 (N35)","lat":"22.309345","long":"114.171133"},{"id":"088B858E4B54D8AC","name":"油麻地文明里 (N41)","lat":"22.311337","long":"114.170814"},{"id":"05D8591BD5405ED4","name":"旺角長沙街 (N53)","lat":"22.315851","long":"114.169933"},{"id":"258EDF9D3C3FD200","name":"旺角奶路臣街 (N62)","lat":"22.317993","long":"114.169513"},{"id":"DE27CD3EB0AF43D8","name":"旺角道","lat":"22.321077","long":"114.169853"},{"id":"91481C9100917BA7","name":"沙田第一城","lat":"22.389405","long":"114.203110"},{"id":"8ECFB7DFFC0023DA","name":"濱景花園","lat":"22.391566","long":"114.206129"},{"id":"33A4BFE372C06BA8","name":"沙田醫院","lat":"22.399874","long":"114.213037"},{"id":"B8BBCCA288E1F862","name":"亞公角","lat":"22.402759","long":"114.216742"},{"id":"1CF4AE2F7045B848","name":"富安花園","lat":"22.406232","long":"114.221917"},{"id":"11A1533C3B63F3E4","name":"錦泰苑","lat":"22.408730","long":"114.220556"},{"id":"1BD5318E1C647F83","name":"德信中學","lat":"22.410914","long":"114.221406"},{"id":"651489E8C0A626A1","name":"海典灣","lat":"22.414325","long":"114.222335"},{"id":"6B46C7E695EF21CF","name":"欣安邨","lat":"22.415305","long":"114.226294"},{"id":"F489213E82621D3F","name":"聽濤雅苑","lat":"22.418966","long":"114.226061"},{"id":"31DA09E74ABD87CD","name":"頌安邨","lat":"22.420741","long":"114.226763"},{"id":"B31E6B9D8E5B4493","name":"福安花園","lat":"22.423627","long":"114.228332"},{"id":"46D02E1C1CD82C9A","name":"海栢花園","lat":"22.425032","long":"114.231520"},{"id":"5E082FCF5C58328C","name":"馬鞍山警署","lat":"22.422399","long":"114.232966"},{"id":"4B5F39DBC6671C81","name":"錦英苑","lat":"22.423954","long":"114.238505"},{"id":"4CC126E0B1E42F14","name":"錦龍苑","lat":"22.425909","long":"114.239535"},{"id":"A90443FD0C19C4B1","name":"利安邨","lat":"22.427627","long":"114.240415"},{"id":"E22B819E638307CC","name":"烏溪沙站","lat":"22.428420","long":"114.244017"}],"routeId":"N287","description":"特別班次"}]