[{"company":"kmb","route":"N36","routeType":"1","dir":"O","orig":"荃灣站","dest":"梨木樹(循環線)","stopList":[{"id":"0653C07D043A0E97","name":"荃灣站巴士總站","lat":"22.373948","long":"114.116140"},{"id":"567B9631584F43CF","name":"荃灣眾安街","lat":"22.371942","long":"114.118922"},{"id":"CAF9395414DBD090","name":"綠楊新邨","lat":"22.371592","long":"114.121036"},{"id":"F9475B6C5F5B9C21","name":"石圍角邨石蓮樓","lat":"22.374675","long":"114.122651"},{"id":"B18C8718C0B7904F","name":"石圍角邨石菊樓","lat":"22.376118","long":"114.124570"},{"id":"D1A1DF2BDC842EE5","name":"東普陀","lat":"22.378716","long":"114.126958"},{"id":"33A7AB58611A0F6D","name":"三棟屋村","lat":"22.379813","long":"114.129474"},{"id":"0A1DAEAFFDFF0B66","name":"可風中學","lat":"22.380443","long":"114.135135"},{"id":"30000427BD163F84","name":"梨木樹巴士總站","lat":"22.377516","long":"114.136640"},{"id":"DEDD6247441C8C05","name":"可風中學","lat":"22.380167","long":"114.135129"},{"id":"3B54D43994CAC165","name":"三棟屋村","lat":"22.379816","long":"114.129569"},{"id":"D9655458715EBBF8","name":"海壩村","lat":"22.378954","long":"114.127632"},{"id":"8374DD78C287D9A7","name":"石圍角邨石葵樓","lat":"22.375852","long":"114.124790"},{"id":"D5252DAD51812506","name":"石圍角邨石荷樓","lat":"22.374513","long":"114.122837"},{"id":"09DF70F8DE2426BE","name":"蕙荃體育館","lat":"22.373029","long":"114.122402"},{"id":"7019D5AE9C63EE72","name":"荃灣眾安街","lat":"22.371124","long":"114.119312"},{"id":"0653C07D043A0E97","name":"荃灣站巴士總站","lat":"22.373948","long":"114.116140"}],"routeId":"N36","description":"正常班次"}]