[{"company":"gmb","route":"N4C","routeType":1,"orig":"香港仔(石排灣)","dest":"銅鑼灣(景隆街)","stopList":[{"id":1,"name":"石排灣邨公共運輸交匯處","lat":22.249991478750136,"long":22.249991478750136},{"id":2,"name":"南寧街,海晶閣外","lat":22.24893017271479,"long":22.24893017271479},{"id":3,"name":"香港仔大道178號","lat":22.248994718013126,"long":22.248994718013126},{"id":4,"name":"黃竹坑道23號","lat":22.24856400170924,"long":22.24856400170924},{"id":5,"name":"黃竹坑道 49-51號","lat":22.249367280637806,"long":22.249367280637806},{"id":6,"name":"黃竹坑道, 近香港仔隧道巴士站","lat":22.24994215289587,"long":22.24994215289587},{"id":7,"name":"摩理臣山道 80-82 號","lat":22.275909714630075,"long":22.275909714630075},{"id":8,"name":"駱克道,銅鑼灣廣場一期外","lat":22.280479345323673,"long":22.280479345323673},{"id":9,"name":"景隆街,近總統戲院","lat":22.281466302732174,"long":22.281466302732174}],"routeId":2004089,"description":"通宵服務"},{"company":"gmb","route":"N4C","routeType":2,"orig":"銅鑼灣(景隆街)","dest":"香港仔(石排灣)","stopList":[{"id":1,"name":"景隆街,近總統戲院","lat":22.281466302732174,"long":22.281466302732174},{"id":2,"name":"黃竹坑道36號","lat":22.248383322587486,"long":22.248383322587486},{"id":3,"name":"香港仔海傍道, 逸港居外","lat":22.24756948944506,"long":22.24756948944506},{"id":4,"name":"香港仔海傍道, 香港仔巴士站對面","lat":22.2469698974255,"long":22.2469698974255},{"id":5,"name":"西安街12號對面","lat":22.248847794008388,"long":22.248847794008388},{"id":6,"name":"石排灣邨公共運輸交匯處","lat":22.249991478750136,"long":22.249991478750136}],"routeId":2004089,"description":"通宵服務"}]