[{"company":"gmb","route":"N4X","routeType":1,"orig":"銅鑼灣(景隆街)","dest":"深灣道公共交通總站(循環線)","stopList":[{"id":20011350,"name":"景隆街,近總統戲院","lat":22.281466302732174,"long":22.281466302732174},{"id":20000057,"name":"黃竹坑道, 黃竹坑遊樂場外","lat":22.250279510423415,"long":22.250279510423415},{"id":20000343,"name":"深灣道, 南濤閣第3座外","lat":22.24486085766214,"long":22.24486085766214},{"id":20000160,"name":"深灣道公共交通總站","lat":22.243137411689396,"long":22.243137411689396},{"id":20000240,"name":"黃竹坑道 49-51號","lat":22.249367280637806,"long":22.249367280637806},{"id":20011476,"name":"黃竹坑道, 近香港仔隧道巴士站","lat":22.24994215289587,"long":22.24994215289587},{"id":20011345,"name":"摩理臣山道 80-82 號","lat":22.275909714630075,"long":22.275909714630075},{"id":20011246,"name":"駱克道,銅鑼灣廣場一期外","lat":22.280479345323673,"long":22.280479345323673},{"id":20011350,"name":"景隆街,近總統戲院","lat":22.281466302732174,"long":22.281466302732174}],"routeId":2004093,"description":"通宵服務"}]