[{"company":"kmb","route":"N86","routeType":"1","dir":"O","orig":"錦英苑","dest":"沙田站","stopList":[{"id":"29E6A8ED7109BE28","name":"錦英苑巴士總站","lat":"22.423604","long":"114.237287"},{"id":"4CC126E0B1E42F14","name":"錦龍苑","lat":"22.425909","long":"114.239535"},{"id":"013F884CBCB1CBE4","name":"富寶花園","lat":"22.425459","long":"114.235563"},{"id":"7E2611CD03F9450A","name":"馬鞍山市中心","lat":"22.424602","long":"114.231779"},{"id":"D96A94B0ED4E873A","name":"曾璧山中學","lat":"22.421873","long":"114.228903"},{"id":"96B1EEEF3B7B29A0","name":"耀安巴士總站","lat":"22.419352","long":"114.229687"},{"id":"03354DBC3AD86BAC","name":"頌安邨","lat":"22.420975","long":"114.227292"},{"id":"A07D2012213FC19D","name":"錦鞍苑","lat":"22.418185","long":"114.226226"},{"id":"96012665619E0B98","name":"保泰街","lat":"22.414337","long":"114.223778"},{"id":"C234CA2FB1299922","name":"德信中學","lat":"22.410689","long":"114.221549"},{"id":"BDC2B3601964F0DD","name":"錦泰苑","lat":"22.407981","long":"114.220135"},{"id":"C81CBD93FB2B5C60","name":"富安花園巴士總站","lat":"22.405423","long":"114.223774"},{"id":"34740DD5ABC36F12","name":"亞公角","lat":"22.402205","long":"114.216004"},{"id":"25E1BAE2C272ED4C","name":"沙田醫院","lat":"22.398915","long":"114.212447"},{"id":"0D56ED01EED431BC","name":"新界鄉議局大樓","lat":"22.391394","long":"114.206407"},{"id":"6AE1163C3BD93D0E","name":"沙田第一城","lat":"22.388459","long":"114.201851"},{"id":"7421C8745B4EDF25","name":"禾輋邨","lat":"22.387291","long":"114.196122"},{"id":"8EFA13840D1272E8","name":"瀝源邨","lat":"22.384292","long":"114.193409"},{"id":"99B9CAA698C36C5E","name":"沙田站巴士總站","lat":"22.383102","long":"114.188018"},{"id":"F5EE93BA36E1CEEC","name":"沙田站巴士總站","lat":"22.383536","long":"114.187973"}],"routeId":"N86","description":"正常班次"},{"company":"kmb","route":"N86","routeType":"1","dir":"I","orig":"沙田站","dest":"錦英苑","stopList":[{"id":"F5EE93BA36E1CEEC","name":"沙田站巴士總站","lat":"22.383536","long":"114.187973"},{"id":"537168ECCA2CE578","name":"瀝源邨","lat":"22.384532","long":"114.193274"},{"id":"D85AF13DC2FB0118","name":"禾輋邨","lat":"22.387846","long":"114.196375"},{"id":"91481C9100917BA7","name":"沙田第一城","lat":"22.389405","long":"114.203110"},{"id":"8ECFB7DFFC0023DA","name":"濱景花園","lat":"22.391566","long":"114.206129"},{"id":"33A4BFE372C06BA8","name":"沙田醫院","lat":"22.399874","long":"114.213037"},{"id":"B8BBCCA288E1F862","name":"亞公角","lat":"22.402759","long":"114.216742"},{"id":"9EAC85DD5495DB6F","name":"富安花園巴士總站","lat":"22.405467","long":"114.224149"},{"id":"11A1533C3B63F3E4","name":"錦泰苑","lat":"22.408730","long":"114.220556"},{"id":"1BD5318E1C647F83","name":"德信中學","lat":"22.410914","long":"114.221406"},{"id":"651489E8C0A626A1","name":"海典灣","lat":"22.414325","long":"114.222335"},{"id":"F489213E82621D3F","name":"聽濤雅苑","lat":"22.418966","long":"114.226061"},{"id":"31DA09E74ABD87CD","name":"頌安邨","lat":"22.420741","long":"114.226763"},{"id":"96B1EEEF3B7B29A0","name":"耀安巴士總站","lat":"22.419352","long":"114.229687"},{"id":"5E073AD8BC9F2AC8","name":"曾璧山中學","lat":"22.421847","long":"114.228372"},{"id":"B31E6B9D8E5B4493","name":"福安花園","lat":"22.423627","long":"114.228332"},{"id":"3A450B5AD5AF1605","name":"海栢花園","lat":"22.425043","long":"114.231566"},{"id":"0E2175C0750054FE","name":"雅典居","lat":"22.426028","long":"114.236373"},{"id":"0D4E07F475845DB3","name":"錦龍苑","lat":"22.425786","long":"114.239845"},{"id":"29E6A8ED7109BE28","name":"錦英苑巴士總站","lat":"22.423604","long":"114.237287"}],"routeId":"N86","description":"正常班次"}]