[{"company":"CTB","route":"NA11","routeType":null,"dir":"I","orig":"機場 / 港珠澳大橋香港口岸","dest":"北角碼頭","stopList":[{"id":"003540","name":"港珠澳大橋香港口岸","lat":"22.316366922091","long":"113.95088219053"},{"id":"001837","name":"機場 (地面運輸中心)","lat":"22.314155382091","long":"113.93690708053"},{"id":"001854","name":"青嶼幹線巴士轉乘站","lat":"22.339339292091","long":"114.04211697053"},{"id":"001629","name":"西區海底隧道收費廣場","lat":"22.304233652091","long":"114.15979682053"},{"id":"001028","name":"港澳碼頭, 干諾道中","lat":"22.287714882091","long":"114.15133682053"},{"id":"001029","name":"海港政府大樓, 統一碼頭道","lat":"22.286703242091","long":"114.15535823053"},{"id":"001030","name":"怡和大廈, 干諾道中","lat":"22.282618792091","long":"114.15929917053"},{"id":"001031","name":"大會堂, 干諾道中","lat":"22.281868122091","long":"114.16153245053"},{"id":"001136","name":"金鐘站, 金鐘道","lat":"22.278462002091","long":"114.16453368053"},{"id":"002430","name":"盧押道, 軒尼詩道","lat":"22.277681222091","long":"114.17099800053"},{"id":"002432","name":"菲林明道, 軒尼詩道","lat":"22.277753192091","long":"114.17369502053"},{"id":"002434","name":"史釗域道, 軒尼詩道","lat":"22.278009642091","long":"114.17617122053"},{"id":"002435","name":"杜老誌道, 軒尼詩道","lat":"22.278720922091","long":"114.17909682053"},{"id":"002437","name":"灣仔消防局, 軒尼詩道","lat":"22.279686862091","long":"114.18178779053"},{"id":"002713","name":"糖街, 怡和街","lat":"22.279538732091","long":"114.18684887053"},{"id":"001213","name":"維多利亞公園, 高士威道","lat":"22.281133262091","long":"114.19006592053"},{"id":"001251","name":"興發街","lat":"22.283573922091","long":"114.19109346053"},{"id":"001248","name":"歌頓道","lat":"22.285721352091","long":"114.19103465053"},{"id":"001243","name":"電氣道街市, 電氣道","lat":"22.289384232091","long":"114.19363237053"},{"id":"001244","name":"城市花園, 電氣道","lat":"22.290834522091","long":"114.19491332053"},{"id":"001254","name":"北角道, 渣華道","lat":"22.291788112091","long":"114.19724449053"},{"id":"001249","name":"北角碼頭","lat":"22.293287872091","long":"114.20149753053"}],"routeId":"NA11"},{"company":"CTB","route":"NA11","routeType":null,"dir":"O","orig":"北角碼頭","dest":"機場 / 港珠澳大橋香港口岸","stopList":[{"id":"001249","name":"北角碼頭","lat":"22.293287872091","long":"114.20149753053"},{"id":"001279","name":"琴行街, 英皇道","lat":"22.291204122091","long":"114.20095851053"},{"id":"001281","name":"美麗閣, 英皇道","lat":"22.290567652091","long":"114.19788360053"},{"id":"001282","name":"新時代廣場, 英皇道","lat":"22.289909792091","long":"114.19515688053"},{"id":"001283","name":"炮台山站, 英皇道","lat":"22.288146742091","long":"114.19355472053"},{"id":"001286","name":"清風街, 英皇道","lat":"22.284713662091","long":"114.19291666053"},{"id":"001333","name":"皇仁書院, 銅鑼灣道","lat":"22.280980392091","long":"114.19206074053"},{"id":"001334","name":"中華游樂會, 銅鑼灣道","lat":"22.279131322091","long":"114.19176929053"},{"id":"002454","name":"京士頓街, 告士打道","lat":"22.282567602091","long":"114.18610589053"},{"id":"002414","name":"景隆街, 告士打道","lat":"22.281732142091","long":"114.18280892053"},{"id":"002415","name":"伊利莎伯大廈, 告士打道","lat":"22.281055962091","long":"114.18141062053"},{"id":"002416","name":"史釗域道, 告士打道","lat":"22.279560092091","long":"114.17698751053"},{"id":"002418","name":"柯布連道, 告士打道","lat":"22.279144192091","long":"114.17345730053"},{"id":"002420","name":"分域街, 告士打道","lat":"22.279081842091","long":"114.17113260053"},{"id":"001033","name":"皇后像廣場, 干諾道中","lat":"22.281992192091","long":"114.16003822053"},{"id":"001034","name":"砵典乍街, 干諾道中","lat":"22.283587582091","long":"114.15730419053"},{"id":"001036","name":"租庇利街, 干諾道中","lat":"22.285203642091","long":"114.15604393053"},{"id":"001037","name":"林士街, 干諾道中","lat":"22.286484072091","long":"114.15404315053"},{"id":"001193","name":"皇后街, 干諾道西","lat":"22.288404102091","long":"114.14734488053"},{"id":"001628","name":"西區海底隧道收費廣場","lat":"22.305020162091","long":"114.15920401053"},{"id":"001853","name":"青嶼幹線巴士轉乘站","lat":"22.338232802091","long":"114.04196854053"},{"id":"002714","name":"機場 (1 號客運大樓)","lat":"22.315439732091","long":"113.93622731053"},{"id":"003550","name":"港珠澳大橋旅檢大樓","lat":"22.317023822091","long":"113.95084021053"},{"id":"003540","name":"港珠澳大橋香港口岸","lat":"22.316366922091","long":"113.95088219053"}],"routeId":"NA11"}]