[{"company":"kmb","route":"R269","routeType":"1","dir":"O","orig":"天慈","dest":"尖沙咀東(麼地道)","stopList":[{"id":"868AEC6A9B5704FB","name":"天慈總站","lat":"22.453535","long":"114.006997"},{"id":"D813C93D9AD1C45B","name":"景湖居","lat":"22.458758","long":"114.005056"},{"id":"7BB395B6FE66E102","name":"麗湖居","lat":"22.460342","long":"114.004668"},{"id":"6D4E7B9D5F9584E7","name":"天晴邨晴雲樓","lat":"22.463713","long":"114.003961"},{"id":"47AB1894215AECEE","name":"慧景軒","lat":"22.465772","long":"114.004797"},{"id":"42AEF6365E78DA56","name":"香港濕地公園","lat":"22.469550","long":"114.002584"},{"id":"8753A8442C2FFF53","name":"天逸邨逸潭樓","lat":"22.468468","long":"113.999554"},{"id":"8D56DB404D264D5A","name":"天富苑欣富閣","lat":"22.464353","long":"113.997530"},{"id":"67D80F37744E1277","name":"天頌苑","lat":"22.460740","long":"113.997118"},{"id":"080EF1BEA737A5D3","name":"天瑞邨","lat":"22.456421","long":"113.999460"},{"id":"AFB9321F7CD2C2E4","name":"天水圍公園","lat":"22.454484","long":"114.002970"},{"id":"7898B605E39613A8","name":"天耀邨耀盛樓","lat":"22.452235","long":"114.002089"},{"id":"CB853E4BCBB13F30","name":"天耀邨耀民樓","lat":"22.449650","long":"114.003160"},{"id":"C20316E552E64387","name":"天祐苑","lat":"22.450491","long":"114.006277"},{"id":"1C0A89BD67A4CFF0","name":"鳳池村","lat":"22.446363","long":"114.019325"},{"id":"BCC6E5BA6810FED6","name":"水邊圍邨","lat":"22.444573","long":"114.019835"},{"id":"B02B0B9F73E50D93","name":"元朗廣場 (N3)","lat":"22.444678","long":"114.023992"},{"id":"D54B0CA58FE5559D","name":"元朗同樂街 (N12)","lat":"22.444616","long":"114.028395"},{"id":"51BD0FD05C62F3F4","name":"元朗谷亭街 (N13)","lat":"22.444579","long":"114.030320"},{"id":"53AC50E46ABDA85B","name":"形點 II","lat":"22.446632","long":"114.035263"},{"id":"591FA32FB4B53682","name":"形點 I","lat":"22.445065","long":"114.036445"},{"id":"447C1D79A10C83E2","name":"大欖隧道 (A2)","lat":"22.419898","long":"114.064392"},{"id":"F2508598F5A43655","name":"香港科學館","lat":"22.301061","long":"114.176514"},{"id":"1E5EADCD9F424F07","name":"尖沙咀東（麼地道）","lat":"22.296883","long":"114.175865"}],"routeId":"R269","description":"正常班次"}]