[{"company":"kmb","route":"R270","routeType":"1","dir":"O","orig":"上水","dest":"尖沙咀東(麼地道)","stopList":[{"id":"CF0C67920B22ED62","name":"上水總站","lat":"22.502536","long":"114.128204"},{"id":"98EBAB9468C80DD2","name":"欣翠花園","lat":"22.495428","long":"114.131869"},{"id":"6DD6B837EF1FA76C","name":"嘉盛苑","lat":"22.492421","long":"114.133535"},{"id":"AFD29CB1A4F71AB9","name":"基新中學","lat":"22.491214","long":"114.134960"},{"id":"60952B4A38F3D82E","name":"粉嶺站轉車站 - 粉嶺站(D1)","lat":"22.490997","long":"114.138959"},{"id":"0E41E02CD9055626","name":"景盛苑","lat":"22.487331","long":"114.140641"},{"id":"EE81A30BE4BDC8AC","name":"華心邨","lat":"22.485511","long":"114.142649"},{"id":"F129DD8D9E3268FB","name":"華明總站(C4)","lat":"22.484411","long":"114.141410"},{"id":"D0FB28B8EED62431","name":"欣盛苑","lat":"22.487155","long":"114.140452"},{"id":"FA52803E2628A212","name":"牽晴間","lat":"22.486635","long":"114.143349"},{"id":"2431FF3100478DEE","name":"九龍塘聯合道","lat":"22.337823","long":"114.179256"},{"id":"ED6FCB0422D541F5","name":"九龍塘站","lat":"22.335662","long":"114.179091"},{"id":"850F72123F644500","name":"龍濤花園","lat":"22.331444","long":"114.178818"},{"id":"98FCC750B322B706","name":"九龍醫院","lat":"22.323064","long":"114.178288"},{"id":"66C6FDFC88F56E51","name":"醫療輔助總部","lat":"22.316951","long":"114.178572"},{"id":"7CD8F96A087CDDF2","name":"愛民邨","lat":"22.313102","long":"114.176914"},{"id":"F3D86A2A72FF3582","name":"尖沙咀東（麼地道）","lat":"22.296805","long":"114.176056"}],"routeId":"R270","description":"正常班次"}]