[{"company":"kmb","route":"R307","routeType":"1","dir":"O","orig":"大埔汀太路","dest":"銅鑼灣 (維多利亞公園)","stopList":[{"id":"F9AB54847EF884BB","name":"大埔翠怡街","lat":"22.453706","long":"114.162903"},{"id":"8C1810DE2419A30B","name":"太和站","lat":"22.450873","long":"114.161011"},{"id":"56F79FB1FC157E22","name":"大埔政府合署","lat":"22.450783","long":"114.164431"},{"id":"95B249916F323BD4","name":"大埔平安里","lat":"22.452587","long":"114.165432"},{"id":"F1F1C3A91C6EB439","name":"海寶花園","lat":"22.452967","long":"114.166705"},{"id":"27222F0DE22582ED","name":"大埔中心總站","lat":"22.452896","long":"114.168960"},{"id":"ACDCC9E65172243D","name":"新興花園","lat":"22.452910","long":"114.172626"},{"id":"12E4BAFA2B73435B","name":"廣福邨","lat":"22.446599","long":"114.173474"},{"id":"2431FF3100478DEE","name":"九龍塘聯合道","lat":"22.337823","long":"114.179256"},{"id":"ED6FCB0422D541F5","name":"九龍塘站","lat":"22.335662","long":"114.179091"},{"id":"850F72123F644500","name":"龍濤花園","lat":"22.331444","long":"114.178818"},{"id":"3821D64D2BF1BB66","name":"九龍醫院","lat":"22.323641","long":"114.178381"},{"id":"66C6FDFC88F56E51","name":"醫療輔助總部","lat":"22.316951","long":"114.178572"},{"id":"7CD8F96A087CDDF2","name":"愛民邨","lat":"22.313102","long":"114.176914"},{"id":"4D3CBBDB95447F2E","name":"紅磡海底隧道收費廣場","lat":"22.302826","long":"114.180845"},{"id":"76B4054F2E1F00B0","name":"邊寧頓街","lat":"22.278744","long":"114.185975"},{"id":"17B98BD1165A7B92","name":"維多利亞公園","lat":"22.280958","long":"114.189949"}],"routeId":"R307","description":"特別班次"}]