[{"company":"kmb","route":"R307","routeType":"1","dir":"O","orig":"大埔汀太路","dest":"銅鑼灣 (維多利亞公園)","stopList":[{"id":"F9AB54847EF884BB","name":"大埔翠怡街","lat":"22.453706","long":"114.162903"},{"id":"8C1810DE2419A30B","name":"太和站","lat":"22.450873","long":"114.161011"},{"id":"56F79FB1FC157E22","name":"大埔政府合署","lat":"22.450783","long":"114.164431"},{"id":"95B249916F323BD4","name":"大埔平安里","lat":"22.452587","long":"114.165432"},{"id":"F1F1C3A91C6EB439","name":"海寶花園","lat":"22.452967","long":"114.166705"},{"id":"27222F0DE22582ED","name":"大埔中心總站","lat":"22.452896","long":"114.168960"},{"id":"ACDCC9E65172243D","name":"新興花園","lat":"22.452910","long":"114.172626"},{"id":"12E4BAFA2B73435B","name":"廣福邨","lat":"22.446599","long":"114.173474"},{"id":"2431FF3100478DEE","name":"九龍塘聯合道","lat":"22.337823","long":"114.179256"},{"id":"ED6FCB0422D541F5","name":"九龍塘站","lat":"22.335662","long":"114.179091"},{"id":"850F72123F644500","name":"龍濤花園","lat":"22.331444","long":"114.178818"},{"id":"3821D64D2BF1BB66","name":"九龍醫院","lat":"22.323641","long":"114.178381"},{"id":"66C6FDFC88F56E51","name":"醫療輔助總部","lat":"22.316951","long":"114.178572"},{"id":"7CD8F96A087CDDF2","name":"愛民邨","lat":"22.313102","long":"114.176914"},{"id":"4D3CBBDB95447F2E","name":"紅磡海底隧道收費廣場","lat":"22.302826","long":"114.180845"},{"id":"76B4054F2E1F00B0","name":"邊寧頓街","lat":"22.278744","long":"114.185975"},{"id":"17B98BD1165A7B92","name":"維多利亞公園","lat":"22.280958","long":"114.189949"}],"routeId":"R307","description":"正常班次"},{"company":"ctb","route":"R307","routeType":null,"dir":"O","orig":"大埔 (汀太路)","dest":"銅鑼灣 (維多利亞公園)","stopList":[{"id":"003246","name":"汀太路","lat":"22.453741102091","long":"114.16289250053"},{"id":"003247","name":"太和站, 寶雅路","lat":"22.451148732091","long":"114.16062155053"},{"id":"003248","name":"大埔政府合署, 汀角路","lat":"22.450747302091","long":"114.16457349053"},{"id":"003249","name":"平安里, 汀角路","lat":"22.452111912091","long":"114.16524618053"},{"id":"003250","name":"海寶花園, 安慈路","lat":"22.452927262091","long":"114.16632821053"},{"id":"002021","name":"大埔中心","lat":"22.452921712091","long":"114.16936829053"},{"id":"003227","name":"新興花園, 南運路","lat":"22.452904542091","long":"114.17256034053"},{"id":"002025","name":"廣福邨, 大埔公路","lat":"22.446524302091","long":"114.17352910053"},{"id":"001622","name":"聯合道, 窩打老道","lat":"22.337980182091","long":"114.17926076053"},{"id":"001623","name":"九龍塘站, 窩打老道","lat":"22.335714472091","long":"114.17908178053"},{"id":"001624","name":"龍濤花園, 窩打老道","lat":"22.331146882091","long":"114.17880952053"},{"id":"001625","name":"九龍醫院, 窩打老道","lat":"22.323544842091","long":"114.17836146053"},{"id":"001580","name":"醫療輔助隊總部, 公主道","lat":"22.317200302091","long":"114.17848322053"},{"id":"001581","name":"愛民邨, 公主道","lat":"22.312810302091","long":"114.17687688053"},{"id":"001476","name":"海底隧道收費廣場","lat":"22.303015922091","long":"114.18084154053"},{"id":"002474","name":"邊寧頓街","lat":"22.278458822091","long":"114.18603081053"},{"id":"001213","name":"維多利亞公園, 高士威道","lat":"22.281133262091","long":"114.19006592053"}],"routeId":"R307","description":"正常班次"}]