[{"company":"nwfb","route":"R796","routeType":null,"dir":"O","orig":"日出康城 (經:尚德)","dest":"尖沙咀(麼地道)","stopList":[{"id":"003329","name":"日出康城","lat":"22.295872872091","long":"114.26836001053"},{"id":"002919","name":"峻瀅, 環保大道","lat":"22.297406192091","long":"114.27252052053"},{"id":"002928","name":"日出康城領都, 環保大道","lat":"22.294212732091","long":"114.27339453053"},{"id":"002929","name":"日出康城首都, 環保大道","lat":"22.296755222091","long":"114.27266472053"},{"id":"002930","name":"百勝角, 環保大道","lat":"22.303469562091","long":"114.27138882053"},{"id":"002931","name":"清水灣半島","lat":"22.308858532091","long":"114.26646605053"},{"id":"001818","name":"寶盈花園, 寶邑路","lat":"22.307711102091","long":"114.26217901053"},{"id":"002918","name":"將軍澳站","lat":"22.308567362091","long":"114.26004574053"},{"id":"001823","name":"唐明街公園, 唐明街","lat":"22.310442242091","long":"114.25886195053"},{"id":"003589","name":"將軍澳隧道巴士轉乘站","lat":"22.315073802091","long":"114.24024319053"},{"id":"001419","name":"香港科學館, 漆咸道南","lat":"22.301036952091","long":"114.17648781053"},{"id":"001540","name":"尖沙咀 (麼地道)","lat":"22.296062822091","long":"114.17577963053"}],"routeId":"R796","description":"正常班次"}]