[{"company":"kmb","route":"R934","routeType":"1","dir":"O","orig":"荃灣(灣景花園)","dest":"銅鑼灣(維多利亞公園)","stopList":[{"id":"88F78BDD9BDD7636","name":"灣景花園總站","lat":"22.370163","long":"114.099527"},{"id":"3DD784D9B2C30AFC","name":"麗城花園第一期","lat":"22.373295","long":"114.103022"},{"id":"9B664F8FD4E76E48","name":"祈德尊新邨","lat":"22.371580","long":"114.109574"},{"id":"5FD70A34C55CE590","name":"荃灣港安醫院","lat":"22.376212","long":"114.104470"},{"id":"A6DCDE5BE439B179","name":"荃威花園總站","lat":"22.377435","long":"114.104131"},{"id":"38C7D227DA221E77","name":"荃景圍街市","lat":"22.378249","long":"114.104608"},{"id":"1FBE6A92A88835D3","name":"荃灣中心","lat":"22.378496","long":"114.108818"},{"id":"CF2B9E9382183398","name":"荃景花園第二期","lat":"22.377698","long":"114.110250"},{"id":"C5C940CF1281B923","name":"美環街","lat":"22.376370","long":"114.110711"},{"id":"5941DC3E9FA7BE8B","name":"愉景新城","lat":"22.375009","long":"114.112917"},{"id":"ACCABC765E3F0961","name":"荃灣站","lat":"22.374488","long":"114.115819"},{"id":"CAF9395414DBD090","name":"綠楊新邨","lat":"22.371592","long":"114.121036"},{"id":"06C9926B2E2B304F","name":"紅磡海底隧道收費廣場","lat":"22.303077","long":"114.180907"},{"id":"76B4054F2E1F00B0","name":"邊寧頓街","lat":"22.278744","long":"114.185975"},{"id":"17B98BD1165A7B92","name":"維多利亞公園","lat":"22.280958","long":"114.189949"}],"routeId":"R934","description":"特別班次"}]