[{"company":"KMB","route":"R936","routeType":"1","dir":"O","orig":"荃灣(石圍角)","dest":"銅鑼灣(維多利亞公園)","stopList":[{"id":"873B57DCAC177674","name":"石圍角巴士總站","lat":"22.375931","long":"114.124615"},{"id":"D1A1DF2BDC842EE5","name":"東普陀","lat":"22.378716","long":"114.126958"},{"id":"33A7AB58611A0F6D","name":"三棟屋村","lat":"22.379813","long":"114.129474"},{"id":"0A1DAEAFFDFF0B66","name":"可風中學","lat":"22.380443","long":"114.135135"},{"id":"9FD6AAFA1318E3D9","name":"梨木樹邨","lat":"22.377716","long":"114.137097"},{"id":"03A5552B84E8214B","name":"和宜合道運動場","lat":"22.374165","long":"114.136527"},{"id":"D2ACD052AFD5900A","name":"梨木道","lat":"22.371271","long":"114.136752"},{"id":"8CF45DD1D6B1FA4D","name":"葵涌石蔭路","lat":"22.369775","long":"114.139495"},{"id":"A91E6B3E8A9A7B34","name":"葵涌打磚坪街","lat":"22.367360","long":"114.138988"},{"id":"3C9A7C5FE12B8BCB","name":"石籬(大隴街)總站","lat":"22.365671","long":"114.139247"},{"id":"A7516C49B99EFD78","name":"石籬邨石俊樓","lat":"22.363328","long":"114.137644"},{"id":"C3672D8D28801773","name":"葵涌業成街","lat":"22.360518","long":"114.135930"},{"id":"06C9926B2E2B304F","name":"紅磡海底隧道收費廣場","lat":"22.303077","long":"114.180907"},{"id":"76B4054F2E1F00B0","name":"邊寧頓街","lat":"22.278744","long":"114.185975"},{"id":"17B98BD1165A7B92","name":"維多利亞公園","lat":"22.280958","long":"114.189949"}],"routeId":"R936"}]