[{"company":"KMB","route":"W2","routeType":"1","dir":"O","orig":"觀塘站","dest":"佐敦(西九龍站)","stopList":[{"id":"4117D6530A6543E4","name":"觀塘站 (S6)","lat":"22.311585","long":"114.227827"},{"id":"DA0947682FC19B0B","name":"藍田站","lat":"22.306525","long":"114.233772"},{"id":"FF6E49051D6D9A8C","name":"麗港公園","lat":"22.307955","long":"114.226733"},{"id":"7A95C545D0393126","name":"九龍灣國際展貿中心 (L1)","lat":"22.322033","long":"114.204300"},{"id":"5CCBD9A6B58BF20D","name":"九龍佑寧堂","lat":"22.305649","long":"114.172574"},{"id":"4DB8054CDFBB9E43","name":"西九龍站","lat":"22.304171","long":"114.166525"},{"id":"40D067F126426DC6","name":"佐敦(西九龍站)巴士總站","lat":"22.307550","long":"114.164551"}],"routeId":"W2"},{"company":"KMB","route":"W2","routeType":"1","dir":"I","orig":"佐敦(西九龍站)","dest":"觀塘站","stopList":[{"id":"40D067F126426DC6","name":"佐敦(西九龍站)巴士總站","lat":"22.307550","long":"114.164551"},{"id":"AC8828CF13B8AA49","name":"西九龍站","lat":"22.304014","long":"114.166620"},{"id":"8864CF7D3E4B1EF6","name":"佐敦志和街","lat":"22.305886","long":"114.172499"},{"id":"BE27F066CF40DF7D","name":"九龍灣國際展貿中心 (K1)","lat":"22.322812","long":"114.203806"},{"id":"2EF9764BE18FC290","name":"藍田站","lat":"22.305354","long":"114.234128"},{"id":"4117D6530A6543E4","name":"觀塘站 (S6)","lat":"22.311585","long":"114.227827"}],"routeId":"W2"}]