[{"company":"kmb","route":"W2","routeType":"1","dir":"O","orig":"佐敦(西九龍站)","dest":"觀塘(循環線)","stopList":[{"id":"40D067F126426DC6","name":"佐敦(西九龍站)巴士總站","lat":"22.307550","long":"114.164551"},{"id":"AC8828CF13B8AA49","name":"西九龍站","lat":"22.304014","long":"114.166620"},{"id":"8864CF7D3E4B1EF6","name":"佐敦志和街","lat":"22.305886","long":"114.172499"},{"id":"BE27F066CF40DF7D","name":"啟德隧道轉車站 - 九龍灣展貿 (K","lat":"22.322812","long":"114.203806"},{"id":"07521BB848913F74","name":"九龍灣宏通街","lat":"22.319534","long":"114.207613"},{"id":"5D8FCEF2915882FD","name":"觀塘順業街","lat":"22.316313","long":"114.214785"},{"id":"C2605DED84199B84","name":"觀塘勵業街","lat":"22.314912","long":"114.216362"},{"id":"38B86AC474D1060D","name":"創紀之城 (U5)","lat":"22.314442","long":"114.221302"},{"id":"0B8C52E4C34E3B64","name":"觀塘市中心 (T5)","lat":"22.313264","long":"114.224346"},{"id":"144E9479168069DD","name":"觀塘游泳池 (R2)","lat":"22.310432","long":"114.229545"},{"id":"DA0947682FC19B0B","name":"藍田站","lat":"22.306525","long":"114.233772"},{"id":"2EF9764BE18FC290","name":"藍田站","lat":"22.305354","long":"114.234128"},{"id":"FF6E49051D6D9A8C","name":"麗港公園","lat":"22.307955","long":"114.226733"},{"id":"7A95C545D0393126","name":"啟德隧道轉車站 - 九龍灣展貿 (L","lat":"22.322033","long":"114.204300"},{"id":"5CCBD9A6B58BF20D","name":"九龍佑寧堂","lat":"22.305649","long":"114.172574"},{"id":"4DB8054CDFBB9E43","name":"西九龍站","lat":"22.304171","long":"114.166525"},{"id":"40D067F126426DC6","name":"佐敦(西九龍站)巴士總站","lat":"22.307550","long":"114.164551"}],"routeId":"W2","description":"正常班次"},{"company":"kmb","route":"W2","routeType":"2","dir":"O","orig":"佐敦(西九龍站)","dest":"麗港公園","stopList":[{"id":"40D067F126426DC6","name":"佐敦(西九龍站)巴士總站","lat":"22.307550","long":"114.164551"},{"id":"AC8828CF13B8AA49","name":"西九龍站","lat":"22.304014","long":"114.166620"},{"id":"8864CF7D3E4B1EF6","name":"佐敦志和街","lat":"22.305886","long":"114.172499"},{"id":"BE27F066CF40DF7D","name":"啟德隧道轉車站 - 九龍灣展貿 (K","lat":"22.322812","long":"114.203806"},{"id":"07521BB848913F74","name":"九龍灣宏通街","lat":"22.319534","long":"114.207613"},{"id":"5D8FCEF2915882FD","name":"觀塘順業街","lat":"22.316313","long":"114.214785"},{"id":"C2605DED84199B84","name":"觀塘勵業街","lat":"22.314912","long":"114.216362"},{"id":"38B86AC474D1060D","name":"創紀之城 (U5)","lat":"22.314442","long":"114.221302"},{"id":"0B8C52E4C34E3B64","name":"觀塘市中心 (T5)","lat":"22.313264","long":"114.224346"},{"id":"144E9479168069DD","name":"觀塘游泳池 (R2)","lat":"22.310432","long":"114.229545"},{"id":"DA0947682FC19B0B","name":"藍田站","lat":"22.306525","long":"114.233772"},{"id":"2EF9764BE18FC290","name":"藍田站","lat":"22.305354","long":"114.234128"},{"id":"FF6E49051D6D9A8C","name":"麗港公園","lat":"22.307955","long":"114.226733"}],"routeId":"W2","description":"特別班次"},{"company":"kmb","route":"W2","routeType":"3","dir":"O","orig":"創紀之城","dest":"佐敦(西九龍站)","stopList":[{"id":"38B86AC474D1060D","name":"創紀之城 (U5)","lat":"22.314442","long":"114.221302"},{"id":"0B8C52E4C34E3B64","name":"觀塘市中心 (T5)","lat":"22.313264","long":"114.224346"},{"id":"144E9479168069DD","name":"觀塘游泳池 (R2)","lat":"22.310432","long":"114.229545"},{"id":"DA0947682FC19B0B","name":"藍田站","lat":"22.306525","long":"114.233772"},{"id":"2EF9764BE18FC290","name":"藍田站","lat":"22.305354","long":"114.234128"},{"id":"FF6E49051D6D9A8C","name":"麗港公園","lat":"22.307955","long":"114.226733"},{"id":"7A95C545D0393126","name":"啟德隧道轉車站 - 九龍灣展貿 (L","lat":"22.322033","long":"114.204300"},{"id":"5CCBD9A6B58BF20D","name":"九龍佑寧堂","lat":"22.305649","long":"114.172574"},{"id":"4DB8054CDFBB9E43","name":"西九龍站","lat":"22.304171","long":"114.166525"},{"id":"40D067F126426DC6","name":"佐敦(西九龍站)巴士總站","lat":"22.307550","long":"114.164551"}],"routeId":"W2","description":"特別班次"}]