[{"company":"KMB","route":"W3","routeType":"1","dir":"O","orig":"上水","dest":"佐敦(西九龍站)","stopList":[{"id":"DB3AB8615B901D80","name":"上水總站","lat":"22.502938","long":"114.127197"},{"id":"98EBAB9468C80DD2","name":"欣翠花園","lat":"22.495428","long":"114.131869"},{"id":"6DD6B837EF1FA76C","name":"嘉盛苑","lat":"22.492421","long":"114.133535"},{"id":"0AAF9F132CE224F0","name":"粉嶺站 (D1)","lat":"22.490938","long":"114.139024"},{"id":"0E41E02CD9055626","name":"景盛苑","lat":"22.487331","long":"114.140641"},{"id":"EE81A30BE4BDC8AC","name":"華心邨","lat":"22.485511","long":"114.142649"},{"id":"B09912B0547243D2","name":"翠怡花園","lat":"22.452386","long":"114.163105"},{"id":"512C07C3D131AB5A","name":"大埔超級城","lat":"22.451195","long":"114.169901"},{"id":"062FFE8F1560E8A4","name":"廣福邨","lat":"22.446623","long":"114.173374"},{"id":"FCFE5157EBD8042B","name":"沙田站巴士總站","lat":"22.382993","long":"114.187940"},{"id":"F3433105FE5F6865","name":"青沙公路轉車站 (A3)","lat":"22.358434","long":"114.163265"},{"id":"4DB8054CDFBB9E43","name":"西九龍站","lat":"22.304171","long":"114.166525"},{"id":"041A140AD24C1ADB","name":"佐敦(西九龍站)巴士總站","lat":"22.307550","long":"114.164551"}],"routeId":"W3"},{"company":"KMB","route":"W3","routeType":"1","dir":"I","orig":"佐敦(西九龍站)","dest":"上水","stopList":[{"id":"041A140AD24C1ADB","name":"佐敦(西九龍站)巴士總站","lat":"22.307550","long":"114.164551"},{"id":"01633AD5B1B978B4","name":"西九龍站","lat":"22.304190","long":"114.166528"},{"id":"2F202818B5A6F424","name":"青沙公路轉車站 (B1)","lat":"22.360835","long":"114.163009"},{"id":"99B9CAA698C36C5E","name":"沙田站巴士總站","lat":"22.383102","long":"114.188018"},{"id":"CDB292D507E4302D","name":"廣福邨","lat":"22.446299","long":"114.173076"},{"id":"0A8E2BA2F75E472E","name":"大埔超級城","lat":"22.451004","long":"114.170088"},{"id":"18E4449F4C5CE30B","name":"太和邨","lat":"22.452199","long":"114.163197"},{"id":"14BDB94A8F3ED3EC","name":"花都廣場","lat":"22.485231","long":"114.142756"},{"id":"D0FB28B8EED62431","name":"欣盛苑","lat":"22.487155","long":"114.140452"},{"id":"9D388587636920DA","name":"蓬瀛仙館 (D2)","lat":"22.491000","long":"114.138482"},{"id":"ADB9356BBF06F7C7","name":"嘉盛苑","lat":"22.492093","long":"114.133240"},{"id":"8E3F5AE0A97053F9","name":"華慧園","lat":"22.495493","long":"114.130967"},{"id":"DB3AB8615B901D80","name":"上水總站","lat":"22.502938","long":"114.127197"}],"routeId":"W3"}]