[{"company":"kmb","route":"X6C","routeType":"1","dir":"O","orig":"美孚","dest":"九龍灣","stopList":[{"id":"3856383C8A22904A","name":"美孚巴士總站","lat":"22.337175","long":"114.140229"},{"id":"ACA7282A66D0A29B","name":"大南西街","lat":"22.336102","long":"114.149431"},{"id":"48E68D36FFC315F6","name":"興華街","lat":"22.339730","long":"114.154827"},{"id":"A81F3E1AC5EDEB1F","name":"長發街","lat":"22.338432","long":"114.156468"},{"id":"E29F5375308D6F5C","name":"東京街","lat":"22.336866","long":"114.158522"},{"id":"45AA6AF583A32F40","name":"寶血醫院","lat":"22.334155","long":"114.161989"},{"id":"3AE4D452A5105EFD","name":"北河街","lat":"22.331958","long":"114.164664"},{"id":"A70DCB46EC98F43E","name":"太子站 (S4)","lat":"22.325459","long":"114.168234"},{"id":"80E2DB8AC142F626","name":"旺角站 (S11)","lat":"22.320081","long":"114.169306"},{"id":"E93113C9CA615B0C","name":"旺角豉油街 (S21)","lat":"22.316772","long":"114.170023"},{"id":"D48E82AC2961C581","name":"油麻地文明里 (S31)","lat":"22.312356","long":"114.170893"},{"id":"B0668BFF6178BA0B","name":"勞資審裁處","lat":"22.308049","long":"114.172768"},{"id":"AA97FFC49AE957A5","name":"紅磡山谷道","lat":"22.309361","long":"114.183871"},{"id":"BE27F066CF40DF7D","name":"九龍灣國際展貿中心 (K1)","lat":"22.322812","long":"114.203806"},{"id":"07521BB848913F74","name":"九龍灣宏通街","lat":"22.319534","long":"114.207613"},{"id":"A1C35E976ACF46FD","name":"九龍灣常悅道","lat":"22.321143","long":"114.208979"},{"id":"06834C0C275F4DDC","name":"九龍灣總站","lat":"22.322015","long":"114.207928"}],"routeId":"X6C","description":"特別班次"}]