[{"company":"ctb","route":"X970","routeType":null,"dir":"O","orig":"海怡半島","dest":"長沙灣 (甘泉街)","stopList":[{"id":"002364","name":"海怡半島","lat":"22.242733542091","long":"114.14933054053"},{"id":"002262","name":"海怡半島美暉閣, 海怡路","lat":"22.243157002091","long":"114.14715151053"},{"id":"002263","name":"海怡半島海韻閣, 海怡路","lat":"22.244439312091","long":"114.14732855053"},{"id":"002170","name":"鴨脷洲邨利澤樓, 鴨脷洲橋道","lat":"22.244216852091","long":"114.14986319053"},{"id":"002171","name":"鴨脷洲邨, 鴨脷洲橋道","lat":"22.244050472091","long":"114.15065886053"},{"id":"002172","name":"利枝道, 鴨脷洲橋道","lat":"22.243305822091","long":"114.15525315053"},{"id":"002173","name":"鴨脷洲徑, 鴨脷洲橋道","lat":"22.243626692091","long":"114.15653776053"},{"id":"002160","name":"逸港居, 香港仔海傍道","lat":"22.247488362091","long":"114.15902634053"},{"id":"002161","name":"香港仔海濱公園, 香港仔海傍道","lat":"22.246983922091","long":"114.15584999053"},{"id":"002162","name":"香港仔魚類批發市場, 香港仔海傍道","lat":"22.247980382091","long":"114.15243083053"},{"id":"002163","name":"田灣街, 香港仔海傍道","lat":"22.248632712091","long":"114.14809052053"},{"id":"002227","name":"薄扶林村, 薄扶林道","lat":"22.260643072091","long":"114.13612199053"},{"id":"002231","name":"瑪麗醫院, 薄扶林道","lat":"22.269072732091","long":"114.13063329053"},{"id":"001113","name":"香港大學百周年校園, 薄扶林道","lat":"22.284286232091","long":"114.13491292053"},{"id":"001628","name":"西區海底隧道收費廣場","lat":"22.305020162091","long":"114.15920401053"},{"id":"001777","name":"中匯街, 深旺道","lat":"22.322569492091","long":"114.15982485053"},{"id":"001692","name":"奧運站, 深旺道","lat":"22.318588122091","long":"114.16049646053"},{"id":"001595","name":"富貴街, 大角咀道","lat":"22.318698052091","long":"114.16193982053"},{"id":"001424","name":"銘基書院, 櫻桃街","lat":"22.318762592091","long":"114.16435069053"},{"id":"001585","name":"快富街, 新填地街","lat":"22.319756552091","long":"114.16747074053"},{"id":"001554","name":"弼街, 彌敦道","lat":"22.321742152091","long":"114.16875665053"},{"id":"001555","name":"太子站, 彌敦道","lat":"22.325582342091","long":"114.16796635053"},{"id":"001426","name":"楓樹街, 長沙灣道","lat":"22.328057822091","long":"114.16552576053"},{"id":"001429","name":"北河街, 長沙灣道","lat":"22.330763912091","long":"114.16206981053"},{"id":"002810","name":"怡靖苑, 長沙灣道","lat":"22.332577492091","long":"114.15971148053"},{"id":"001687","name":"貿易廣場, 長沙灣道","lat":"22.336862472091","long":"114.15420404053"},{"id":"002885","name":"長沙灣徑, 長沙灣道","lat":"22.338083142091","long":"114.15072445053"},{"id":"003604","name":"長順街遊樂場, 長沙灣道","lat":"22.336530862091","long":"114.14631818053"},{"id":"003600","name":"長沙灣 (甘泉街)","lat":"22.336912902091","long":"114.14502791053"}],"routeId":"X970","description":"正常班次"}]