[{"company":"kmb","route":"1","routeType":"1","dir":"O","orig":"竹園邨","dest":"尖沙咀碼頭","stopList":[{"id":"18492910339410B1","name":"竹園邨總站 (WT916)","lat":"22.345415","long":"114.192640"},{"id":"9ED7E93749ABAE67","name":"天虹小學 (WT418)","lat":"22.345076","long":"114.190023"},{"id":"9583BCF159B682BA","name":"馬仔坑遊樂場 (WT426)","lat":"22.344296","long":"114.187763"},{"id":"D360B3EBF155C15A","name":"摩士公園 (WT105)","lat":"22.339876","long":"114.189506"},{"id":"713BF17AF24FE4DA","name":"摩士公園體育館 (WT106)","lat":"22.338347","long":"114.189704"},{"id":"7C4E16F4A138B142","name":"偉東樓 (WT572)","lat":"22.335816","long":"114.191616"},{"id":"A47333D8B495F77D","name":"盈東樓 (WT573)","lat":"22.334044","long":"114.191109"},{"id":"946C74E30100FE80","name":"九龍寨城公園 (WT575)","lat":"22.332261","long":"114.187981"},{"id":"C8203D267CECF949","name":"賈炳達道 (KC631)","lat":"22.330135","long":"114.187112"},{"id":"DB581AD59964EA41","name":"太子道西 (KC633)","lat":"22.328025","long":"114.187038"},{"id":"9DBBC71CB1578A87","name":"喇沙利道 (KC738)","lat":"22.326473","long":"114.183159"},{"id":"312CD2A987AA2773","name":"伯爵街 (KC740)","lat":"22.325975","long":"114.180423"},{"id":"40E8A4AA35AEB18A","name":"勵德街 (KC742)","lat":"22.325359","long":"114.176886"},{"id":"60F1DDDCB555E319","name":"拔萃男書院,太子道西 (KC743)","lat":"22.324949","long":"114.174484"},{"id":"65B934D14EA190F1","name":"協和小學, MOKO (MK750)","lat":"22.324613","long":"114.172570"},{"id":"F7CAA2D4FF9D61F7","name":"太子站, 旺角花墟 (MK751)","lat":"22.324126","long":"114.169855"},{"id":"6AB438AD3AE100DD","name":"旺角奶路臣街 (MK515)","lat":"22.318603","long":"114.169603"},{"id":"456320D47FFB5B1A","name":"旺角豉油街 (MK523)","lat":"22.316174","long":"114.170140"},{"id":"5EEA801CA265E5C1","name":"油麻地永星里 (YT542)","lat":"22.311527","long":"114.171044"},{"id":"5241470E37FA628F","name":"油麻地長樂街 (YT552)","lat":"22.306710","long":"114.171641"},{"id":"A6AED77D365E7011","name":"尖沙咀德成街 (YT555)","lat":"22.304530","long":"114.171826"},{"id":"1DEB855D55528B03","name":"金馬倫道,清真寺 (YT560)","lat":"22.298979","long":"114.172114"},{"id":"11A1269F9B78F269","name":"尖沙咀轉車站 - 中間道 (YT562)","lat":"22.295877","long":"114.172442"},{"id":"E507F6160447C129","name":"香港文化中心 (YT634)","lat":"22.294519","long":"114.171217"},{"id":"C88E34E485B43EFB","name":"尖沙咀碼頭,海港城 (YT912)","lat":"22.294304","long":"114.169112"}],"routeId":"1","description":"正常班次"},{"company":"kmb","route":"1","routeType":"1","dir":"I","orig":"尖沙咀碼頭","dest":"竹園邨","stopList":[{"id":"C88E34E485B43EFB","name":"尖沙咀碼頭,海港城 (YT912)","lat":"22.294304","long":"114.169112"},{"id":"AB057A63C24E990E","name":"尖沙咀轉車站 - 中間道 (YT102)","lat":"22.296050","long":"114.172172"},{"id":"2946BA6CACA326DF","name":"金巴利道 (YT111)","lat":"22.300018","long":"114.171904"},{"id":"6C34AE386C779E0B","name":"寶靈街,恆豐中心 (YT121)","lat":"22.304695","long":"114.171587"},{"id":"3C9C928E1674AB98","name":"九龍中央郵政局 (YT135)","lat":"22.309296","long":"114.171138"},{"id":"775FC7E2B86C4E3F","name":"油麻地文明里 (YT139)","lat":"22.311068","long":"114.170860"},{"id":"01A56227D21AFB04","name":"旺角長沙街,信和中心 (MK161)","lat":"22.315797","long":"114.169950"},{"id":"221A18C37331E6FD","name":"旺角奶路臣街 (MK174)","lat":"22.318521","long":"114.169408"},{"id":"3C50188583DABFC8","name":"港九潮州公學 洗衣街 (MK350)","lat":"22.321874","long":"114.171093"},{"id":"EA59A314ABB9386E","name":"伊利沙伯中學 洗衣街 (MK351)","lat":"22.323508","long":"114.170771"},{"id":"1D70AD74F1C97404","name":"太子站, 旺角警署 (MK356)","lat":"22.324645","long":"114.169348"},{"id":"6045969736940272","name":"花墟公園 (MK234)","lat":"22.326866","long":"114.173105"},{"id":"F851B0B122F38CCC","name":"明愛太子宿舍 (KC240)","lat":"22.326955","long":"114.176894"},{"id":"C4F65410A7A2E8B6","name":"喇沙小學 (KC243)","lat":"22.327132","long":"114.180671"},{"id":"1E58DF8CAD59712E","name":"聖德肋撒醫院 (KC245)","lat":"22.327382","long":"114.185584"},{"id":"FD45CEE7D2E4A9BF","name":"衙前圍道 (KC560)","lat":"22.328490","long":"114.186330"},{"id":"C6F9EC39B9F09F32","name":"東寶庭道 (KC561)","lat":"22.330563","long":"114.186481"},{"id":"0021600EF3DBEF94","name":"九龍寨城公園 (WT115)","lat":"22.332460","long":"114.188921"},{"id":"26DE86F5E667C410","name":"美東樓 (WT116)","lat":"22.333067","long":"114.190213"},{"id":"B8626845E031C9CF","name":"摩士露天劇場 (WT117)","lat":"22.336181","long":"114.191437"},{"id":"E1EAFF3759608D41","name":"康強苑 (WT431)","lat":"22.337390","long":"114.190305"},{"id":"F2794804DD8799B4","name":"宏業樓 (WT432)","lat":"22.340330","long":"114.189207"},{"id":"CEACD1DF9F00EF44","name":"天宏苑 (WT145)","lat":"22.344413","long":"114.187669"},{"id":"6E410E80F8C9915B","name":"天虹小學 (WT150)","lat":"22.345294","long":"114.189927"},{"id":"18492910339410B1","name":"竹園邨總站 (WT916)","lat":"22.345415","long":"114.192640"}],"routeId":"1","description":"正常班次"},{"company":"ctb","route":"1","routeType":null,"dir":"I","orig":"跑馬地 (上)","dest":"中環 (港澳碼頭)","stopList":[{"id":"002403","name":"跑馬地 (上)","lat":"22.264400","long":"114.188642"},{"id":"002402","name":"箕璉坊, 藍塘道","lat":"22.265581","long":"114.188732"},{"id":"002492","name":"桂芳街, 成和道","lat":"22.266827","long":"114.187444"},{"id":"002493","name":"山村道, 成和道","lat":"22.268295","long":"114.186475"},{"id":"002453","name":"景光街","lat":"22.268940","long":"114.184839"},{"id":"002552","name":"養和醫院, 黃泥涌道","lat":"22.270151","long":"114.182671"},{"id":"002553","name":"跑馬地馬場, 黃泥涌道","lat":"22.271341","long":"114.180757"},{"id":"002467","name":"立德里, 摩理臣山道","lat":"22.276064","long":"114.180208"},{"id":"002566","name":"利景酒店, 灣仔道","lat":"22.277833","long":"114.179165"},{"id":"002537","name":"普樂里, 灣仔道","lat":"22.276799","long":"114.175973"},{"id":"002446","name":"修頓球場, 軒尼詩道","lat":"22.277433","long":"114.171879"},{"id":"002449","name":"晏頓街, 軒尼詩道","lat":"22.277666","long":"114.168839"},{"id":"001140","name":"金鐘 - 太古廣場, 金鐘道","lat":"22.278071","long":"114.164867"},{"id":"001142","name":"中銀大廈, 金鐘道","lat":"22.279480","long":"114.162144"},{"id":"001054","name":"置地廣場, 德輔道中","lat":"22.281316","long":"114.158251"},{"id":"001056","name":"中環街市, 德輔道中","lat":"22.284855","long":"114.155394"},{"id":"001175","name":"急庇利街, 德輔道中","lat":"22.286598","long":"114.151576"},{"id":"001027","name":"中環 (港澳碼頭)","lat":"22.288274","long":"114.150422"}],"routeId":"1","description":"正常班次"},{"company":"ctb","route":"1","routeType":null,"dir":"O","orig":"中環 (港澳碼頭)","dest":"跑馬地 (上)","stopList":[{"id":"001027","name":"中環 (港澳碼頭)","lat":"22.288274","long":"114.150422"},{"id":"001044","name":"林士街, 德輔道中","lat":"22.286050","long":"114.153728"},{"id":"001173","name":"恒生銀行總行大廈, 德輔道中","lat":"22.284360","long":"114.155968"},{"id":"001049","name":"德忌利士街, 德輔道中","lat":"22.282866","long":"114.157178"},{"id":"001050","name":"歷山大廈, 德輔道中","lat":"22.281459","long":"114.158300"},{"id":"001052","name":"遮打花園, 德輔道中","lat":"22.280109","long":"114.160646"},{"id":"001025","name":"皇后像廣場, 遮打道","lat":"22.281482","long":"114.160055"},{"id":"003845","name":"金鐘 - 金鐘廊, 金鐘道","lat":"22.278485","long":"114.164478"},{"id":"002427","name":"軍器廠街, 軒尼詩道","lat":"22.277849","long":"114.168945"},{"id":"002431","name":"柯布連道, 軒尼詩道","lat":"22.277694","long":"114.173130"},{"id":"002412","name":"譚臣道, 菲林明道","lat":"22.277403","long":"114.174860"},{"id":"002539","name":"克街, 灣仔道","lat":"22.277182","long":"114.177176"},{"id":"002540","name":"天樂里, 灣仔道","lat":"22.277899","long":"114.179164"},{"id":"002548","name":"樂活道, 黃泥涌道","lat":"22.274366","long":"114.183453"},{"id":"002549","name":"雅谷大廈, 黃泥涌道","lat":"22.272085","long":"114.184554"},{"id":"002550","name":"跑馬地 (下)","lat":"22.270338","long":"114.184831"},{"id":"002490","name":"奕蔭街, 成和道","lat":"22.269795","long":"114.184847"},{"id":"002491","name":"昇平樓, 成和道","lat":"22.267819","long":"114.186854"},{"id":"002560","name":"箕璉坊","lat":"22.265346","long":"114.188558"},{"id":"002403","name":"跑馬地 (上)","lat":"22.264400","long":"114.188642"}],"routeId":"1","description":"正常班次"},{"company":"nlb","route":"1","routeType":null,"dir":null,"orig":"梅窩碼頭","dest":"大澳","stopList":[{"id":"1","name":"梅窩碼頭","lat":"22.264664","long":"114.001554","street":"梅窩碼頭","fare":"12.7","fareHoliday":"21.4"},{"id":"2","name":"梅窩熟食市場","lat":"22.266143","long":"114.000049","street":"銀礦灣道","fare":"12.7","fareHoliday":"21.4"},{"id":"3","name":"銀灣邨","lat":"22.265406","long":"113.997074","street":"銀礦灣道","fare":"12.7","fareHoliday":"21.4"},{"id":"4","name":"梅窩街市","lat":"22.266759","long":"113.996999","street":"銀石街","fare":"12.7","fareHoliday":"21.4"},{"id":"5","name":"銀景中心","lat":"22.265537","long":"113.996965","street":"銀礦灣道","fare":"12.7","fareHoliday":"21.4"},{"id":"6","name":"銀鑛灣濾水廠","lat":"22.262966","long":"113.997826","street":"嶼南道","fare":"12.7","fareHoliday":"21.4"},{"id":"7","name":"荔枝園","lat":"22.260758","long":"113.996477","street":"嶼南道","fare":"12.7","fareHoliday":"21.4"},{"id":"8","name":"南山三屋村","lat":"22.257072","long":"113.990108","street":"嶼南道","fare":"12.7","fareHoliday":"21.4"},{"id":"9","name":"南山營地","lat":"22.255451","long":"113.986811","street":"嶼南道","fare":"12.7","fareHoliday":"21.4"},{"id":"10","name":"太古職員宿舍","lat":"22.251918","long":"113.984887","street":"嶼南道","fare":"12.7","fareHoliday":"21.4"},{"id":"11","name":"貝澳油站","lat":"22.247311","long":"113.980985","street":"嶼南道","fare":"11.9","fareHoliday":"20.0"},{"id":"12","name":"老圍村","lat":"22.244252","long":"113.979236","street":"嶼南道","fare":"11.9","fareHoliday":"20.0"},{"id":"13","name":"新圍村","lat":"22.243476","long":"113.978178","street":"嶼南道","fare":"11.9","fareHoliday":"20.0"},{"id":"14","name":"羅屋村","lat":"22.243192","long":"113.974885","street":"嶼南道","fare":"11.9","fareHoliday":"20.0"},{"id":"15","name":"牛坳園","lat":"22.243041","long":"113.972545","street":"嶼南道","fare":"11.9","fareHoliday":"20.0"},{"id":"16","name":"散石灣中蘆","lat":"22.241244","long":"113.969105","street":"嶼南道","fare":"9.4","fareHoliday":"16.3"},{"id":"17","name":"散石灣村","lat":"22.238928","long":"113.966772","street":"嶼南道","fare":"9.4","fareHoliday":"16.3"},{"id":"18","name":"女青年會梁紹榮度假村","lat":"22.237484","long":"113.964001","street":"嶼南道","fare":"9.4","fareHoliday":"16.3"},{"id":"83","name":"散石灣迴旋處","lat":"22.236544","long":"113.962550","street":"嶼南道","fare":"9.4","fareHoliday":"16.3"},{"id":"19","name":"長沙上村","lat":"22.235238","long":"113.961739","street":"嶼南道","fare":"9.4","fareHoliday":"16.3"},{"id":"20","name":"長沙警署","lat":"22.233772","long":"113.960211","street":"嶼南道","fare":"9.4","fareHoliday":"16.3"},{"id":"21","name":"長沙下村","lat":"22.234787","long":"113.957232","street":"嶼南道","fare":"9.4","fareHoliday":"16.3"},{"id":"22","name":"長沙消防局","lat":"22.236632","long":"113.954349","street":"嶼南道","fare":"9.4","fareHoliday":"16.3"},{"id":"23","name":"麗濱別墅","lat":"22.236217","long":"113.951916","street":"嶼南道","fare":"9.4","fareHoliday":"16.3"},{"id":"24","name":"蝶崗","lat":"22.234540","long":"113.948841","street":"嶼南道","fare":"9.4","fareHoliday":"16.3"},{"id":"25","name":"長沙大橋","lat":"22.233389","long":"113.946977","street":"嶼南道","fare":"9.4","fareHoliday":"16.3"},{"id":"26","name":"上長沙泳灘","lat":"22.230877","long":"113.941525","street":"嶼南道","fare":"9.4","fareHoliday":"16.3"},{"id":"27","name":"塘福海灘","lat":"22.228509","long":"113.935339","street":"嶼南道","fare":"6.6","fareHoliday":"13.0"},{"id":"28","name":"塘福村","lat":"22.227565","long":"113.932706","street":"嶼南道","fare":"6.6","fareHoliday":"13.0"},{"id":"32","name":"塘福懲教所","lat":"22.228764","long":"113.926084","street":"嶼南道","fare":"6.6","fareHoliday":"13.0"},{"id":"30","name":"麻埔坪村","lat":"22.229926","long":"113.928050","street":"麻埔坪道","fare":"6.6","fareHoliday":"13.0"},{"id":"31","name":"麻埔坪道口","lat":"22.226018","long":"113.929495","street":"嶼南道","fare":"6.6","fareHoliday":"13.0"},{"id":"178","name":"南大嶼山海底電纜站","lat":"22.225272","long":"113.928661","street":"嶼南道","fare":"6.6","fareHoliday":"13.0"},{"id":"33","name":"上橫壟","lat":"22.223348","long":"113.920624","street":"嶼南道","fare":"6.6","fareHoliday":"13.0"},{"id":"34","name":"下橫壟","lat":"22.222305","long":"113.919741","street":"嶼南道","fare":"6.6","fareHoliday":"13.0"},{"id":"35","name":"水口村(東)","lat":"22.221565","long":"113.916059","street":"嶼南道","fare":"6.6","fareHoliday":"13.0"},{"id":"36","name":"水口村","lat":"22.220989","long":"113.914318","street":"嶼南道","fare":"6.6","fareHoliday":"13.0"},{"id":"37","name":"四眼馬","lat":"22.221913","long":"113.910370","street":"嶼南道","fare":"6.6","fareHoliday":"13.0"},{"id":"38","name":"水口直升機場","lat":"22.223532","long":"113.908063","street":"嶼南道","fare":"6.6","fareHoliday":"13.0"},{"id":"39","name":"石壁警崗","lat":"22.225862","long":"113.897720","street":"嶼南道","fare":"5.0","fareHoliday":"7.4"},{"id":"40","name":"沙咀懲教所","lat":"22.224969","long":"113.893487","street":"石壁水塘道","fare":"5.0","fareHoliday":"7.4"},{"id":"41","name":"沙咀","lat":"22.228328","long":"113.890600","street":"姜山道","fare":"5.0","fareHoliday":"7.4"},{"id":"42","name":"石壁坳引水道通道","lat":"22.239451","long":"113.893697","street":"姜山道","fare":"5.0","fareHoliday":"7.4"},{"id":"58","name":"深屈道","lat":"22.245054","long":"113.891193","street":"深屈道","fare":"2.8","fareHoliday":"5.6"},{"id":"44","name":"法華苑","lat":"22.246122","long":"113.889042","street":"姜山道","fare":"2.8","fareHoliday":"5.6"},{"id":"45","name":"三緣精舍","lat":"22.246435","long":"113.886242","street":"姜山道","fare":"2.8","fareHoliday":"5.6"},{"id":"46","name":"成輝果園","lat":"22.243820","long":"113.884209","street":"姜山道","fare":"2.8","fareHoliday":"5.6"},{"id":"47","name":"觀音寺","lat":"22.242256","long":"113.882991","street":"姜山道","fare":"2.8","fareHoliday":"5.6"},{"id":"48","name":"龍仔","lat":"22.240816","long":"113.881022","street":"大澳道","fare":"2.8","fareHoliday":"5.6"},{"id":"49","name":"羌山管理站","lat":"22.242032","long":"113.878823","street":"大澳道","fare":"2.8","fareHoliday":"5.6"},{"id":"84","name":"新鳳村","lat":"22.243571","long":"113.876972","street":"大澳道","fare":"2.8","fareHoliday":"5.6"},{"id":"51","name":"靈隱寺","lat":"22.244018","long":"113.875009","street":"大澳道","fare":"2.8","fareHoliday":"5.6"},{"id":"52","name":"坑尾","lat":"22.250656","long":"113.869062","street":"大澳道","fare":"2.8","fareHoliday":"5.6"},{"id":"53","name":"佛教筏可紀念中學","lat":"22.252033","long":"113.866988","street":"大澳道","fare":"2.8","fareHoliday":"5.6"},{"id":"54","name":"龍田邨","lat":"22.252326","long":"113.864976","street":"大澳道","fare":"2.8","fareHoliday":"5.6"},{"id":"55","name":"大澳","lat":"22.252783","long":"113.862160","street":"大澳道","fare":"0.0","fareHoliday":"0.0"}],"routeId":"1","description":"正常班次"},{"company":"nlb","route":"1","routeType":null,"dir":null,"orig":"大澳","dest":"梅窩碼頭","stopList":[{"id":"221","name":"大澳","lat":"22.252783","long":"113.862160","street":"大澳道","fare":"12.7","fareHoliday":"21.4"},{"id":"222","name":"龍田邨","lat":"22.252521","long":"113.865005","street":"大澳道","fare":"12.7","fareHoliday":"21.4"},{"id":"224","name":"坑尾","lat":"22.250832","long":"113.869306","street":"大澳道","fare":"12.7","fareHoliday":"21.4"},{"id":"225","name":"靈隱寺","lat":"22.244287","long":"113.875107","street":"大澳道","fare":"12.7","fareHoliday":"21.4"},{"id":"226","name":"新鳳村","lat":"22.243900","long":"113.877006","street":"大澳道","fare":"12.7","fareHoliday":"21.4"},{"id":"227","name":"羌山管理站","lat":"22.242182","long":"113.879051","street":"大澳道","fare":"12.7","fareHoliday":"21.4"},{"id":"228","name":"龍仔","lat":"22.241370","long":"113.881392","street":"大澳道","fare":"12.7","fareHoliday":"21.4"},{"id":"229","name":"成輝果園","lat":"22.244001","long":"113.883995","street":"姜山道","fare":"11.9","fareHoliday":"20.0"},{"id":"230","name":"三緣精舍","lat":"22.246711","long":"113.885968","street":"姜山道","fare":"11.9","fareHoliday":"20.0"},{"id":"232","name":"法華苑","lat":"22.246221","long":"113.888872","street":"姜山道","fare":"11.9","fareHoliday":"20.0"},{"id":"233","name":"深屈道","lat":"22.244592","long":"113.891879","street":"深屈道","fare":"11.9","fareHoliday":"20.0"},{"id":"234","name":"石壁坳引水道通道","lat":"22.239179","long":"113.893975","street":"姜山道","fare":"9.4","fareHoliday":"16.3"},{"id":"235","name":"沙咀","lat":"22.228503","long":"113.891105","street":"姜山道","fare":"9.4","fareHoliday":"16.3"},{"id":"40","name":"沙咀懲教所","lat":"22.224969","long":"113.893487","street":"石壁水塘道","fare":"9.4","fareHoliday":"16.3"},{"id":"236","name":"石壁警崗","lat":"22.226119","long":"113.898134","street":"嶼南道","fare":"9.4","fareHoliday":"16.3"},{"id":"237","name":"水口直升機場","lat":"22.223703","long":"113.908325","street":"嶼南道","fare":"6.6","fareHoliday":"13.0"},{"id":"238","name":"四眼馬","lat":"22.222054","long":"113.910632","street":"嶼南道","fare":"6.6","fareHoliday":"13.0"},{"id":"239","name":"水口村","lat":"22.221101","long":"113.914173","street":"嶼南道","fare":"6.6","fareHoliday":"13.0"},{"id":"240","name":"水口村(東)","lat":"22.221841","long":"113.915763","street":"嶼南道","fare":"6.6","fareHoliday":"13.0"},{"id":"241","name":"下橫壟","lat":"22.222050","long":"113.919234","street":"嶼南道","fare":"6.6","fareHoliday":"13.0"},{"id":"242","name":"上橫壟","lat":"22.224358","long":"113.921077","street":"嶼南道","fare":"6.6","fareHoliday":"13.0"},{"id":"243","name":"南大嶼山海底電纜站","lat":"22.225883","long":"113.927180","street":"嶼南道","fare":"6.6","fareHoliday":"13.0"},{"id":"244","name":"麻埔坪道口","lat":"22.226583","long":"113.930077","street":"嶼南道","fare":"6.6","fareHoliday":"13.0"},{"id":"245","name":"塘福村","lat":"22.227763","long":"113.932397","street":"嶼南道","fare":"6.6","fareHoliday":"13.0"},{"id":"246","name":"塘福海灘","lat":"22.228941","long":"113.935944","street":"嶼南道","fare":"6.6","fareHoliday":"13.0"},{"id":"247","name":"上長沙泳灘","lat":"22.231329","long":"113.941766","street":"嶼南道","fare":"6.6","fareHoliday":"13.0"},{"id":"248","name":"長沙大橋","lat":"22.233979","long":"113.947366","street":"嶼南道","fare":"6.6","fareHoliday":"13.0"},{"id":"249","name":"蝶崗","lat":"22.235062","long":"113.949298","street":"嶼南道","fare":"5.0","fareHoliday":"7.4"},{"id":"250","name":"麗濱別墅","lat":"22.236472","long":"113.951424","street":"嶼南道","fare":"5.0","fareHoliday":"7.4"},{"id":"251","name":"長沙消防局","lat":"22.236803","long":"113.955434","street":"嶼南道","fare":"5.0","fareHoliday":"7.4"},{"id":"252","name":"長沙下村","lat":"22.234965","long":"113.957170","street":"嶼南道","fare":"5.0","fareHoliday":"7.4"},{"id":"253","name":"長沙警署","lat":"22.233964","long":"113.960174","street":"嶼南道","fare":"5.0","fareHoliday":"7.4"},{"id":"254","name":"長沙上村","lat":"22.235330","long":"113.961547","street":"嶼南道","fare":"5.0","fareHoliday":"7.4"},{"id":"255","name":"散石灣迴旋處","lat":"22.236727","long":"113.962424","street":"嶼南道","fare":"5.0","fareHoliday":"7.4"},{"id":"256","name":"女青年會梁紹榮度假村","lat":"22.237768","long":"113.963973","street":"嶼南道","fare":"5.0","fareHoliday":"7.4"},{"id":"257","name":"散石灣村","lat":"22.239024","long":"113.966526","street":"嶼南道","fare":"5.0","fareHoliday":"7.4"},{"id":"258","name":"散石灣中蘆","lat":"22.241255","long":"113.968666","street":"嶼南道","fare":"5.0","fareHoliday":"7.4"},{"id":"259","name":"羅屋村","lat":"22.243375","long":"113.974832","street":"嶼南道","fare":"3.7","fareHoliday":"6.1"},{"id":"260","name":"新圍村","lat":"22.243476","long":"113.977322","street":"嶼南道","fare":"3.7","fareHoliday":"6.1"},{"id":"261","name":"老圍村","lat":"22.244440","long":"113.979000","street":"嶼南道","fare":"3.7","fareHoliday":"6.1"},{"id":"262","name":"貝澳油站","lat":"22.247501","long":"113.980770","street":"嶼南道","fare":"3.7","fareHoliday":"6.1"},{"id":"263","name":"太古職員宿舍","lat":"22.252120","long":"113.984745","street":"嶼南道","fare":"2.8","fareHoliday":"5.6"},{"id":"264","name":"南山營地","lat":"22.256067","long":"113.987470","street":"嶼南道","fare":"2.8","fareHoliday":"5.6"},{"id":"265","name":"南山三屋村","lat":"22.257327","long":"113.989901","street":"嶼南道","fare":"2.8","fareHoliday":"5.6"},{"id":"56","name":"禮智園墳場","lat":"22.259327","long":"113.993993","street":"嶼南道","fare":"2.8","fareHoliday":"5.6"},{"id":"266","name":"荔枝園","lat":"22.260667","long":"113.996268","street":"嶼南道","fare":"2.8","fareHoliday":"5.6"},{"id":"57","name":"梅窩警署","lat":"22.264093","long":"113.998906","street":"嶼南道","fare":"2.8","fareHoliday":"5.6"},{"id":"2","name":"梅窩熟食市場","lat":"22.266143","long":"114.000049","street":"銀礦灣道","fare":"2.8","fareHoliday":"5.6"},{"id":"3","name":"銀灣邨","lat":"22.265406","long":"113.997074","street":"銀礦灣道","fare":"2.8","fareHoliday":"5.6"},{"id":"4","name":"梅窩街市","lat":"22.266759","long":"113.996999","street":"銀石街","fare":"2.8","fareHoliday":"5.6"},{"id":"5","name":"銀景中心","lat":"22.265537","long":"113.996965","street":"銀礦灣道","fare":"2.8","fareHoliday":"5.6"},{"id":"305","name":"梅窩碼頭","lat":"22.264664","long":"114.001554","street":"梅窩碼頭","fare":"0.0","fareHoliday":"0.0"}],"routeId":"2","description":"正常班次"},{"company":"gmb","route":"1","routeType":1,"orig":"山頂(公共交通總站)","dest":"中環(香港站公共運輸交匯處)","stopList":[{"id":20014489,"name":"山頂廣場（下層巴士總站）","lat":"22.270085","long":"114.149883"},{"id":20014490,"name":"山頂道, 近山頂道五十六號Ｂ","lat":"22.268321","long":"114.162924"},{"id":20014491,"name":"雪廠街, 近印刷行","lat":"22.279717","long":"114.157242"},{"id":20000024,"name":"畢打街, 近中環站 D1 出口","lat":"22.281777","long":"114.157283"},{"id":20000295,"name":"康樂廣場, 交易廣場外","lat":"22.283229","long":"114.158587"},{"id":20014492,"name":"香港站小巴總站","lat":"22.285916","long":"114.158450"}],"routeId":2006408,"description":"正常班次"},{"company":"gmb","route":"1","routeType":2,"orig":"中環(香港站公共運輸交匯處)","dest":"山頂(公共交通總站)","stopList":[{"id":20014492,"name":"香港站小巴總站","lat":"22.285916","long":"114.158450"},{"id":20004107,"name":"民祥街, 近國際金融中心二期","lat":"22.285074","long":"114.158602"},{"id":20006958,"name":"干諾道中, 近大會堂","lat":"22.281931","long":"114.161330"},{"id":20000026,"name":"紅棉路, 香港壁球中心外","lat":"22.277624","long":"114.160418"},{"id":20014493,"name":"山頂道, 近摘星閣第７座","lat":"22.268549","long":"114.163622"},{"id":20014494,"name":"加列山道, 近明德國際醫院","lat":"22.260157","long":"114.149545"},{"id":20014489,"name":"山頂廣場（下層巴士總站）","lat":"22.270085","long":"114.149883"}],"routeId":2006408,"description":"正常班次"},{"company":"gmb","route":"1","routeType":1,"orig":"西貢","dest":"九龍灣(德福花園)","stopList":[{"id":20001112,"name":"福民路小巴總站, 經華樓外","lat":"22.381610","long":"114.273424"},{"id":20001113,"name":"西貢公路, 白沙灣遊艇會外","lat":"22.364821","long":"114.259431"},{"id":20001114,"name":"西貢公路, 匡湖居外","lat":"22.359731","long":"114.252486"},{"id":20001993,"name":"清水灣道, 松濤苑對面","lat":"22.343710","long":"114.253691"},{"id":20001996,"name":"清水灣道, 井欄樹","lat":"22.334000","long":"114.237883"},{"id":20000566,"name":"清水灣道, 彩雲商場\t","lat":"22.333474","long":"114.214790"},{"id":20001117,"name":"清水灣道(西行線), 坪石邨紅石樓外小巴停車坑 ","lat":"22.333937","long":"114.208430"},{"id":20001115,"name":"德福廣場2期地面","lat":"22.321744","long":"114.213253"}],"routeId":2002337,"description":"正常班次"},{"company":"gmb","route":"1","routeType":2,"orig":"九龍灣(德福花園)","dest":"西貢","stopList":[{"id":20001115,"name":"德福廣場2期地面","lat":"22.321744","long":"114.213253"},{"id":20001116,"name":"龍翔道, 近牛池灣消防局","lat":"22.335020","long":"114.208131"},{"id":20001999,"name":"井欄樹","lat":"22.334154","long":"114.237339"},{"id":20001112,"name":"福民路小巴總站, 經華樓外","lat":"22.381610","long":"114.273424"}],"routeId":2002337,"description":"正常班次"}]