[{"company":"gmb","route":"102S","routeType":1,"orig":"坑口站公共運輸交匯處","dest":"新蒲崗","stopList":[{"id":20002597,"name":"坑口站公共運輸交匯處","lat":"22.315846","long":"114.264245"},{"id":20001164,"name":"寶寧路, 近厚德邨德富樓","lat":"22.319169","long":"114.264073"},{"id":20001951,"name":"寶順道, 近頌明苑輝明閣","lat":"22.318005","long":"114.262189"},{"id":20007034,"name":"觀塘道, 近嘉域大廈","lat":"22.313578","long":"114.222859"},{"id":20010526,"name":"觀塘道, 近創紀之城三期","lat":"22.314658","long":"114.219910"},{"id":20001955,"name":"觀塘道, 近志聯工廠大廈","lat":"22.316957","long":"114.215368"},{"id":20014914,"name":"觀塘道近, 牛頭角下邨貴輝樓","lat":"22.319755","long":"114.214536"},{"id":20001957,"name":"觀塘道, 近德福花園T2座","lat":"22.325040","long":"114.213972"},{"id":20010530,"name":"彩霞道, 近啓泰苑啓勳閣","lat":"22.328751","long":"114.211760"},{"id":20000985,"name":"龍翔道, 近彩虹邨紅萼樓","lat":"22.337197","long":"114.205802"},{"id":20001961,"name":"彩虹道, 近緯綸工業大廈","lat":"22.338534","long":"114.200589"},{"id":20000969,"name":"大有街, 近善美工業大廈","lat":"22.336810","long":"114.197832"},{"id":20001963,"name":"康強街, 近康強大樓","lat":"22.334751","long":"114.197327"}],"routeId":2003900,"description":"通宵路線"},{"company":"gmb","route":"102S","routeType":2,"orig":"新蒲崗","dest":"坑口站公共運輸交匯處","stopList":[{"id":20001963,"name":"康強街, 近康強大樓","lat":"22.334751","long":"114.197327"},{"id":20000923,"name":"太子道東, 近彩虹邨紫薇樓","lat":"22.333160","long":"114.207218"},{"id":20001058,"name":"彩石里, 近聖若瑟英文小學","lat":"22.330540","long":"114.210499"},{"id":20001966,"name":"觀塘道, 近德福花園Ｔ１座","lat":"22.324670","long":"114.214351"},{"id":20001060,"name":"觀塘道, 近牛頭角下邨貴亮樓","lat":"22.322096","long":"114.214602"},{"id":20001968,"name":"觀塘道, 近德明樓","lat":"22.318538","long":"114.214970"},{"id":20001969,"name":"觀塘道, 近安祥大樓","lat":"22.317093","long":"114.215601"},{"id":20014915,"name":"觀塘道, 近牛頭角站","lat":"22.315355","long":"114.218995"},{"id":20001970,"name":"觀塘道, 近裕民中心第二座","lat":"22.313984","long":"114.222568"},{"id":20001972,"name":"鯉魚門道, 近觀塘游泳池","lat":"22.310478","long":"114.229429"},{"id":20010574,"name":"將軍澳道, 近觀塘遊樂場","lat":"22.310385","long":"114.230974"},{"id":20001973,"name":"寶順路, 近景林邨景榕樓","lat":"22.318258","long":"114.261743"},{"id":20002563,"name":"重華路, 近厚德邨TKO Gateway","lat":"22.317173","long":"114.265586"},{"id":20002597,"name":"坑口站公共運輸交匯處","lat":"22.315846","long":"114.264245"}],"routeId":2003900,"description":"通宵路線"}]