[{"company":"gmb","route":"102S","routeType":1,"orig":"坑口站公共運輸交匯處","dest":"新蒲崗","stopList":[{"id":20002597,"name":"坑口站公共運輸交匯處","lat":22.315845573505552,"long":114.26424525693855},{"id":20001164,"name":"寶寧路,近厚德邨德富樓","lat":22.31916892337347,"long":114.26407261945711},{"id":20001951,"name":"寶順道,近頌明苑輝明閣","lat":22.318004980019662,"long":114.26218895825116},{"id":20007034,"name":"觀塘道,近嘉域大廈","lat":22.313577860479874,"long":114.22285932951489},{"id":20010526,"name":"觀塘道近創紀之城三期","lat":22.31465833469237,"long":114.21990955883415},{"id":20001955,"name":"觀塘道,近志聯工廠大廈","lat":22.316957257321953,"long":114.21536756123132},{"id":20014914,"name":"觀塘道近,牛頭角下邨貴輝樓","lat":22.319754702930553,"long":114.21453613750748},{"id":20001957,"name":"觀塘道,近德福花園T2座","lat":22.32503996233043,"long":114.2139720651101},{"id":20010530,"name":"彩霞道,近啓泰苑啓勳閣","lat":22.3287510275816,"long":114.2117601904834},{"id":20000985,"name":"龍翔道,近彩虹邨紅萼樓","lat":22.3371967900096,"long":114.20580182223584},{"id":20001961,"name":"彩虹道,近緯綸工業大廈","lat":22.3385341629631,"long":114.20058928266332},{"id":20000969,"name":"大有街,近善美工業大廈","lat":22.33680970415934,"long":114.19783215340951},{"id":20001963,"name":"康強街,近康強大樓","lat":22.334750797513305,"long":114.19732707952606}],"routeId":2003900,"description":"通宵路線"},{"company":"gmb","route":"102S","routeType":2,"orig":"新蒲崗","dest":"坑口站公共運輸交匯處","stopList":[{"id":20001963,"name":"康強街, 近康強大樓","lat":22.334750797513305,"long":114.19732707952606},{"id":20000923,"name":"太子道東, 近彩虹邨紫薇樓","lat":22.333159863053055,"long":114.20721819869638},{"id":20001058,"name":"彩石里, 近聖若瑟英文小學","lat":22.330540346700225,"long":114.21049850887788},{"id":20001966,"name":"觀塘道, 近德福花園Ｔ１座","lat":22.324669621108264,"long":114.21435051403688},{"id":20001060,"name":"觀塘道, 近牛頭角下邨貴亮樓","lat":22.32209584486239,"long":114.21460218592387},{"id":20001968,"name":"觀塘道, 近德明樓","lat":22.31853770543093,"long":114.21497005289464},{"id":20001969,"name":"觀塘道, 近安祥大樓","lat":22.31709266072319,"long":114.21560053779335},{"id":20014915,"name":"觀塘道, 近牛頭角站","lat":22.31535473752984,"long":114.21899472871836},{"id":20001970,"name":"觀塘道, 近裕民中心第二座","lat":22.313984319767332,"long":114.22256829499517},{"id":20001972,"name":"鯉魚門道, 近觀塘游泳池","lat":22.3104783670075,"long":114.22942883527196},{"id":20010574,"name":"將軍澳道, 近觀塘遊樂場","lat":22.310385176794853,"long":114.2309736814954},{"id":20001973,"name":"寶順路, 近景林邨景榕樓","lat":22.318258070846852,"long":114.26174264155195},{"id":20002563,"name":"重華路, 近厚德邨TKO Gateway","lat":22.317172656416272,"long":114.26558632943164},{"id":20002597,"name":"坑口站公共運輸交匯處","lat":22.315845573505552,"long":114.26424525693855}],"routeId":2003900,"description":"通宵路線"}]