[{"company":"kmb","route":"107","routeType":"1","dir":"O","orig":"九龍灣","dest":"華貴","stopList":[{"id":"06834C0C275F4DDC","name":"九龍灣總站 (KT906)","lat":"22.322015","long":"114.207928"},{"id":"9268B442F0C2807E","name":"九龍灣臨華街 (KT481)","lat":"22.322347","long":"114.208909"},{"id":"3F4B54625D1F9E48","name":"九龍灣運動場 (KT483)","lat":"22.326543","long":"114.208393"},{"id":"F663E12DC37F3C5A","name":"麗晶花園18座 (KT484)","lat":"22.329538","long":"114.208095"},{"id":"AC4EEE801BB9133C","name":"麗晶花園13座 (KT486)","lat":"22.330688","long":"114.206918"},{"id":"5CD6A0A0CE6B53B6","name":"麗晶商場 (KT491)","lat":"22.329638","long":"114.205624"},{"id":"C4AF473A49643363","name":"香港輔助警察隊總部 (KT106)","lat":"22.325532","long":"114.207998"},{"id":"B4B94159F6B89A6B","name":"麗晶花園 (WT690)","lat":"22.332434","long":"114.207019"},{"id":"B7FD59E0DC385B38","name":"采頤花園 (WT693)","lat":"22.334909","long":"114.201967"},{"id":"C80FB453C9F53569","name":"譽．港灣 (WT697)","lat":"22.332000","long":"114.196917"},{"id":"8BB1DE68DB8316D3","name":"九龍城轉車站-富豪東方酒店","lat":"22.327159","long":"114.190608"},{"id":"D187AB3DC52090EF","name":"木廠街 (KC720)","lat":"22.323136","long":"114.188185"},{"id":"E798CB4E2C777782","name":"土瓜灣街市 (KC728)","lat":"22.317698","long":"114.187646"},{"id":"6E8CB58283AF3CB1","name":"浙江街遊樂場 (HH736)","lat":"22.313480","long":"114.187159"},{"id":"9CFB5F7232818FFA","name":"紅磡北拱街 (HH739)","lat":"22.311832","long":"114.186119"},{"id":"A06590AD808DC9A9","name":"紅磡平治街 (HH740)","lat":"22.309645","long":"114.184591"},{"id":"6DD60A482B4CDAF6","name":"紅隧轉車站 (HH511)","lat":"22.302870","long":"114.180752"},{"id":"388C3DB16F0F2719","name":"景隆街","lat":"22.281661","long":"114.182689"},{"id":"719B6A48C203AFBA","name":"香港仔隧道","lat":"22.249737","long":"114.175302"},{"id":"D0B9BF21F34F409F","name":"警校道","lat":"22.247760","long":"114.169359"},{"id":"A822D5DE44F24B7B","name":"陳白沙紀念中學","lat":"22.245642","long":"114.166767"},{"id":"5D26737FDFC4F738","name":"南朗山道","lat":"22.248252","long":"114.165898"},{"id":"3147FEC6D6DC535A","name":"勝利工廠大廈","lat":"22.248388","long":"114.162899"},{"id":"43F5D5E06711C646","name":"逸港居","lat":"22.247619","long":"114.159158"},{"id":"86A5437DDF01EDE1","name":"香港仔海濱公園","lat":"22.246916","long":"114.155870"},{"id":"D9185868BC7E2D84","name":"香港仔魚類批發巿場","lat":"22.247794","long":"114.152778"},{"id":"3F7C8467FFD5F32B","name":"明愛張奧偉國際賓館","lat":"22.249796","long":"114.149209"},{"id":"E41AC71D5A52064D","name":"田灣商場","lat":"22.251066","long":"114.149745"},{"id":"37477DA2524EA566","name":"耀中幼教學院","lat":"22.250583","long":"114.147811"},{"id":"FF3869D2333A2640","name":"興偉工業中心","lat":"22.248654","long":"114.146175"},{"id":"619996E3C6D65FC2","name":"牛奶公司凍房","lat":"22.248534","long":"114.144116"},{"id":"689BAEAC4F89EC8B","name":"華貴邨巴士總站","lat":"22.249601","long":"114.140124"}],"routeId":"107","description":"正常班次"},{"company":"kmb","route":"107","routeType":"2","dir":"O","orig":"九龍灣","dest":"華貴","stopList":[{"id":"06834C0C275F4DDC","name":"九龍灣總站 (KT906)","lat":"22.322015","long":"114.207928"},{"id":"9268B442F0C2807E","name":"九龍灣臨華街 (KT481)","lat":"22.322347","long":"114.208909"},{"id":"3F4B54625D1F9E48","name":"九龍灣運動場 (KT483)","lat":"22.326543","long":"114.208393"},{"id":"F663E12DC37F3C5A","name":"麗晶花園18座 (KT484)","lat":"22.329538","long":"114.208095"},{"id":"AC4EEE801BB9133C","name":"麗晶花園13座 (KT486)","lat":"22.330688","long":"114.206918"},{"id":"5CD6A0A0CE6B53B6","name":"麗晶商場 (KT491)","lat":"22.329638","long":"114.205624"},{"id":"C4AF473A49643363","name":"香港輔助警察隊總部 (KT106)","lat":"22.325532","long":"114.207998"},{"id":"B4B94159F6B89A6B","name":"麗晶花園 (WT690)","lat":"22.332434","long":"114.207019"},{"id":"B7FD59E0DC385B38","name":"采頤花園 (WT693)","lat":"22.334909","long":"114.201967"},{"id":"C80FB453C9F53569","name":"譽．港灣 (WT697)","lat":"22.332000","long":"114.196917"},{"id":"8BB1DE68DB8316D3","name":"九龍城轉車站-富豪東方酒店","lat":"22.327159","long":"114.190608"},{"id":"D187AB3DC52090EF","name":"木廠街 (KC720)","lat":"22.323136","long":"114.188185"},{"id":"E798CB4E2C777782","name":"土瓜灣街市 (KC728)","lat":"22.317698","long":"114.187646"},{"id":"6E8CB58283AF3CB1","name":"浙江街遊樂場 (HH736)","lat":"22.313480","long":"114.187159"},{"id":"9CFB5F7232818FFA","name":"紅磡北拱街 (HH739)","lat":"22.311832","long":"114.186119"},{"id":"A06590AD808DC9A9","name":"紅磡平治街 (HH740)","lat":"22.309645","long":"114.184591"},{"id":"6DD60A482B4CDAF6","name":"紅隧轉車站 (HH511)","lat":"22.302870","long":"114.180752"},{"id":"388C3DB16F0F2719","name":"景隆街","lat":"22.281661","long":"114.182689"},{"id":"719B6A48C203AFBA","name":"香港仔隧道","lat":"22.249737","long":"114.175302"},{"id":"56D43C634272F125","name":"海洋公園","lat":"22.246718","long":"114.173849"},{"id":"D0B9BF21F34F409F","name":"警校道","lat":"22.247760","long":"114.169359"},{"id":"A822D5DE44F24B7B","name":"陳白沙紀念中學","lat":"22.245642","long":"114.166767"},{"id":"5D26737FDFC4F738","name":"南朗山道","lat":"22.248252","long":"114.165898"},{"id":"3147FEC6D6DC535A","name":"勝利工廠大廈","lat":"22.248388","long":"114.162899"},{"id":"43F5D5E06711C646","name":"逸港居","lat":"22.247619","long":"114.159158"},{"id":"86A5437DDF01EDE1","name":"香港仔海濱公園","lat":"22.246916","long":"114.155870"},{"id":"D9185868BC7E2D84","name":"香港仔魚類批發巿場","lat":"22.247794","long":"114.152778"},{"id":"3F7C8467FFD5F32B","name":"明愛張奧偉國際賓館","lat":"22.249796","long":"114.149209"},{"id":"E41AC71D5A52064D","name":"田灣商場","lat":"22.251066","long":"114.149745"},{"id":"37477DA2524EA566","name":"耀中幼教學院","lat":"22.250583","long":"114.147811"},{"id":"FF3869D2333A2640","name":"興偉工業中心","lat":"22.248654","long":"114.146175"},{"id":"619996E3C6D65FC2","name":"牛奶公司凍房","lat":"22.248534","long":"114.144116"},{"id":"689BAEAC4F89EC8B","name":"華貴邨巴士總站","lat":"22.249601","long":"114.140124"}],"routeId":"107","description":"特別班次"},{"company":"kmb","route":"107","routeType":"1","dir":"I","orig":"華貴","dest":"九龍灣","stopList":[{"id":"689BAEAC4F89EC8B","name":"華貴邨巴士總站","lat":"22.249601","long":"114.140124"},{"id":"41F70B064C26F180","name":"牛奶公司凍房","lat":"22.248748","long":"114.144197"},{"id":"90535913F657C516","name":"興和街","lat":"22.249391","long":"114.148483"},{"id":"30EEA6AE38D033E9","name":"香港仔總站","lat":"22.247490","long":"114.155385"},{"id":"98D50686DF57B6F7","name":"業漁大廈","lat":"22.247481","long":"114.158389"},{"id":"EC839AE65935149B","name":"香港仔工業學校","lat":"22.248699","long":"114.162511"},{"id":"5BF8B3896F3E8F0A","name":"南朗山道熟食巿場","lat":"22.247414","long":"114.166663"},{"id":"A822D5DE44F24B7B","name":"陳白沙紀念中學","lat":"22.245642","long":"114.166767"},{"id":"AE4E8F82AD65348C","name":"黃竹坑業興街","lat":"22.249669","long":"114.168177"},{"id":"225E8FAE869B3308","name":"香港仔隧道","lat":"22.250048","long":"114.176065"},{"id":"4A626ACD36F8ED7A","name":"堅拿道西","lat":"22.277431","long":"114.180935"},{"id":"11B2034DDF30617A","name":"紅隧轉車站 (HH601)","lat":"22.302459","long":"114.179851"},{"id":"AA97FFC49AE957A5","name":"紅磡山谷道 (HH175)","lat":"22.309361","long":"114.183871"},{"id":"F6A446C66F7F805E","name":"紅磡北拱街 (HH177)","lat":"22.312193","long":"114.186074"},{"id":"35CD2E3911AEA038","name":"土瓜灣落山道 (KC182)","lat":"22.316808","long":"114.187508"},{"id":"C847FC07707BC068","name":"土瓜灣天光道 (KC186)","lat":"22.319370","long":"114.187448"},{"id":"AA62C03711F778F2","name":"洋葵樓 (KC195)","lat":"22.322517","long":"114.187516"},{"id":"47B6BE5FC95C2042","name":"亞皆老街球場 (KC205)","lat":"22.326329","long":"114.189403"},{"id":"BB172B3A5DAC85A4","name":"九龍城轉車站-富豪東方酒店","lat":"22.328624","long":"114.191977"},{"id":"D7A05B5BAF07A89B","name":"譽．港灣 (WT295)","lat":"22.332960","long":"114.196532"},{"id":"A1C65E46464147A0","name":"采頤花園 (WT302)","lat":"22.335085","long":"114.201694"},{"id":"75957EA713E84A37","name":"坪石邨 (WT306)","lat":"22.333234","long":"114.207131"},{"id":"D0B8C96BC4451180","name":"宏天廣場 (KT116)","lat":"22.326235","long":"114.205762"},{"id":"B68FB7076BB07A22","name":"啟禮道 (KT117)","lat":"22.328407","long":"114.205505"},{"id":"553D370FA21F7DA4","name":"麗晶商場 (KT118)","lat":"22.329702","long":"114.205406"},{"id":"72999453ECAC4693","name":"麗晶花園第8座 (KT120)","lat":"22.331389","long":"114.205832"},{"id":"AA26D9F25826AA4A","name":"啟業邨 (KT121)","lat":"22.328645","long":"114.208437"},{"id":"FBE38593BDEB0802","name":"九龍灣運動場 (KT122)","lat":"22.326515","long":"114.208649"},{"id":"9A0959AB68FA5E1F","name":"九龍灣臨華街 (KT123)","lat":"22.323512","long":"114.208973"},{"id":"06834C0C275F4DDC","name":"九龍灣總站 (KT906)","lat":"22.322015","long":"114.207928"}],"routeId":"107","description":"正常班次"},{"company":"kmb","route":"107","routeType":"2","dir":"I","orig":"華貴","dest":"九龍灣","stopList":[{"id":"689BAEAC4F89EC8B","name":"華貴邨巴士總站","lat":"22.249601","long":"114.140124"},{"id":"41F70B064C26F180","name":"牛奶公司凍房","lat":"22.248748","long":"114.144197"},{"id":"90535913F657C516","name":"興和街","lat":"22.249391","long":"114.148483"},{"id":"30EEA6AE38D033E9","name":"香港仔總站","lat":"22.247490","long":"114.155385"},{"id":"98D50686DF57B6F7","name":"業漁大廈","lat":"22.247481","long":"114.158389"},{"id":"EC839AE65935149B","name":"香港仔工業學校","lat":"22.248699","long":"114.162511"},{"id":"5BF8B3896F3E8F0A","name":"南朗山道熟食巿場","lat":"22.247414","long":"114.166663"},{"id":"A822D5DE44F24B7B","name":"陳白沙紀念中學","lat":"22.245642","long":"114.166767"},{"id":"AE4E8F82AD65348C","name":"黃竹坑業興街","lat":"22.249669","long":"114.168177"},{"id":"5AC3E62D33B2D85D","name":"海洋公園","lat":"22.246718","long":"114.173849"},{"id":"225E8FAE869B3308","name":"香港仔隧道","lat":"22.250048","long":"114.176065"},{"id":"4A626ACD36F8ED7A","name":"堅拿道西","lat":"22.277431","long":"114.180935"},{"id":"11B2034DDF30617A","name":"紅隧轉車站 (HH601)","lat":"22.302459","long":"114.179851"},{"id":"AA97FFC49AE957A5","name":"紅磡山谷道 (HH175)","lat":"22.309361","long":"114.183871"},{"id":"F6A446C66F7F805E","name":"紅磡北拱街 (HH177)","lat":"22.312193","long":"114.186074"},{"id":"35CD2E3911AEA038","name":"土瓜灣落山道 (KC182)","lat":"22.316808","long":"114.187508"},{"id":"C847FC07707BC068","name":"土瓜灣天光道 (KC186)","lat":"22.319370","long":"114.187448"},{"id":"AA62C03711F778F2","name":"洋葵樓 (KC195)","lat":"22.322517","long":"114.187516"},{"id":"47B6BE5FC95C2042","name":"亞皆老街球場 (KC205)","lat":"22.326329","long":"114.189403"},{"id":"BB172B3A5DAC85A4","name":"九龍城轉車站-富豪東方酒店","lat":"22.328624","long":"114.191977"},{"id":"D7A05B5BAF07A89B","name":"譽．港灣 (WT295)","lat":"22.332960","long":"114.196532"},{"id":"A1C65E46464147A0","name":"采頤花園 (WT302)","lat":"22.335085","long":"114.201694"},{"id":"75957EA713E84A37","name":"坪石邨 (WT306)","lat":"22.333234","long":"114.207131"},{"id":"D0B8C96BC4451180","name":"宏天廣場 (KT116)","lat":"22.326235","long":"114.205762"},{"id":"B68FB7076BB07A22","name":"啟禮道 (KT117)","lat":"22.328407","long":"114.205505"},{"id":"553D370FA21F7DA4","name":"麗晶商場 (KT118)","lat":"22.329702","long":"114.205406"},{"id":"72999453ECAC4693","name":"麗晶花園第8座 (KT120)","lat":"22.331389","long":"114.205832"},{"id":"AA26D9F25826AA4A","name":"啟業邨 (KT121)","lat":"22.328645","long":"114.208437"},{"id":"FBE38593BDEB0802","name":"九龍灣運動場 (KT122)","lat":"22.326515","long":"114.208649"},{"id":"9A0959AB68FA5E1F","name":"九龍灣臨華街 (KT123)","lat":"22.323512","long":"114.208973"},{"id":"06834C0C275F4DDC","name":"九龍灣總站 (KT906)","lat":"22.322015","long":"114.207928"}],"routeId":"107","description":"特別班次"},{"company":"ctb","route":"107","routeType":null,"dir":"I","orig":"九龍灣","dest":"華貴邨","stopList":[{"id":"001593","name":"九龍灣 (企業廣場)","lat":"22.321922","long":"114.207979"},{"id":"001607","name":"臨華街, 宏照道","lat":"22.322591","long":"114.208831"},{"id":"001608","name":"九龍灣運動場, 宏照道","lat":"22.326599","long":"114.208423"},{"id":"001645","name":"麗晶花園第 18 座, 宏照道","lat":"22.329778","long":"114.208104"},{"id":"001609","name":"麗晶花園第 13 座, 宏照道","lat":"22.330827","long":"114.206840"},{"id":"001613","name":"麗晶商場, 宏光道","lat":"22.329698","long":"114.205596"},{"id":"001646","name":"香港輔助警察隊總部, 啟祥道","lat":"22.325468","long":"114.207707"},{"id":"001502","name":"麗晶花園, 太子道東","lat":"22.332583","long":"114.206917"},{"id":"001575","name":"采頤花園, 太子道東","lat":"22.334937","long":"114.202017"},{"id":"001576","name":"譽港灣, 太子道東","lat":"22.332221","long":"114.196990"},{"id":"001577","name":"富豪東方酒店, 太子道東","lat":"22.327147","long":"114.190533"},{"id":"001530","name":"木廠街, 馬頭涌道","lat":"22.323262","long":"114.188210"},{"id":"001538","name":"土瓜灣街市, 馬頭圍道","lat":"22.317651","long":"114.187704"},{"id":"001643","name":"浙江街遊樂場, 漆咸道北","lat":"22.313753","long":"114.187301"},{"id":"001644","name":"北拱街, 漆咸道北","lat":"22.311833","long":"114.186126"},{"id":"001415","name":"平治街, 漆咸道北","lat":"22.309564","long":"114.184592"},{"id":"001537","name":"海底隧道巴士轉乘站","lat":"22.302678","long":"114.180651"},{"id":"002414","name":"景隆街, 告士打道","lat":"22.281732","long":"114.182809"},{"id":"002348","name":"香港仔隧道巴士轉乘站","lat":"22.249770","long":"114.175336"},{"id":"002225","name":"海洋公園","lat":"22.247393","long":"114.173920"},{"id":"002371","name":"港鐵黃竹坑車廠, 警校道","lat":"22.246167","long":"114.169099"},{"id":"002222","name":"陳白沙紀念中學, 南朗山道","lat":"22.245721","long":"114.166730"},{"id":"002357","name":"南朗山道, 黃竹坑道","lat":"22.248328","long":"114.166062"},{"id":"002358","name":"勝利工廠大廈, 黃竹坑道","lat":"22.248392","long":"114.163149"},{"id":"002160","name":"逸港居, 香港仔海傍道","lat":"22.247488","long":"114.159026"},{"id":"002161","name":"香港仔海濱公園, 香港仔海傍道","lat":"22.247000","long":"114.155783"},{"id":"002162","name":"香港仔魚類批發市場, 香港仔海傍道","lat":"22.247980","long":"114.152431"},{"id":"002298","name":"明愛張奧偉國際賓館, 田灣街","lat":"22.249830","long":"114.149338"},{"id":"002396","name":"田灣商場, 田灣街","lat":"22.251101","long":"114.149740"},{"id":"002294","name":"耀中幼教學院, 田灣山道","lat":"22.250299","long":"114.147563"},{"id":"002296","name":"興偉中心, 田灣海旁道","lat":"22.248570","long":"114.147264"},{"id":"002297","name":"香港製冰冰廠及冷庫, 田灣海旁道","lat":"22.248590","long":"114.144430"},{"id":"002372","name":"華貴邨","lat":"22.249877","long":"114.139940"}],"routeId":"107","description":"正常班次"},{"company":"ctb","route":"107","routeType":null,"dir":"O","orig":"華貴邨","dest":"九龍灣","stopList":[{"id":"002372","name":"華貴邨","lat":"22.249877","long":"114.139940"},{"id":"002295","name":"香港製冰冰廠及冷庫, 田灣海旁道","lat":"22.248631","long":"114.144183"},{"id":"003287","name":"興和街, 石排灣道","lat":"22.249678","long":"114.147902"},{"id":"002363","name":"香港仔","lat":"22.247404","long":"114.155496"},{"id":"002159","name":"業漁大廈, 香港仔大道","lat":"22.247579","long":"114.158491"},{"id":"002343","name":"香港仔工業學校, 黃竹坑道","lat":"22.248700","long":"114.162534"},{"id":"002224","name":"南朗山道熟食市場, 南朗山道","lat":"22.247464","long":"114.166669"},{"id":"002222","name":"陳白沙紀念中學, 南朗山道","lat":"22.245721","long":"114.166730"},{"id":"002383","name":"業興街, 黃竹坑道","lat":"22.249541","long":"114.168112"},{"id":"002225","name":"海洋公園","lat":"22.247393","long":"114.173920"},{"id":"002347","name":"香港仔隧道巴士轉乘站","lat":"22.249961","long":"114.175855"},{"id":"002405","name":"堅拿道西","lat":"22.277412","long":"114.180971"},{"id":"001475","name":"海底隧道巴士轉乘站","lat":"22.302818","long":"114.180084"},{"id":"001412","name":"山谷道, 漆咸道北","lat":"22.309305","long":"114.183792"},{"id":"001413","name":"北拱街, 漆咸道北","lat":"22.312201","long":"114.186125"},{"id":"001534","name":"落山道, 馬頭圍道","lat":"22.316614","long":"114.187478"},{"id":"001535","name":"天光道, 馬頭圍道","lat":"22.319316","long":"114.187458"},{"id":"001772","name":"馬頭圍邨洋葵樓, 馬頭涌道","lat":"22.322467","long":"114.187598"},{"id":"001529","name":"亞皆老街遊樂場, 馬頭涌道","lat":"22.326431","long":"114.189544"},{"id":"001572","name":"富豪東方酒店, 太子道東","lat":"22.328495","long":"114.191841"},{"id":"001573","name":"譽港灣, 太子道東","lat":"22.332716","long":"114.196307"},{"id":"001574","name":"采頤花園, 太子道東","lat":"22.335157","long":"114.201721"},{"id":"001503","name":"坪石邨, 太子道東","lat":"22.333081","long":"114.207235"},{"id":"002655","name":"宏天廣場, 宏光道","lat":"22.326344","long":"114.205779"},{"id":"003241","name":"啟禮道, 宏光道","lat":"22.328116","long":"114.205581"},{"id":"001614","name":"麗晶商場, 宏光道","lat":"22.329517","long":"114.205445"},{"id":"001610","name":"麗晶花園第 8 座, 宏照道","lat":"22.331369","long":"114.205832"},{"id":"001611","name":"啟業邨, 宏照道","lat":"22.328732","long":"114.208380"},{"id":"001612","name":"九龍灣運動場, 宏照道","lat":"22.326746","long":"114.208575"},{"id":"001773","name":"臨華街, 宏照道","lat":"22.323544","long":"114.208890"},{"id":"001593","name":"九龍灣 (企業廣場)","lat":"22.321922","long":"114.207979"}],"routeId":"107","description":"正常班次"},{"company":"gmb","route":"107","routeType":1,"orig":"靈實醫院","dest":"寶琳公共運輸交匯處","stopList":[{"id":20001159,"name":"靈實路, 靈實醫院外","lat":"22.314179","long":"114.256470"},{"id":20001137,"name":"貿泰路, 新都城一期外","lat":"22.321746","long":"114.257290"},{"id":20001175,"name":"寶豐路, 寶儉樓外","lat":"22.324483","long":"114.256816"},{"id":20001170,"name":"欣景路, 欣明苑外","lat":"22.324030","long":"114.258339"},{"id":20001149,"name":"寶琳公共運輸交匯處","lat":"22.323398","long":"114.257931"},{"id":20005032,"name":"寶豐路, 新都城二期外","lat":"22.324284","long":"114.256893"},{"id":20001174,"name":"貿業路, 寶琳港鐵站外","lat":"22.322767","long":"114.257416"},{"id":20007712,"name":"寶康路, 香港單車館外","lat":"22.313256","long":"114.260653"},{"id":20003224,"name":" 唐明街, 尚德商場對面","lat":"22.310448","long":"114.258972"},{"id":20001159,"name":"靈實路, 靈實醫院外","lat":"22.314179","long":"114.256470"}],"routeId":2002910,"description":"正常班次"}]