[{"company":"kmb","route":"11","routeType":"1","dir":"O","orig":"鑽石山站","dest":"九龍站","stopList":[{"id":"6F817E994CAF7928","name":"鑽石山站巴士總站 (WT967)","lat":"22.340830","long":"114.201718"},{"id":"4B9D547F0F450784","name":"龍蟠苑 (WT133)","lat":"22.342920","long":"114.200382"},{"id":"7BDF3895E0BCE33B","name":"龍逸樓 (WT585)","lat":"22.338860","long":"114.195867"},{"id":"262578A9C404DCD6","name":"黃大仙總站 (WT925)","lat":"22.340796","long":"114.195088"},{"id":"87154BA98253B43D","name":"新蒲崗衍慶街 (WT552)","lat":"22.335909","long":"114.194526"},{"id":"1C79BF0732EDBD9C","name":"九龍城轉車站-宋皇臺公園","lat":"22.326298","long":"114.189878"},{"id":"225F00F550C301AE","name":"新山道 (KC725)","lat":"22.322068","long":"114.187728"},{"id":"3331EE733A2A3EBB","name":"馬坑涌道 (KC726)","lat":"22.319598","long":"114.187736"},{"id":"F5795A904B483F33","name":"土瓜灣上鄉道 (KC727)","lat":"22.318431","long":"114.187672"},{"id":"57DFE7792042405B","name":"浙江街遊樂場 (HH735)","lat":"22.314562","long":"114.187656"},{"id":"7CC8FC8889FF1596","name":"新柳街 (HH737)","lat":"22.312282","long":"114.186412"},{"id":"DF4F6B54816F5172","name":"紅磡平治街 (HH741)","lat":"22.309524","long":"114.184594"},{"id":"5CCBD9A6B58BF20D","name":"九龍佑寧堂 (YT670)","lat":"22.305649","long":"114.172574"},{"id":"2F165341B07CBDB9","name":"吳松街 廟街夜市 (YT672)","lat":"22.305229","long":"114.169912"},{"id":"FD1B403FD4EC3E8D","name":"佐敦炮台街 (YT674)","lat":"22.305617","long":"114.168054"},{"id":"FB9FA7AAA17E9E9D","name":"西隧轉車站 - 雅翔道 (YT300)","lat":"22.304410","long":"114.160239"},{"id":"593DE4298B444E66","name":"九龍站巴士總站 (YT948)","lat":"22.305079","long":"114.162604"}],"routeId":"11","description":"正常班次"},{"company":"kmb","route":"11","routeType":"1","dir":"I","orig":"九龍站","dest":"鑽石山站","stopList":[{"id":"593DE4298B444E66","name":"九龍站巴士總站 (YT948)","lat":"22.305079","long":"114.162604"},{"id":"31072508CEF942C6","name":"西隧轉車站 - 雅翔道 (YT301)","lat":"22.303565","long":"114.159802"},{"id":"4C49804674904130","name":"上海街 廟街夜市 (YT246)","lat":"22.305631","long":"114.169025"},{"id":"8864CF7D3E4B1EF6","name":"佐敦志和街 (YT250)","lat":"22.305886","long":"114.172499"},{"id":"3CB94742E4B5E3E5","name":"衛理道 (YT334)","lat":"22.306781","long":"114.175981"},{"id":"33033960343A57A8","name":"紅磡山谷道 (HH176)","lat":"22.309321","long":"114.183816"},{"id":"E37FF663075361FE","name":"紅磡北拱街 (HH178)","lat":"22.312219","long":"114.186087"},{"id":"4850531F57582BD9","name":"土瓜灣落山道 (KC183)","lat":"22.317025","long":"114.187465"},{"id":"1C02C4A92902FE95","name":"上鄉道 (KC185)","lat":"22.319280","long":"114.187420"},{"id":"9C1D2401E1E06544","name":"新山道 (KC189)","lat":"22.321714","long":"114.187444"},{"id":"3FB80081AB2FF6FB","name":"亞皆老街球場 (KC204)","lat":"22.326257","long":"114.189390"},{"id":"BB172B3A5DAC85A4","name":"九龍城轉車站-富豪東方酒店","lat":"22.328624","long":"114.191977"},{"id":"661FEE32A0D73EB0","name":"王仲銘中學 (WT322)","lat":"22.333958","long":"114.194661"},{"id":"8815F901477E6435","name":"大成街 (WT315)","lat":"22.337983","long":"114.193131"},{"id":"20915DF05723C615","name":"龍慧樓 (WT119)","lat":"22.340024","long":"114.194140"},{"id":"6C15579CA43DF72E","name":"黃大仙總站 (落客站) (WT920)","lat":"22.341022","long":"114.194867"},{"id":"EB3A1D751C96E053","name":"黃大仙總站 (WT921)","lat":"22.340925","long":"114.194926"},{"id":"F0AC02C6C94078C4","name":"黃大仙警署 (WT329)","lat":"22.339447","long":"114.197681"},{"id":"A0FDF34B2D278750","name":"鳳德商場 (WT408)","lat":"22.343311","long":"114.199551"},{"id":"6F817E994CAF7928","name":"鑽石山站巴士總站 (WT967)","lat":"22.340830","long":"114.201718"}],"routeId":"11","description":"正常班次"},{"company":"ctb","route":"11","routeType":null,"dir":"I","orig":"渣甸山","dest":"中環碼頭","stopList":[{"id":"002511","name":"柏園, 大坑徑","lat":"22.273617","long":"114.193024"},{"id":"002407","name":"慧景園, 春暉道","lat":"22.273449","long":"114.194150"},{"id":"002461","name":"金雲閣, 睦誠道","lat":"22.272589","long":"114.193828"},{"id":"002462","name":"渣甸山花園, 睦誠道","lat":"22.270876","long":"114.194277"},{"id":"002463","name":"睦誠徑, 睦誠道","lat":"22.269801","long":"114.194991"},{"id":"002464","name":"盛苑, 睦誠道","lat":"22.269409","long":"114.194401"},{"id":"002471","name":"畢拉山徑, 畢拉山道","lat":"22.267172","long":"114.193510"},{"id":"002472","name":"渣甸園, 畢拉山道","lat":"22.266296","long":"114.192338"},{"id":"002473","name":"渣甸臺, 畢拉山道","lat":"22.265237","long":"114.190729"},{"id":"002525","name":"畢拉山道, 大坑道","lat":"22.266390","long":"114.190466"},{"id":"002526","name":"渣甸山花園大廈, 大坑道","lat":"22.268758","long":"114.189914"},{"id":"002527","name":"白建時道, 大坑道","lat":"22.271106","long":"114.191482"},{"id":"002528","name":"瑞士花園, 大坑道","lat":"22.272945","long":"114.191876"},{"id":"002529","name":"龍風臺, 大坑道","lat":"22.274783","long":"114.191977"},{"id":"002530","name":"大寶閣, 大坑道","lat":"22.276889","long":"114.191495"},{"id":"002531","name":"優悠台, 大坑道","lat":"22.275810","long":"114.193239"},{"id":"002532","name":"香港真光中學, 大坑道","lat":"22.276325","long":"114.195202"},{"id":"002533","name":"利群道, 大坑道","lat":"22.276758","long":"114.194227"},{"id":"002534","name":"豪園, 大坑道","lat":"22.277983","long":"114.190766"},{"id":"002465","name":"香港中央圖書館, 摩頓台","lat":"22.279537","long":"114.188970"},{"id":"002439","name":"銅鑼灣 - 希慎廣場, 軒尼詩道","lat":"22.280000","long":"114.183359"},{"id":"002440","name":"堅拿道東, 軒尼詩道","lat":"22.279482","long":"114.181797"},{"id":"002442","name":"北海中心, 軒尼詩道","lat":"22.278328","long":"114.178455"},{"id":"002446","name":"修頓球場, 軒尼詩道","lat":"22.277433","long":"114.171879"},{"id":"002449","name":"晏頓街, 軒尼詩道","lat":"22.277666","long":"114.168839"},{"id":"001141","name":"金鐘 - 高等法院, 金鐘道","lat":"22.278414","long":"114.163873"},{"id":"001142","name":"中銀大廈, 金鐘道","lat":"22.279480","long":"114.162144"},{"id":"001106","name":"畢打街","lat":"22.281824","long":"114.157381"},{"id":"001076","name":"歷山大廈, 雪廠街","lat":"22.281372","long":"114.158842"},{"id":"001143","name":"國際金融中心二期, 民耀街","lat":"22.284965","long":"114.159820"},{"id":"001145","name":"中環碼頭 - 巴士總站","lat":"22.286355","long":"114.159735"}],"routeId":"11","description":"正常班次"},{"company":"ctb","route":"11","routeType":null,"dir":"O","orig":"中環碼頭","dest":"渣甸山","stopList":[{"id":"001145","name":"中環碼頭 - 巴士總站","lat":"22.286355","long":"114.159735"},{"id":"001044","name":"林士街, 德輔道中","lat":"22.286050","long":"114.153728"},{"id":"001173","name":"恒生銀行總行大廈, 德輔道中","lat":"22.284360","long":"114.155968"},{"id":"001050","name":"歷山大廈, 德輔道中","lat":"22.281459","long":"114.158300"},{"id":"001052","name":"遮打花園, 德輔道中","lat":"22.280109","long":"114.160646"},{"id":"003845","name":"金鐘 - 金鐘廊, 金鐘道","lat":"22.278485","long":"114.164478"},{"id":"002430","name":"盧押道, 軒尼詩道","lat":"22.277681","long":"114.170998"},{"id":"002434","name":"史釗域道, 軒尼詩道","lat":"22.278010","long":"114.176171"},{"id":"002435","name":"杜老誌道, 軒尼詩道","lat":"22.278721","long":"114.179097"},{"id":"002437","name":"灣仔消防局, 軒尼詩道","lat":"22.279687","long":"114.181788"},{"id":"002574","name":"銅鑼灣 - 百德新街, 怡和街","lat":"22.279779","long":"114.186071"},{"id":"002535","name":"聖保祿醫院, 銅鑼灣道","lat":"22.278920","long":"114.188062"},{"id":"002512","name":"豪園, 大坑道","lat":"22.278402","long":"114.190346"},{"id":"002513","name":"光明臺, 大坑道","lat":"22.277046","long":"114.193596"},{"id":"002514","name":"上林, 大坑道","lat":"22.276095","long":"114.195345"},{"id":"002515","name":"昍逵閣, 大坑道","lat":"22.275632","long":"114.193320"},{"id":"002516","name":"宏豐台, 大坑道","lat":"22.275680","long":"114.191761"},{"id":"002517","name":"龍風臺, 大坑道","lat":"22.274387","long":"114.192440"},{"id":"002511","name":"柏園, 大坑徑","lat":"22.273617","long":"114.193024"},{"id":"002407","name":"慧景園, 春暉道","lat":"22.273449","long":"114.194150"},{"id":"002461","name":"金雲閣, 睦誠道","lat":"22.272589","long":"114.193828"},{"id":"002462","name":"渣甸山花園, 睦誠道","lat":"22.270876","long":"114.194277"},{"id":"002463","name":"睦誠徑, 睦誠道","lat":"22.269801","long":"114.194991"},{"id":"002464","name":"盛苑, 睦誠道","lat":"22.269409","long":"114.194401"},{"id":"002471","name":"畢拉山徑, 畢拉山道","lat":"22.267172","long":"114.193510"},{"id":"002472","name":"渣甸園, 畢拉山道","lat":"22.266296","long":"114.192338"},{"id":"002473","name":"渣甸臺, 畢拉山道","lat":"22.265237","long":"114.190729"},{"id":"002525","name":"畢拉山道, 大坑道","lat":"22.266390","long":"114.190466"},{"id":"002526","name":"渣甸山花園大廈, 大坑道","lat":"22.268758","long":"114.189914"},{"id":"002527","name":"白建時道, 大坑道","lat":"22.271106","long":"114.191482"},{"id":"002528","name":"瑞士花園, 大坑道","lat":"22.272945","long":"114.191876"}],"routeId":"11","description":"正常班次"},{"company":"nlb","route":"11","routeType":null,"dir":null,"orig":"東涌站巴士總站","dest":"大澳","stopList":[{"id":"278","name":"東涌站巴士總站","lat":"22.289862","long":"113.939616","street":"達東路","fare":"14.0","fareHoliday":"23.3"},{"id":"80","name":"富東廣場","lat":"22.288870","long":"113.942105","street":"達東路","fare":"14.0","fareHoliday":"23.3"},{"id":"81","name":"裕東苑","lat":"22.286077","long":"113.941603","street":"順東路","fare":"14.0","fareHoliday":"23.3"},{"id":"185","name":"北大嶼山醫院(北行), 逸東邨美逸樓","lat":"22.281295","long":"113.938822","street":"松仁路","fare":"14.0","fareHoliday":"23.3"},{"id":"76","name":"北大嶼山醫院(南行)","lat":"22.281861","long":"113.938803","street":"松仁路","fare":"14.0","fareHoliday":"23.3"},{"id":"338","name":"裕泰苑(松仁路)","lat":"22.280194","long":"113.940306","street":"松仁路","fare":"14.0","fareHoliday":"23.3"},{"id":"94","name":"東涌鄉事委員會","lat":"22.278936","long":"113.938795","street":"東涌道","fare":"14.0","fareHoliday":"23.3"},{"id":"279","name":"上嶺皮","lat":"22.278792","long":"113.937148","street":"東涌道","fare":"14.0","fareHoliday":"23.3"},{"id":"280","name":"下嶺皮","lat":"22.278512","long":"113.935423","street":"東涌道","fare":"14.0","fareHoliday":"23.3"},{"id":"282","name":"黃家圍","lat":"22.277038","long":"113.933975","street":"東涌道","fare":"14.0","fareHoliday":"23.3"},{"id":"283","name":"龍井頭","lat":"22.275707","long":"113.933707","street":"東涌道","fare":"14.0","fareHoliday":"23.3"},{"id":"284","name":"石門甲道","lat":"22.270470","long":"113.934465","street":"東涌道","fare":"14.0","fareHoliday":"23.3"},{"id":"286","name":"十八區墳場","lat":"22.265678","long":"113.936740","street":"東涌道","fare":"14.0","fareHoliday":"23.3"},{"id":"287","name":"東涌坳管理站","lat":"22.264104","long":"113.937552","street":"東涌道","fare":"14.0","fareHoliday":"23.3"},{"id":"288","name":"伯公坳","lat":"22.248939","long":"113.942597","street":"東涌道","fare":"14.0","fareHoliday":"23.3"},{"id":"273","name":"長沙引水道","lat":"22.240007","long":"113.957339","street":"東涌道","fare":"14.0","fareHoliday":"23.3"},{"id":"83","name":"散石灣迴旋處","lat":"22.236544","long":"113.962550","street":"嶼南道","fare":"14.0","fareHoliday":"23.3"},{"id":"19","name":"長沙上村","lat":"22.235238","long":"113.961739","street":"嶼南道","fare":"10.1","fareHoliday":"17.6"},{"id":"20","name":"長沙警署","lat":"22.233772","long":"113.960211","street":"嶼南道","fare":"10.1","fareHoliday":"17.6"},{"id":"21","name":"長沙下村","lat":"22.234787","long":"113.957232","street":"嶼南道","fare":"10.1","fareHoliday":"17.6"},{"id":"22","name":"長沙消防局","lat":"22.236632","long":"113.954349","street":"嶼南道","fare":"10.1","fareHoliday":"17.6"},{"id":"23","name":"麗濱別墅","lat":"22.236217","long":"113.951916","street":"嶼南道","fare":"10.1","fareHoliday":"17.6"},{"id":"24","name":"蝶崗","lat":"22.234540","long":"113.948841","street":"嶼南道","fare":"10.1","fareHoliday":"17.6"},{"id":"25","name":"長沙大橋","lat":"22.233389","long":"113.946977","street":"嶼南道","fare":"10.1","fareHoliday":"17.6"},{"id":"26","name":"上長沙泳灘","lat":"22.230877","long":"113.941525","street":"嶼南道","fare":"10.1","fareHoliday":"17.6"},{"id":"27","name":"塘福海灘","lat":"22.228509","long":"113.935339","street":"嶼南道","fare":"7.1","fareHoliday":"14.2"},{"id":"28","name":"塘福村","lat":"22.227565","long":"113.932706","street":"嶼南道","fare":"7.1","fareHoliday":"14.2"},{"id":"32","name":"塘福懲教所","lat":"22.228764","long":"113.926084","street":"嶼南道","fare":"7.1","fareHoliday":"14.2"},{"id":"30","name":"麻埔坪村","lat":"22.229926","long":"113.928050","street":"麻埔坪道","fare":"7.1","fareHoliday":"14.2"},{"id":"31","name":"麻埔坪道口","lat":"22.226018","long":"113.929495","street":"嶼南道","fare":"7.1","fareHoliday":"14.2"},{"id":"178","name":"南大嶼山海底電纜站","lat":"22.225272","long":"113.928661","street":"嶼南道","fare":"7.1","fareHoliday":"14.2"},{"id":"33","name":"上橫壟","lat":"22.223348","long":"113.920624","street":"嶼南道","fare":"7.1","fareHoliday":"14.2"},{"id":"34","name":"下橫壟","lat":"22.222305","long":"113.919741","street":"嶼南道","fare":"7.1","fareHoliday":"14.2"},{"id":"35","name":"水口村(東)","lat":"22.221565","long":"113.916059","street":"嶼南道","fare":"7.1","fareHoliday":"14.2"},{"id":"36","name":"水口村","lat":"22.220989","long":"113.914318","street":"嶼南道","fare":"7.1","fareHoliday":"14.2"},{"id":"37","name":"四眼馬","lat":"22.221913","long":"113.910370","street":"嶼南道","fare":"7.1","fareHoliday":"14.2"},{"id":"38","name":"水口直升機場","lat":"22.223532","long":"113.908063","street":"嶼南道","fare":"7.1","fareHoliday":"14.2"},{"id":"39","name":"石壁警崗","lat":"22.225862","long":"113.897720","street":"嶼南道","fare":"5.2","fareHoliday":"7.8"},{"id":"40","name":"沙咀懲教所","lat":"22.224969","long":"113.893487","street":"石壁水塘道","fare":"5.2","fareHoliday":"7.8"},{"id":"41","name":"沙咀","lat":"22.228328","long":"113.890600","street":"姜山道","fare":"5.2","fareHoliday":"7.8"},{"id":"42","name":"石壁坳引水道通道","lat":"22.239451","long":"113.893697","street":"姜山道","fare":"5.2","fareHoliday":"7.8"},{"id":"58","name":"深屈道","lat":"22.245054","long":"113.891193","street":"深屈道","fare":"2.8","fareHoliday":"5.6"},{"id":"44","name":"法華苑","lat":"22.246122","long":"113.889042","street":"姜山道","fare":"2.8","fareHoliday":"5.6"},{"id":"45","name":"三緣精舍","lat":"22.246435","long":"113.886242","street":"姜山道","fare":"2.8","fareHoliday":"5.6"},{"id":"46","name":"成輝果園","lat":"22.243820","long":"113.884209","street":"姜山道","fare":"2.8","fareHoliday":"5.6"},{"id":"47","name":"觀音寺","lat":"22.242256","long":"113.882991","street":"姜山道","fare":"2.8","fareHoliday":"5.6"},{"id":"48","name":"龍仔","lat":"22.240816","long":"113.881022","street":"大澳道","fare":"2.8","fareHoliday":"5.6"},{"id":"49","name":"羌山管理站","lat":"22.242032","long":"113.878823","street":"大澳道","fare":"2.8","fareHoliday":"5.6"},{"id":"84","name":"新鳳村","lat":"22.243571","long":"113.876972","street":"大澳道","fare":"2.8","fareHoliday":"5.6"},{"id":"51","name":"靈隱寺","lat":"22.244018","long":"113.875009","street":"大澳道","fare":"2.8","fareHoliday":"5.6"},{"id":"52","name":"坑尾","lat":"22.250656","long":"113.869062","street":"大澳道","fare":"2.8","fareHoliday":"5.6"},{"id":"53","name":"佛教筏可紀念中學","lat":"22.252033","long":"113.866988","street":"大澳道","fare":"2.8","fareHoliday":"5.6"},{"id":"54","name":"龍田邨","lat":"22.252326","long":"113.864976","street":"大澳道","fare":"2.8","fareHoliday":"5.6"},{"id":"55","name":"大澳","lat":"22.252783","long":"113.862160","street":"大澳道","fare":"0.0","fareHoliday":"0.0"}],"routeId":"13","description":"正常班次"},{"company":"nlb","route":"11","routeType":null,"dir":null,"orig":"大澳","dest":"東涌站巴士總站","stopList":[{"id":"221","name":"大澳","lat":"22.252783","long":"113.862160","street":"大澳道","fare":"14.0","fareHoliday":"23.3"},{"id":"222","name":"龍田邨","lat":"22.252521","long":"113.865005","street":"大澳道","fare":"14.0","fareHoliday":"23.3"},{"id":"224","name":"坑尾","lat":"22.250832","long":"113.869306","street":"大澳道","fare":"14.0","fareHoliday":"23.3"},{"id":"225","name":"靈隱寺","lat":"22.244287","long":"113.875107","street":"大澳道","fare":"14.0","fareHoliday":"23.3"},{"id":"226","name":"新鳳村","lat":"22.243900","long":"113.877006","street":"大澳道","fare":"14.0","fareHoliday":"23.3"},{"id":"227","name":"羌山管理站","lat":"22.242182","long":"113.879051","street":"大澳道","fare":"14.0","fareHoliday":"23.3"},{"id":"228","name":"龍仔","lat":"22.241370","long":"113.881392","street":"大澳道","fare":"14.0","fareHoliday":"23.3"},{"id":"229","name":"成輝果園","lat":"22.244001","long":"113.883995","street":"姜山道","fare":"12.7","fareHoliday":"21.2"},{"id":"230","name":"三緣精舍","lat":"22.246711","long":"113.885968","street":"姜山道","fare":"12.7","fareHoliday":"21.2"},{"id":"232","name":"法華苑","lat":"22.246221","long":"113.888872","street":"姜山道","fare":"12.7","fareHoliday":"21.2"},{"id":"233","name":"深屈道","lat":"22.244592","long":"113.891879","street":"深屈道","fare":"12.7","fareHoliday":"21.2"},{"id":"234","name":"石壁坳引水道通道","lat":"22.239179","long":"113.893975","street":"姜山道","fare":"10.1","fareHoliday":"17.6"},{"id":"235","name":"沙咀","lat":"22.228503","long":"113.891105","street":"姜山道","fare":"10.1","fareHoliday":"17.6"},{"id":"40","name":"沙咀懲教所","lat":"22.224969","long":"113.893487","street":"石壁水塘道","fare":"10.1","fareHoliday":"17.6"},{"id":"236","name":"石壁警崗","lat":"22.226119","long":"113.898134","street":"嶼南道","fare":"10.1","fareHoliday":"17.6"},{"id":"237","name":"水口直升機場","lat":"22.223703","long":"113.908325","street":"嶼南道","fare":"7.1","fareHoliday":"14.2"},{"id":"238","name":"四眼馬","lat":"22.222054","long":"113.910632","street":"嶼南道","fare":"7.1","fareHoliday":"14.2"},{"id":"239","name":"水口村","lat":"22.221101","long":"113.914173","street":"嶼南道","fare":"7.1","fareHoliday":"14.2"},{"id":"240","name":"水口村(東)","lat":"22.221841","long":"113.915763","street":"嶼南道","fare":"7.1","fareHoliday":"14.2"},{"id":"241","name":"下橫壟","lat":"22.222050","long":"113.919234","street":"嶼南道","fare":"7.1","fareHoliday":"14.2"},{"id":"242","name":"上橫壟","lat":"22.224358","long":"113.921077","street":"嶼南道","fare":"7.1","fareHoliday":"14.2"},{"id":"243","name":"南大嶼山海底電纜站","lat":"22.225883","long":"113.927180","street":"嶼南道","fare":"7.1","fareHoliday":"14.2"},{"id":"32","name":"塘福懲教所","lat":"22.228764","long":"113.926084","street":"嶼南道","fare":"7.1","fareHoliday":"14.2"},{"id":"30","name":"麻埔坪村","lat":"22.229926","long":"113.928050","street":"麻埔坪道","fare":"7.1","fareHoliday":"14.2"},{"id":"244","name":"麻埔坪道口","lat":"22.226583","long":"113.930077","street":"嶼南道","fare":"7.1","fareHoliday":"14.2"},{"id":"245","name":"塘福村","lat":"22.227763","long":"113.932397","street":"嶼南道","fare":"7.1","fareHoliday":"14.2"},{"id":"246","name":"塘福海灘","lat":"22.228941","long":"113.935944","street":"嶼南道","fare":"7.1","fareHoliday":"14.2"},{"id":"247","name":"上長沙泳灘","lat":"22.231329","long":"113.941766","street":"嶼南道","fare":"7.1","fareHoliday":"14.2"},{"id":"248","name":"長沙大橋","lat":"22.233979","long":"113.947366","street":"嶼南道","fare":"7.1","fareHoliday":"14.2"},{"id":"249","name":"蝶崗","lat":"22.235062","long":"113.949298","street":"嶼南道","fare":"7.1","fareHoliday":"14.2"},{"id":"250","name":"麗濱別墅","lat":"22.236472","long":"113.951424","street":"嶼南道","fare":"7.1","fareHoliday":"14.2"},{"id":"251","name":"長沙消防局","lat":"22.236803","long":"113.955434","street":"嶼南道","fare":"7.1","fareHoliday":"14.2"},{"id":"252","name":"長沙下村","lat":"22.234965","long":"113.957170","street":"嶼南道","fare":"7.1","fareHoliday":"14.2"},{"id":"253","name":"長沙警署","lat":"22.233964","long":"113.960174","street":"嶼南道","fare":"7.1","fareHoliday":"14.2"},{"id":"254","name":"長沙上村","lat":"22.235330","long":"113.961547","street":"嶼南道","fare":"7.1","fareHoliday":"14.2"},{"id":"255","name":"散石灣迴旋處","lat":"22.236727","long":"113.962424","street":"嶼南道","fare":"7.1","fareHoliday":"14.2"},{"id":"179","name":"東涌道","lat":"22.237918","long":"113.962920","street":"嶼南道","fare":"7.1","fareHoliday":"14.2"},{"id":"64","name":"長沙引水道","lat":"22.239814","long":"113.957216","street":"東涌道","fare":"7.1","fareHoliday":"14.2"},{"id":"65","name":"伯公坳","lat":"22.248054","long":"113.943139","street":"東涌道","fare":"7.1","fareHoliday":"14.2"},{"id":"66","name":"東涌坳管理站","lat":"22.264006","long":"113.937155","street":"東涌道","fare":"7.1","fareHoliday":"14.2"},{"id":"67","name":"十八區墳場","lat":"22.265466","long":"113.936463","street":"東涌道","fare":"7.1","fareHoliday":"14.2"},{"id":"68","name":"石門甲道","lat":"22.269918","long":"113.934243","street":"東涌道","fare":"2.8","fareHoliday":"5.6"},{"id":"69","name":"龍井頭","lat":"22.275975","long":"113.933377","street":"東涌道","fare":"2.8","fareHoliday":"5.6"},{"id":"70","name":"黃家圍","lat":"22.277162","long":"113.933812","street":"東涌道","fare":"2.8","fareHoliday":"5.6"},{"id":"71","name":"下嶺皮","lat":"22.278731","long":"113.935475","street":"東涌道","fare":"2.8","fareHoliday":"5.6"},{"id":"72","name":"上嶺皮","lat":"22.278912","long":"113.936856","street":"東涌道","fare":"2.8","fareHoliday":"5.6"},{"id":"73","name":"東涌鄉事委員會","lat":"22.279138","long":"113.939299","street":"東涌道","fare":"2.8","fareHoliday":"5.6"},{"id":"74","name":"馬灣新村","lat":"22.279865","long":"113.940243","street":"松仁路","fare":"2.8","fareHoliday":"5.6"},{"id":"185","name":"北大嶼山醫院(北行), 逸東邨美逸樓","lat":"22.281295","long":"113.938822","street":"松仁路","fare":"2.8","fareHoliday":"5.6"},{"id":"76","name":"北大嶼山醫院(南行)","lat":"22.281861","long":"113.938803","street":"松仁路","fare":"2.8","fareHoliday":"5.6"},{"id":"77","name":"東涌消防局","lat":"22.286030","long":"113.941057","street":"順東路","fare":"2.8","fareHoliday":"5.6"},{"id":"78","name":"東涌纜車站","lat":"22.289301","long":"113.938733","street":"達東路","fare":"2.8","fareHoliday":"5.6"},{"id":"79","name":"東涌站巴士總站","lat":"22.289862","long":"113.939616","street":"達東路","fare":"0.0","fareHoliday":"0.0"}],"routeId":"14","description":"正常班次"},{"company":"nlb","route":"11","routeType":null,"dir":null,"orig":"大澳 (沙咀開)","dest":"東涌站巴士總站","stopList":[{"id":"40","name":"沙咀懲教所","lat":"22.224969","long":"113.893487","street":"石壁水塘道","fare":"10.1","fareHoliday":"17.6"},{"id":"236","name":"石壁警崗","lat":"22.226119","long":"113.898134","street":"嶼南道","fare":"10.1","fareHoliday":"17.6"},{"id":"237","name":"水口直升機場","lat":"22.223703","long":"113.908325","street":"嶼南道","fare":"7.1","fareHoliday":"14.2"},{"id":"238","name":"四眼馬","lat":"22.222054","long":"113.910632","street":"嶼南道","fare":"7.1","fareHoliday":"14.2"},{"id":"239","name":"水口村","lat":"22.221101","long":"113.914173","street":"嶼南道","fare":"7.1","fareHoliday":"14.2"},{"id":"240","name":"水口村(東)","lat":"22.221841","long":"113.915763","street":"嶼南道","fare":"7.1","fareHoliday":"14.2"},{"id":"241","name":"下橫壟","lat":"22.222050","long":"113.919234","street":"嶼南道","fare":"7.1","fareHoliday":"14.2"},{"id":"242","name":"上橫壟","lat":"22.224358","long":"113.921077","street":"嶼南道","fare":"7.1","fareHoliday":"14.2"},{"id":"243","name":"南大嶼山海底電纜站","lat":"22.225883","long":"113.927180","street":"嶼南道","fare":"7.1","fareHoliday":"14.2"},{"id":"32","name":"塘福懲教所","lat":"22.228764","long":"113.926084","street":"嶼南道","fare":"7.1","fareHoliday":"14.2"},{"id":"30","name":"麻埔坪村","lat":"22.229926","long":"113.928050","street":"麻埔坪道","fare":"7.1","fareHoliday":"14.2"},{"id":"244","name":"麻埔坪道口","lat":"22.226583","long":"113.930077","street":"嶼南道","fare":"7.1","fareHoliday":"14.2"},{"id":"245","name":"塘福村","lat":"22.227763","long":"113.932397","street":"嶼南道","fare":"7.1","fareHoliday":"14.2"},{"id":"246","name":"塘福海灘","lat":"22.228941","long":"113.935944","street":"嶼南道","fare":"7.1","fareHoliday":"14.2"},{"id":"247","name":"上長沙泳灘","lat":"22.231329","long":"113.941766","street":"嶼南道","fare":"7.1","fareHoliday":"14.2"},{"id":"248","name":"長沙大橋","lat":"22.233979","long":"113.947366","street":"嶼南道","fare":"7.1","fareHoliday":"14.2"},{"id":"249","name":"蝶崗","lat":"22.235062","long":"113.949298","street":"嶼南道","fare":"7.1","fareHoliday":"14.2"},{"id":"250","name":"麗濱別墅","lat":"22.236472","long":"113.951424","street":"嶼南道","fare":"7.1","fareHoliday":"14.2"},{"id":"251","name":"長沙消防局","lat":"22.236803","long":"113.955434","street":"嶼南道","fare":"7.1","fareHoliday":"14.2"},{"id":"252","name":"長沙下村","lat":"22.234965","long":"113.957170","street":"嶼南道","fare":"7.1","fareHoliday":"14.2"},{"id":"253","name":"長沙警署","lat":"22.233964","long":"113.960174","street":"嶼南道","fare":"7.1","fareHoliday":"14.2"},{"id":"254","name":"長沙上村","lat":"22.235330","long":"113.961547","street":"嶼南道","fare":"7.1","fareHoliday":"14.2"},{"id":"255","name":"散石灣迴旋處","lat":"22.236727","long":"113.962424","street":"嶼南道","fare":"7.1","fareHoliday":"14.2"},{"id":"179","name":"東涌道","lat":"22.237918","long":"113.962920","street":"嶼南道","fare":"7.1","fareHoliday":"14.2"},{"id":"64","name":"長沙引水道","lat":"22.239814","long":"113.957216","street":"東涌道","fare":"7.1","fareHoliday":"14.2"},{"id":"65","name":"伯公坳","lat":"22.248054","long":"113.943139","street":"東涌道","fare":"7.1","fareHoliday":"14.2"},{"id":"66","name":"東涌坳管理站","lat":"22.264006","long":"113.937155","street":"東涌道","fare":"7.1","fareHoliday":"14.2"},{"id":"67","name":"十八區墳場","lat":"22.265466","long":"113.936463","street":"東涌道","fare":"7.1","fareHoliday":"14.2"},{"id":"68","name":"石門甲道","lat":"22.269918","long":"113.934243","street":"東涌道","fare":"2.8","fareHoliday":"5.6"},{"id":"69","name":"龍井頭","lat":"22.275975","long":"113.933377","street":"東涌道","fare":"2.8","fareHoliday":"5.6"},{"id":"70","name":"黃家圍","lat":"22.277162","long":"113.933812","street":"東涌道","fare":"2.8","fareHoliday":"5.6"},{"id":"71","name":"下嶺皮","lat":"22.278731","long":"113.935475","street":"東涌道","fare":"2.8","fareHoliday":"5.6"},{"id":"72","name":"上嶺皮","lat":"22.278912","long":"113.936856","street":"東涌道","fare":"2.8","fareHoliday":"5.6"},{"id":"73","name":"東涌鄉事委員會","lat":"22.279138","long":"113.939299","street":"東涌道","fare":"2.8","fareHoliday":"5.6"},{"id":"74","name":"馬灣新村","lat":"22.279865","long":"113.940243","street":"松仁路","fare":"2.8","fareHoliday":"5.6"},{"id":"77","name":"東涌消防局","lat":"22.286030","long":"113.941057","street":"順東路","fare":"2.8","fareHoliday":"5.6"},{"id":"78","name":"東涌纜車站","lat":"22.289301","long":"113.938733","street":"達東路","fare":"2.8","fareHoliday":"5.6"},{"id":"79","name":"東涌站巴士總站","lat":"22.289862","long":"113.939616","street":"達東路","fare":"0.0","fareHoliday":"0.0"}],"routeId":"17","description":"正常班次"},{"company":"nlb","route":"11","routeType":null,"dir":null,"orig":"大澳 (水口開)","dest":"東涌站巴士總站","stopList":[{"id":"240","name":"水口村(東)","lat":"22.221841","long":"113.915763","street":"嶼南道","fare":"7.1","fareHoliday":"14.2"},{"id":"241","name":"下橫壟","lat":"22.222050","long":"113.919234","street":"嶼南道","fare":"7.1","fareHoliday":"14.2"},{"id":"242","name":"上橫壟","lat":"22.224358","long":"113.921077","street":"嶼南道","fare":"7.1","fareHoliday":"14.2"},{"id":"243","name":"南大嶼山海底電纜站","lat":"22.225883","long":"113.927180","street":"嶼南道","fare":"7.1","fareHoliday":"14.2"},{"id":"244","name":"麻埔坪道口","lat":"22.226583","long":"113.930077","street":"嶼南道","fare":"7.1","fareHoliday":"14.2"},{"id":"245","name":"塘福村","lat":"22.227763","long":"113.932397","street":"嶼南道","fare":"7.1","fareHoliday":"14.2"},{"id":"246","name":"塘福海灘","lat":"22.228941","long":"113.935944","street":"嶼南道","fare":"7.1","fareHoliday":"14.2"},{"id":"247","name":"上長沙泳灘","lat":"22.231329","long":"113.941766","street":"嶼南道","fare":"7.1","fareHoliday":"14.2"},{"id":"248","name":"長沙大橋","lat":"22.233979","long":"113.947366","street":"嶼南道","fare":"7.1","fareHoliday":"14.2"},{"id":"249","name":"蝶崗","lat":"22.235062","long":"113.949298","street":"嶼南道","fare":"7.1","fareHoliday":"14.2"},{"id":"250","name":"麗濱別墅","lat":"22.236472","long":"113.951424","street":"嶼南道","fare":"7.1","fareHoliday":"14.2"},{"id":"251","name":"長沙消防局","lat":"22.236803","long":"113.955434","street":"嶼南道","fare":"7.1","fareHoliday":"14.2"},{"id":"252","name":"長沙下村","lat":"22.234965","long":"113.957170","street":"嶼南道","fare":"7.1","fareHoliday":"14.2"},{"id":"253","name":"長沙警署","lat":"22.233964","long":"113.960174","street":"嶼南道","fare":"7.1","fareHoliday":"14.2"},{"id":"254","name":"長沙上村","lat":"22.235330","long":"113.961547","street":"嶼南道","fare":"7.1","fareHoliday":"14.2"},{"id":"255","name":"散石灣迴旋處","lat":"22.236727","long":"113.962424","street":"嶼南道","fare":"7.1","fareHoliday":"14.2"},{"id":"179","name":"東涌道","lat":"22.237918","long":"113.962920","street":"嶼南道","fare":"7.1","fareHoliday":"14.2"},{"id":"64","name":"長沙引水道","lat":"22.239814","long":"113.957216","street":"東涌道","fare":"7.1","fareHoliday":"14.2"},{"id":"65","name":"伯公坳","lat":"22.248054","long":"113.943139","street":"東涌道","fare":"7.1","fareHoliday":"14.2"},{"id":"66","name":"東涌坳管理站","lat":"22.264006","long":"113.937155","street":"東涌道","fare":"7.1","fareHoliday":"14.2"},{"id":"67","name":"十八區墳場","lat":"22.265466","long":"113.936463","street":"東涌道","fare":"7.1","fareHoliday":"14.2"},{"id":"68","name":"石門甲道","lat":"22.269918","long":"113.934243","street":"東涌道","fare":"2.8","fareHoliday":"5.6"},{"id":"69","name":"龍井頭","lat":"22.275975","long":"113.933377","street":"東涌道","fare":"2.8","fareHoliday":"5.6"},{"id":"70","name":"黃家圍","lat":"22.277162","long":"113.933812","street":"東涌道","fare":"2.8","fareHoliday":"5.6"},{"id":"71","name":"下嶺皮","lat":"22.278731","long":"113.935475","street":"東涌道","fare":"2.8","fareHoliday":"5.6"},{"id":"72","name":"上嶺皮","lat":"22.278912","long":"113.936856","street":"東涌道","fare":"2.8","fareHoliday":"5.6"},{"id":"73","name":"東涌鄉事委員會","lat":"22.279138","long":"113.939299","street":"東涌道","fare":"2.8","fareHoliday":"5.6"},{"id":"74","name":"馬灣新村","lat":"22.279865","long":"113.940243","street":"松仁路","fare":"2.8","fareHoliday":"5.6"},{"id":"77","name":"東涌消防局","lat":"22.286030","long":"113.941057","street":"順東路","fare":"2.8","fareHoliday":"5.6"},{"id":"78","name":"東涌纜車站","lat":"22.289301","long":"113.938733","street":"達東路","fare":"2.8","fareHoliday":"5.6"},{"id":"79","name":"東涌站巴士總站","lat":"22.289862","long":"113.939616","street":"達東路","fare":"0.0","fareHoliday":"0.0"}],"routeId":"18","description":"正常班次"},{"company":"gmb","route":"11","routeType":1,"orig":"坑口村","dest":"彩虹站(龍翔道)","stopList":[{"id":20012484,"name":"庭和里, 近坑口村","lat":"22.320537","long":"114.266508"},{"id":20002563,"name":"重華路, 東港城第6座對面","lat":"22.317173","long":"114.265586"},{"id":20002597,"name":"坑口站公共運輸交匯處","lat":"22.315846","long":"114.264245"},{"id":20003054,"name":"寶寧路, 富寧花園外","lat":"22.318743","long":"114.267566"},{"id":20001140,"name":"寶寧路, 將軍澳醫院外","lat":"22.317631","long":"114.269051"},{"id":20012485,"name":"坑口道, 近雅景別墅","lat":"22.321634","long":"114.268960"},{"id":20013010,"name":"香港科技大學(南站)","lat":"22.333134","long":"114.262874"},{"id":20001142,"name":"清水灣道, 大埔仔村外","lat":"22.337160","long":"114.259075"},{"id":20012487,"name":"清水灣道, 大埔仔坳","lat":"22.340024","long":"114.258564"},{"id":20012488,"name":"清水灣道, 打鼓嶺新村對面","lat":"22.343348","long":"114.251890"},{"id":20001145,"name":"清水灣道, 壁屋懲教署對面","lat":"22.339740","long":"114.246845"},{"id":20012489,"name":"清水灣道, 白石窩","lat":"22.335806","long":"114.241945"},{"id":20001146,"name":"清水灣道, 近井欄樹","lat":"22.333621","long":"114.236854"},{"id":20012490,"name":"清水灣道, 近龍窩村","lat":"22.334506","long":"114.230508"},{"id":20012491,"name":"清水灣道, 德望學校對面","lat":"22.333757","long":"114.220562"},{"id":20000566,"name":"清水灣道, 彩雲商場","lat":"22.333474","long":"114.214790"},{"id":20001117,"name":"清水灣道(西行線), 坪石邨紅石樓外小巴停車坑\t","lat":"22.333937","long":"114.208430"},{"id":20012492,"name":"龍翔道, 彩虹邨紅萼樓外","lat":"22.336689","long":"114.206636"}],"routeId":2004791,"description":"正常班次"},{"company":"gmb","route":"11","routeType":2,"orig":"彩虹站(龍翔道)","dest":"坑口村","stopList":[{"id":20001116,"name":"龍翔道, 近牛池灣消防局","lat":"22.335020","long":"114.208131"},{"id":20000568,"name":"清水灣道, 彩雲商場","lat":"22.333745","long":"114.215042"},{"id":20012493,"name":"清水灣道, 德望學校外","lat":"22.333915","long":"114.221098"},{"id":20012494,"name":"騰龍台","lat":"22.333394","long":"114.235164"},{"id":20001999,"name":"清水灣道, 井欄樹","lat":"22.334154","long":"114.237339"},{"id":20002000,"name":"清水灣道, 白石窩","lat":"22.337087","long":"114.242689"},{"id":20002001,"name":"清水灣道, 壁屋懲教所外","lat":"22.339749","long":"114.246476"},{"id":20012495,"name":"清水灣道, 打鼓嶺新村","lat":"22.343735","long":"114.254299"},{"id":20012479,"name":"清水灣道, 大埔仔坳","lat":"22.340500","long":"114.258547"},{"id":20012472,"name":"香港科技大學(北站)","lat":"22.338426","long":"114.262104"},{"id":20012496,"name":"清水灣道, 大埔仔村對面","lat":"22.336650","long":"114.259363"},{"id":20012497,"name":"水邊村","lat":"22.321247","long":"114.269008"},{"id":20012498,"name":"半見村","lat":"22.316979","long":"114.270762"},{"id":20001172,"name":"寶寧路, 將軍澳醫院對面","lat":"22.317469","long":"114.268857"},{"id":20001162,"name":"重華路, 東港城第6座對面","lat":"22.317100","long":"114.265750"},{"id":20002597,"name":"坑口站公共運輸交匯處","lat":"22.315846","long":"114.264245"},{"id":20012484,"name":"庭和里, 近坑口村","lat":"22.320537","long":"114.266508"}],"routeId":2004791,"description":"正常班次"}]