[{"company":"kmb","route":"110","routeType":"1","dir":"O","orig":"筲箕灣","dest":"尖沙咀(循環線)","stopList":[{"id":"35AEEA90C71121F0","name":"筲箕灣巴士總站","lat":"22.278389","long":"114.228306"},{"id":"B404A065F58A5F64","name":"新成街","lat":"22.279126","long":"114.225982"},{"id":"4FC7150518C5234A","name":"筲箕灣廣場","lat":"22.277232","long":"114.226245"},{"id":"3FB2109BF5E57DDB","name":"東盛苑","lat":"22.275998","long":"114.226498"},{"id":"455FC1E8B39E3D16","name":"耀明樓","lat":"22.275812","long":"114.224643"},{"id":"F01C5503A89517B4","name":"耀東商場","lat":"22.277031","long":"114.223742"},{"id":"88461293F994CB07","name":"耀華樓","lat":"22.279016","long":"114.220208"},{"id":"7FC94FB715BB85C6","name":"景熹閣","lat":"22.279831","long":"114.217890"},{"id":"08A237AE35DF8A35","name":"興東邨","lat":"22.280616","long":"114.219706"},{"id":"9711BA45457DCA24","name":"太寧街","lat":"22.282013","long":"114.220460"},{"id":"99FB764916B4BA81","name":"太古城高山臺","lat":"22.286094","long":"114.219040"},{"id":"E293EF47A90B818D","name":"太古城中心","lat":"22.286182","long":"114.216765"},{"id":"616738F21326814A","name":"健威花園","lat":"22.291719","long":"114.203666"},{"id":"3A1D9864C04075B2","name":"琴行街","lat":"22.291175","long":"114.200951"},{"id":"153D32217234A0F0","name":"紅隧轉車站 (HH602)","lat":"22.302576","long":"114.179914"},{"id":"5CCBD9A6B58BF20D","name":"九龍佑寧堂 (YT670)","lat":"22.305649","long":"114.172574"},{"id":"E049C81469E2B3C0","name":"白加士街 廟街夜市 (YT671)","lat":"22.305172","long":"114.170361"},{"id":"076E1E9D5874C41D","name":"佐敦炮台街 (YT673)","lat":"22.305524","long":"114.168430"},{"id":"F6EE4DC41A299593","name":"匯翔道  柯士甸站 (YT200)","lat":"22.304334","long":"114.167837"},{"id":"83EB94899B6BBB4B","name":"柯士甸道 戲曲中心 (YT202)","lat":"22.302051","long":"114.168121"},{"id":"F57E1173086C7A51","name":"廣東道,北京道 (YT207)","lat":"22.295621","long":"114.169362"},{"id":"5D75A800F823B45D","name":"尖東站 K11 MUSEA (YT216)","lat":"22.295152","long":"114.174392"},{"id":"0DB55CC5E4533F4E","name":"尖沙咀東（麼地道） (YT926)","lat":"22.296802","long":"114.175871"},{"id":"36C11B4E5D248AE2","name":"加連威老道 (YT224)","lat":"22.299887","long":"114.175860"},{"id":"2E825E8F0210AD98","name":"香港科學館 (YT228)","lat":"22.301842","long":"114.176473"},{"id":"06C9926B2E2B304F","name":"紅隧轉車站 (HH503)","lat":"22.303077","long":"114.180907"},{"id":"C0BEB24C600EF1BC","name":"銅鑼灣避風塘","lat":"22.284115","long":"114.186387"},{"id":"9DA0D713E35F6BA7","name":"歌頓道","lat":"22.285761","long":"114.190983"},{"id":"5C55C67ACA491F35","name":"電氣道街市","lat":"22.289552","long":"114.193757"},{"id":"793050242DDA833F","name":"城市花園","lat":"22.290682","long":"114.194772"},{"id":"25DA48631DA10B50","name":"北角道 (ED300)","lat":"22.291882","long":"114.197505"},{"id":"B6C64CB51157F680","name":"琴行街","lat":"22.292549","long":"114.200822"},{"id":"15CCC3BD5D31F759","name":"電照街","lat":"22.292941","long":"114.202713"},{"id":"78419C6BD5AB7C34","name":"太古城中心","lat":"22.286187","long":"114.217005"},{"id":"7F3E5B3E97FA0C9E","name":"太古城雅蓮閣","lat":"22.287431","long":"114.219489"},{"id":"F3EA0A9367773CF5","name":"太古城太湖閣","lat":"22.284730","long":"114.220420"},{"id":"D3A622F2C90CF194","name":"太康樓","lat":"22.283309","long":"114.221732"},{"id":"EFCD0F8254D59F7D","name":"港島民生書院","lat":"22.283261","long":"114.223637"},{"id":"2FEBCA818ACD749B","name":"東欣苑","lat":"22.280830","long":"114.220798"},{"id":"143ED3A601C1A080","name":"東熹苑","lat":"22.280435","long":"114.219605"},{"id":"35828A8106C380D1","name":"逸熹閣","lat":"22.279579","long":"114.218360"},{"id":"CC79602DDE23374F","name":"耀華樓","lat":"22.279297","long":"114.221017"},{"id":"3FD67C010BBA54DA","name":"耀東邨","lat":"22.277965","long":"114.222893"},{"id":"F627BC7B0387FA39","name":"耀興樓","lat":"22.276444","long":"114.224227"},{"id":"B1171B2BB00E5894","name":"耀貴樓","lat":"22.275642","long":"114.225683"},{"id":"DFF959D9A2B5E03E","name":"筲箕灣廣場","lat":"22.277430","long":"114.225935"},{"id":"35AEEA90C71121F0","name":"筲箕灣巴士總站","lat":"22.278389","long":"114.228306"}],"routeId":"110","description":"正常班次"},{"company":"kmb","route":"110","routeType":"2","dir":"O","orig":"筲箕灣","dest":"尖沙咀東(麼地道)","stopList":[{"id":"35AEEA90C71121F0","name":"筲箕灣巴士總站","lat":"22.278389","long":"114.228306"},{"id":"B404A065F58A5F64","name":"新成街","lat":"22.279126","long":"114.225982"},{"id":"4FC7150518C5234A","name":"筲箕灣廣場","lat":"22.277232","long":"114.226245"},{"id":"3FB2109BF5E57DDB","name":"東盛苑","lat":"22.275998","long":"114.226498"},{"id":"455FC1E8B39E3D16","name":"耀明樓","lat":"22.275812","long":"114.224643"},{"id":"F01C5503A89517B4","name":"耀東商場","lat":"22.277031","long":"114.223742"},{"id":"88461293F994CB07","name":"耀華樓","lat":"22.279016","long":"114.220208"},{"id":"7FC94FB715BB85C6","name":"景熹閣","lat":"22.279831","long":"114.217890"},{"id":"08A237AE35DF8A35","name":"興東邨","lat":"22.280616","long":"114.219706"},{"id":"9711BA45457DCA24","name":"太寧街","lat":"22.282013","long":"114.220460"},{"id":"99FB764916B4BA81","name":"太古城高山臺","lat":"22.286094","long":"114.219040"},{"id":"E293EF47A90B818D","name":"太古城中心","lat":"22.286182","long":"114.216765"},{"id":"616738F21326814A","name":"健威花園","lat":"22.291719","long":"114.203666"},{"id":"3A1D9864C04075B2","name":"琴行街","lat":"22.291175","long":"114.200951"},{"id":"153D32217234A0F0","name":"紅隧轉車站 (HH602)","lat":"22.302576","long":"114.179914"},{"id":"5CCBD9A6B58BF20D","name":"九龍佑寧堂 (YT670)","lat":"22.305649","long":"114.172574"},{"id":"E049C81469E2B3C0","name":"白加士街 廟街夜市 (YT671)","lat":"22.305172","long":"114.170361"},{"id":"076E1E9D5874C41D","name":"佐敦炮台街 (YT673)","lat":"22.305524","long":"114.168430"},{"id":"F6EE4DC41A299593","name":"匯翔道  柯士甸站 (YT200)","lat":"22.304334","long":"114.167837"},{"id":"83EB94899B6BBB4B","name":"柯士甸道 戲曲中心 (YT202)","lat":"22.302051","long":"114.168121"},{"id":"F57E1173086C7A51","name":"廣東道,北京道 (YT207)","lat":"22.295621","long":"114.169362"},{"id":"5D75A800F823B45D","name":"尖東站 K11 MUSEA (YT216)","lat":"22.295152","long":"114.174392"}],"routeId":"110","description":"特別班次"},{"company":"kmb","route":"110","routeType":"5","dir":"O","orig":"筲箕灣","dest":"尖沙咀(循環線)","stopList":[{"id":"35AEEA90C71121F0","name":"筲箕灣巴士總站","lat":"22.278389","long":"114.228306"},{"id":"B404A065F58A5F64","name":"新成街","lat":"22.279126","long":"114.225982"},{"id":"4FC7150518C5234A","name":"筲箕灣廣場","lat":"22.277232","long":"114.226245"},{"id":"3FB2109BF5E57DDB","name":"東盛苑","lat":"22.275998","long":"114.226498"},{"id":"455FC1E8B39E3D16","name":"耀明樓","lat":"22.275812","long":"114.224643"},{"id":"F01C5503A89517B4","name":"耀東商場","lat":"22.277031","long":"114.223742"},{"id":"88461293F994CB07","name":"耀華樓","lat":"22.279016","long":"114.220208"},{"id":"7FC94FB715BB85C6","name":"景熹閣","lat":"22.279831","long":"114.217890"},{"id":"08A237AE35DF8A35","name":"興東邨","lat":"22.280616","long":"114.219706"},{"id":"9711BA45457DCA24","name":"太寧街","lat":"22.282013","long":"114.220460"},{"id":"99FB764916B4BA81","name":"太古城高山臺","lat":"22.286094","long":"114.219040"},{"id":"E293EF47A90B818D","name":"太古城中心","lat":"22.286182","long":"114.216765"},{"id":"616738F21326814A","name":"健威花園","lat":"22.291719","long":"114.203666"},{"id":"3A1D9864C04075B2","name":"琴行街","lat":"22.291175","long":"114.200951"},{"id":"153D32217234A0F0","name":"紅隧轉車站 (HH602)","lat":"22.302576","long":"114.179914"},{"id":"5CCBD9A6B58BF20D","name":"九龍佑寧堂 (YT670)","lat":"22.305649","long":"114.172574"},{"id":"E049C81469E2B3C0","name":"白加士街 廟街夜市 (YT671)","lat":"22.305172","long":"114.170361"},{"id":"076E1E9D5874C41D","name":"佐敦炮台街 (YT673)","lat":"22.305524","long":"114.168430"},{"id":"343CF2F6ADACAACC","name":"西九龍站 (YT283)","lat":"22.304014","long":"114.166620"},{"id":"F6EE4DC41A299593","name":"匯翔道  柯士甸站 (YT200)","lat":"22.304334","long":"114.167837"},{"id":"83EB94899B6BBB4B","name":"柯士甸道 戲曲中心 (YT202)","lat":"22.302051","long":"114.168121"},{"id":"F57E1173086C7A51","name":"廣東道,北京道 (YT207)","lat":"22.295621","long":"114.169362"},{"id":"5D75A800F823B45D","name":"尖東站 K11 MUSEA (YT216)","lat":"22.295152","long":"114.174392"},{"id":"0DB55CC5E4533F4E","name":"尖沙咀東（麼地道） (YT926)","lat":"22.296802","long":"114.175871"},{"id":"36C11B4E5D248AE2","name":"加連威老道 (YT224)","lat":"22.299887","long":"114.175860"},{"id":"2E825E8F0210AD98","name":"香港科學館 (YT228)","lat":"22.301842","long":"114.176473"},{"id":"06C9926B2E2B304F","name":"紅隧轉車站 (HH503)","lat":"22.303077","long":"114.180907"},{"id":"C0BEB24C600EF1BC","name":"銅鑼灣避風塘","lat":"22.284115","long":"114.186387"},{"id":"9DA0D713E35F6BA7","name":"歌頓道","lat":"22.285761","long":"114.190983"},{"id":"5C55C67ACA491F35","name":"電氣道街市","lat":"22.289552","long":"114.193757"},{"id":"793050242DDA833F","name":"城市花園","lat":"22.290682","long":"114.194772"},{"id":"25DA48631DA10B50","name":"北角道 (ED300)","lat":"22.291882","long":"114.197505"},{"id":"B6C64CB51157F680","name":"琴行街","lat":"22.292549","long":"114.200822"},{"id":"15CCC3BD5D31F759","name":"電照街","lat":"22.292941","long":"114.202713"},{"id":"78419C6BD5AB7C34","name":"太古城中心","lat":"22.286187","long":"114.217005"},{"id":"7F3E5B3E97FA0C9E","name":"太古城雅蓮閣","lat":"22.287431","long":"114.219489"},{"id":"F3EA0A9367773CF5","name":"太古城太湖閣","lat":"22.284730","long":"114.220420"},{"id":"D3A622F2C90CF194","name":"太康樓","lat":"22.283309","long":"114.221732"},{"id":"EFCD0F8254D59F7D","name":"港島民生書院","lat":"22.283261","long":"114.223637"},{"id":"2FEBCA818ACD749B","name":"東欣苑","lat":"22.280830","long":"114.220798"},{"id":"143ED3A601C1A080","name":"東熹苑","lat":"22.280435","long":"114.219605"},{"id":"35828A8106C380D1","name":"逸熹閣","lat":"22.279579","long":"114.218360"},{"id":"CC79602DDE23374F","name":"耀華樓","lat":"22.279297","long":"114.221017"},{"id":"3FD67C010BBA54DA","name":"耀東邨","lat":"22.277965","long":"114.222893"},{"id":"F627BC7B0387FA39","name":"耀興樓","lat":"22.276444","long":"114.224227"},{"id":"B1171B2BB00E5894","name":"耀貴樓","lat":"22.275642","long":"114.225683"},{"id":"DFF959D9A2B5E03E","name":"筲箕灣廣場","lat":"22.277430","long":"114.225935"},{"id":"35AEEA90C71121F0","name":"筲箕灣巴士總站","lat":"22.278389","long":"114.228306"}],"routeId":"110","description":"特別班次"},{"company":"kmb","route":"110","routeType":"6","dir":"O","orig":"筲箕灣","dest":"尖沙咀東(麼地道)","stopList":[{"id":"35AEEA90C71121F0","name":"筲箕灣巴士總站","lat":"22.278389","long":"114.228306"},{"id":"B404A065F58A5F64","name":"新成街","lat":"22.279126","long":"114.225982"},{"id":"4FC7150518C5234A","name":"筲箕灣廣場","lat":"22.277232","long":"114.226245"},{"id":"3FB2109BF5E57DDB","name":"東盛苑","lat":"22.275998","long":"114.226498"},{"id":"455FC1E8B39E3D16","name":"耀明樓","lat":"22.275812","long":"114.224643"},{"id":"F01C5503A89517B4","name":"耀東商場","lat":"22.277031","long":"114.223742"},{"id":"88461293F994CB07","name":"耀華樓","lat":"22.279016","long":"114.220208"},{"id":"7FC94FB715BB85C6","name":"景熹閣","lat":"22.279831","long":"114.217890"},{"id":"08A237AE35DF8A35","name":"興東邨","lat":"22.280616","long":"114.219706"},{"id":"9711BA45457DCA24","name":"太寧街","lat":"22.282013","long":"114.220460"},{"id":"99FB764916B4BA81","name":"太古城高山臺","lat":"22.286094","long":"114.219040"},{"id":"E293EF47A90B818D","name":"太古城中心","lat":"22.286182","long":"114.216765"},{"id":"616738F21326814A","name":"健威花園","lat":"22.291719","long":"114.203666"},{"id":"3A1D9864C04075B2","name":"琴行街","lat":"22.291175","long":"114.200951"},{"id":"153D32217234A0F0","name":"紅隧轉車站 (HH602)","lat":"22.302576","long":"114.179914"},{"id":"5CCBD9A6B58BF20D","name":"九龍佑寧堂 (YT670)","lat":"22.305649","long":"114.172574"},{"id":"E049C81469E2B3C0","name":"白加士街 廟街夜市 (YT671)","lat":"22.305172","long":"114.170361"},{"id":"076E1E9D5874C41D","name":"佐敦炮台街 (YT673)","lat":"22.305524","long":"114.168430"},{"id":"343CF2F6ADACAACC","name":"西九龍站 (YT283)","lat":"22.304014","long":"114.166620"},{"id":"F6EE4DC41A299593","name":"匯翔道  柯士甸站 (YT200)","lat":"22.304334","long":"114.167837"},{"id":"83EB94899B6BBB4B","name":"柯士甸道 戲曲中心 (YT202)","lat":"22.302051","long":"114.168121"},{"id":"F57E1173086C7A51","name":"廣東道,北京道 (YT207)","lat":"22.295621","long":"114.169362"},{"id":"5D75A800F823B45D","name":"尖東站 K11 MUSEA (YT216)","lat":"22.295152","long":"114.174392"}],"routeId":"110","description":"特別班次"},{"company":"ctb","route":"110","routeType":null,"dir":"I","orig":"尖沙咀 (麼地道)","dest":"筲箕灣","stopList":[{"id":"001480","name":"九龍佑寧堂, 佐敦道","lat":"22.305712","long":"114.172603"},{"id":"002811","name":"白加士街, 佐敦道","lat":"22.305164","long":"114.170314"},{"id":"001482","name":"炮台街, 佐敦道","lat":"22.305532","long":"114.168587"},{"id":"003548","name":"高鐵西九龍站上落客區, 匯民道","lat":"22.303774","long":"114.166586"},{"id":"001400","name":"匯翔道, 廣東道","lat":"22.304374","long":"114.167807"},{"id":"002838","name":"柯士甸道, 廣東道","lat":"22.302015","long":"114.168066"},{"id":"001402","name":"北京道, 廣東道","lat":"22.295744","long":"114.169368"},{"id":"001587","name":"尖東站, 梳士巴利道","lat":"22.295216","long":"114.174608"},{"id":"001540","name":"尖沙咀 (麼地道)","lat":"22.296063","long":"114.175780"},{"id":"001417","name":"加連威老道, 漆咸道南","lat":"22.299906","long":"114.175867"},{"id":"001418","name":"香港科學館, 漆咸道南","lat":"22.301323","long":"114.176315"},{"id":"001476","name":"海底隧道巴士轉乘站","lat":"22.303016","long":"114.180842"},{"id":"001335","name":"銅鑼灣避風塘, 維園道","lat":"22.284074","long":"114.186285"},{"id":"001248","name":"歌頓道","lat":"22.285721","long":"114.191035"},{"id":"001243","name":"電氣道街市, 電氣道","lat":"22.289384","long":"114.193632"},{"id":"001244","name":"城市花園, 電氣道","lat":"22.290835","long":"114.194913"},{"id":"001254","name":"北角道, 渣華道","lat":"22.291788","long":"114.197244"},{"id":"001256","name":"琴行街, 渣華道","lat":"22.292466","long":"114.200737"},{"id":"001257","name":"電照街, 渣華道","lat":"22.292829","long":"114.202507"},{"id":"001379","name":"太古城中心, 太古城道","lat":"22.286125","long":"114.216859"},{"id":"001378","name":"太古城雅蓮閣, 太古灣道","lat":"22.287363","long":"114.219243"},{"id":"002792","name":"太古城太湖閣, 太古城道","lat":"22.284672","long":"114.220387"},{"id":"001313","name":"太康樓, 太康街","lat":"22.283341","long":"114.221779"},{"id":"001315","name":"港島民生書院, 太安街","lat":"22.283046","long":"114.223300"},{"id":"001376","name":"東欣苑, 耀興道","lat":"22.280709","long":"114.220824"},{"id":"001350","name":"東熹苑, 耀興道","lat":"22.280367","long":"114.219685"},{"id":"001351","name":"東熹苑逸熹閣, 耀興道","lat":"22.279405","long":"114.218323"},{"id":"001352","name":"耀東邨耀華樓, 耀興道","lat":"22.279322","long":"114.221109"},{"id":"002676","name":"耀東邨","lat":"22.277950","long":"114.222880"},{"id":"001353","name":"耀東邨耀興樓, 耀興道","lat":"22.276338","long":"114.224302"},{"id":"001354","name":"耀東邨耀貴樓, 耀興道","lat":"22.275634","long":"114.225741"},{"id":"001355","name":"筲箕灣廣場, 耀興道","lat":"22.277483","long":"114.225942"},{"id":"001207","name":"筲箕灣","lat":"22.278421","long":"114.228331"}],"routeId":"110","description":"正常班次"},{"company":"ctb","route":"110","routeType":null,"dir":"O","orig":"筲箕灣","dest":"尖沙咀 (麼地道)","stopList":[{"id":"001207","name":"筲箕灣","lat":"22.278421","long":"114.228331"},{"id":"001301","name":"新成街, 筲箕灣道","lat":"22.278725","long":"114.226225"},{"id":"001356","name":"筲箕灣廣場, 耀興道","lat":"22.277142","long":"114.226226"},{"id":"001357","name":"東盛苑, 耀興道","lat":"22.276099","long":"114.226511"},{"id":"003781","name":"耀東邨耀明樓, 耀興道","lat":"22.276010","long":"114.224467"},{"id":"001358","name":"耀東商場, 耀興道","lat":"22.277462","long":"114.223368"},{"id":"001359","name":"耀東邨耀華樓, 耀興道","lat":"22.278961","long":"114.220173"},{"id":"001360","name":"東熹苑景熹閣, 耀興道","lat":"22.280372","long":"114.217891"},{"id":"001361","name":"興東邨, 耀興道","lat":"22.280802","long":"114.219584"},{"id":"001375","name":"太寧街, 惠亨街","lat":"22.281801","long":"114.220498"},{"id":"002791","name":"高山臺, 太古城道","lat":"22.286132","long":"114.218892"},{"id":"001379","name":"太古城中心, 太古城道","lat":"22.286125","long":"114.216859"},{"id":"001277","name":"健威花園, 英皇道","lat":"22.291810","long":"114.203890"},{"id":"001279","name":"琴行街, 英皇道","lat":"22.291204","long":"114.200959"},{"id":"001475","name":"海底隧道巴士轉乘站","lat":"22.302818","long":"114.180084"},{"id":"001480","name":"九龍佑寧堂, 佐敦道","lat":"22.305712","long":"114.172603"},{"id":"002811","name":"白加士街, 佐敦道","lat":"22.305164","long":"114.170314"},{"id":"001482","name":"炮台街, 佐敦道","lat":"22.305532","long":"114.168587"},{"id":"003548","name":"高鐵西九龍站上落客區, 匯民道","lat":"22.303774","long":"114.166586"},{"id":"001400","name":"匯翔道, 廣東道","lat":"22.304374","long":"114.167807"},{"id":"002838","name":"柯士甸道, 廣東道","lat":"22.302015","long":"114.168066"},{"id":"001402","name":"北京道, 廣東道","lat":"22.295744","long":"114.169368"},{"id":"001587","name":"尖東站, 梳士巴利道","lat":"22.295216","long":"114.174608"},{"id":"001540","name":"尖沙咀 (麼地道)","lat":"22.296063","long":"114.175780"}],"routeId":"110","description":"正常班次"}]