[{"company":"gmb","route":"112M","routeType":1,"orig":"康城站公共運輸交匯處","dest":"將軍澳工業邨","stopList":[{"id":20015376,"name":"康城站公共運輸交匯處","lat":"22.296436","long":"114.268453"},{"id":20002633,"name":"環保大道, 首都對面","lat":"22.297445","long":"114.272535"},{"id":20015377,"name":"石角路, 近峻瀅","lat":"22.297093","long":"114.273955"},{"id":20015378,"name":"環保大道, 領都對面","lat":"22.294546","long":"114.273647"},{"id":20015379,"name":"駿光街, 近壹傳媒有限公司","lat":"22.286158","long":"114.273273"},{"id":20015380,"name":"駿才街, 近電視廣播有限公司電視廣播城","lat":"22.281001","long":"114.272742"},{"id":20015381,"name":"駿日街, 近香港貿易發展局展覽營運中心","lat":"22.281949","long":"114.269346"},{"id":20015382,"name":"將軍澳工業邨","lat":"22.283257","long":"114.270182"}],"routeId":2007365,"description":"正常班次"},{"company":"gmb","route":"112M","routeType":2,"orig":"將軍澳工業邨","dest":"康城站公共運輸交匯處","stopList":[{"id":20015382,"name":"將軍澳工業邨","lat":"22.283257","long":"114.270182"},{"id":20015380,"name":"駿才街, 近電視廣播有限公司電視廣播城","lat":"22.281001","long":"114.272742"},{"id":20015381,"name":"駿日街, 近香港貿易發展局展覽營運中心","lat":"22.281949","long":"114.269346"},{"id":20015383,"name":"環保大道, 領都外","lat":"22.294152","long":"114.273396"},{"id":20015377,"name":"石角路, 近峻瀅","lat":"22.297093","long":"114.273955"},{"id":20002647,"name":"環保大道, 首都外","lat":"22.296651","long":"114.272715"},{"id":20015376,"name":"康城站公共運輸交匯處","lat":"22.296436","long":"114.268453"}],"routeId":2007365,"description":"正常班次"}]