[{"company":"gmb","route":"112M","routeType":1,"orig":"康城站公共運輸交匯處","dest":"將軍澳工業邨","stopList":[{"id":20015376,"name":"康城站公共運輸交匯處","lat":22.296436147981264,"long":114.26845282316211},{"id":20002633,"name":"環保大道, 首都對面","lat":22.297444942848802,"long":114.27253514528277},{"id":20015377,"name":"石角路, 近峻瀅","lat":22.297072694668127,"long":114.27385210990907},{"id":20015378,"name":"環保大道,領凱對面","lat":22.294546344144578,"long":114.27364692091942},{"id":20015379,"name":"駿光街, 近壹傳媒有限公司","lat":22.286157937241942,"long":114.27327275276186},{"id":20015380,"name":"駿才街, 近電視廣播有限公司電視廣播城","lat":22.2810005543691,"long":114.2727416753769},{"id":20015381,"name":"駿日街, 近香港貿易發展局展覽營運中心","lat":22.281948653461086,"long":114.26934599876405},{"id":20015382,"name":"將軍澳工業邨","lat":22.28325662254648,"long":114.27018150687218}],"routeId":2007365,"description":"正常班次"},{"company":"gmb","route":"112M","routeType":2,"orig":"將軍澳工業邨","dest":"康城站公共運輸交匯處","stopList":[{"id":20015382,"name":"將軍澳工業邨","lat":22.28325662254648,"long":114.27018150687218},{"id":20015380,"name":"駿才街, 近電視廣播有限公司電視廣播城","lat":22.2810005543691,"long":114.2727416753769},{"id":20015381,"name":"駿日街, 近香港貿易發展局展覽營運中心","lat":22.281948653461086,"long":114.26934599876405},{"id":20015383,"name":"環保大道, 近領凱","lat":22.294151752856138,"long":114.27339613437654},{"id":20015377,"name":"石角路, 近峻瀅","lat":22.297072694668127,"long":114.27385210990907},{"id":20002647,"name":"環保大道, 首都外","lat":22.29665076093623,"long":114.27271494679499},{"id":20015376,"name":"康城站公共運輸交匯處","lat":22.296436147981264,"long":114.26845282316211}],"routeId":2007365,"description":"正常班次"}]