[{"company":"kmb","route":"113","routeType":"1","dir":"O","orig":"彩虹","dest":"堅尼地城(卑路乍灣)","stopList":[{"id":"4FDB108B1B5186DF","name":"彩虹轉車站 - 彩虹總站 (N3)","lat":"22.335999","long":"114.204188"},{"id":"1DF17F085C6C1B78","name":"鑽石山站","lat":"22.339029","long":"114.202492"},{"id":"AA2D8DCDD78651B0","name":"黃大仙轉車站 - 黃大仙廟 (C2)","lat":"22.341479","long":"114.194399"},{"id":"93D9D88C2D990D67","name":"摩士公園泳池","lat":"22.341570","long":"114.191604"},{"id":"D360B3EBF155C15A","name":"摩士公園","lat":"22.339876","long":"114.189506"},{"id":"713BF17AF24FE4DA","name":"摩士公園體育館","lat":"22.338347","long":"114.189704"},{"id":"7C4E16F4A138B142","name":"偉東樓","lat":"22.335816","long":"114.191616"},{"id":"029519563009717D","name":"盈東樓","lat":"22.333934","long":"114.191078"},{"id":"946C74E30100FE80","name":"九龍寨城公園","lat":"22.332261","long":"114.187981"},{"id":"C8203D267CECF949","name":"賈炳達道","lat":"22.330135","long":"114.187112"},{"id":"DB581AD59964EA41","name":"太子道西","lat":"22.328025","long":"114.187038"},{"id":"9DBBC71CB1578A87","name":"喇沙利道","lat":"22.326473","long":"114.183159"},{"id":"312CD2A987AA2773","name":"伯爵街","lat":"22.325975","long":"114.180423"},{"id":"3821D64D2BF1BB66","name":"九龍醫院","lat":"22.323641","long":"114.178381"},{"id":"7FAF7F6B57A8B606","name":"萬基大廈","lat":"22.319981","long":"114.176740"},{"id":"853C70D76FF68196","name":"培正中學","lat":"22.318257","long":"114.176347"},{"id":"66C6FDFC88F56E51","name":"醫療輔助總部","lat":"22.316951","long":"114.178572"},{"id":"7CD8F96A087CDDF2","name":"愛民邨","lat":"22.313102","long":"114.176914"},{"id":"6EDDBD4E965874D7","name":"紅隧轉車站 (B2)","lat":"22.302985","long":"114.180784"},{"id":"4B02D9728417C46D","name":"跑馬地馬場","lat":"22.275614","long":"114.180795"},{"id":"820241348552B5F0","name":"香港華仁書院","lat":"22.274832","long":"114.176353"},{"id":"1565610FC38F5BEA","name":"胡忠大廈","lat":"22.274489","long":"114.172684"},{"id":"EAAB84662A03A8F4","name":"聯發街","lat":"22.276066","long":"114.170022"},{"id":"D11990ADF3DCD7B5","name":"太古廣場三座","lat":"22.277148","long":"114.168305"},{"id":"FDC2D737183E7C09","name":"太古廣場","lat":"22.277991","long":"114.165087"},{"id":"B1DE024B06DE2EC7","name":"中銀大廈","lat":"22.279474","long":"114.162208"},{"id":"3B487B85E3F07416","name":"置地廣場","lat":"22.281520","long":"114.158043"},{"id":"C0B3CCF700EDA89C","name":"中環街市","lat":"22.284818","long":"114.155374"},{"id":"FACA192DB8589295","name":"急庇利街","lat":"22.286577","long":"114.151512"},{"id":"0AB51B6742BD37E4","name":"西港城","lat":"22.287687","long":"114.149886"},{"id":"0F3CD50DC7D4F385","name":"皇后街","lat":"22.287577","long":"114.146890"},{"id":"1749ED5AAA821C85","name":"高陞街","lat":"22.287689","long":"114.145457"},{"id":"A72EB7FC6BB34E40","name":"正街","lat":"22.287818","long":"114.141681"},{"id":"B6606A91B6DE64E3","name":"水街","lat":"22.287136","long":"114.138029"},{"id":"07E603DFCBEAEA77","name":"山道","lat":"22.286586","long":"114.136037"},{"id":"1BA80A40CD423D33","name":"堅尼地城泳池","lat":"22.285644","long":"114.131865"},{"id":"CEEA538B2BDFE329","name":"山市街","lat":"22.284264","long":"114.130358"},{"id":"5CE3ECA0F9501DAB","name":"聯邦新樓","lat":"22.282390","long":"114.127414"},{"id":"B0764B3D836822DE","name":"加多近街","lat":"22.282747","long":"114.125953"},{"id":"7959F14FBCC06B74","name":"堅尼地城巴士總站","lat":"22.284441","long":"114.128291"}],"routeId":"113","description":"正常班次"},{"company":"kmb","route":"113","routeType":"1","dir":"I","orig":"堅尼地城(卑路乍灣)","dest":"彩虹","stopList":[{"id":"7959F14FBCC06B74","name":"堅尼地城巴士總站","lat":"22.284441","long":"114.128291"},{"id":"AB251DCF928EEEE5","name":"荷蘭街","lat":"22.284415","long":"114.130788"},{"id":"85CB8068F5EE5C72","name":"皇后大道西","lat":"22.287235","long":"114.132563"},{"id":"A1034BF3E773BB68","name":"山道","lat":"22.287153","long":"114.134712"},{"id":"1EDCDB755F40EB55","name":"均益大廈第二期","lat":"22.287296","long":"114.137838"},{"id":"EC715C570AB11722","name":"西區警署","lat":"22.287874","long":"114.139919"},{"id":"E89C6DCF25D25B3B","name":"東邊街","lat":"22.287967","long":"114.144087"},{"id":"7616C33B0351F02D","name":"修打蘭街","lat":"22.287806","long":"114.146434"},{"id":"1FBF3DA8236B5F45","name":"林士街","lat":"22.286080","long":"114.153769"},{"id":"D7D5360A9A0C5D6A","name":"德忌利士街","lat":"22.283342","long":"114.156845"},{"id":"C0B0B597A9C896F7","name":"皇后像廣場","lat":"22.280784","long":"114.159628"},{"id":"A6657A42304B7520","name":"太古廣場三座","lat":"22.277489","long":"114.168119"},{"id":"06D3396F1F07B07D","name":"聯發街","lat":"22.276226","long":"114.170164"},{"id":"48105C2BE18DAD7F","name":"廈門街","lat":"22.275476","long":"114.171358"},{"id":"5BDD937FB8FA0D9E","name":"尚翹峰","lat":"22.274488","long":"114.173883"},{"id":"EAAE29D7F756462B","name":"聖若瑟小學","lat":"22.275069","long":"114.176435"},{"id":"5E580B759FCA6CA2","name":"堅拿道西","lat":"22.277294","long":"114.180932"},{"id":"79AFB35F9DBD485A","name":"紅隧轉車站 (C3)","lat":"22.302650","long":"114.179952"},{"id":"D5DB45916FCE114A","name":"嘉輝台","lat":"22.313580","long":"114.176804"},{"id":"5D94D3084F0C3831","name":"醫療輔助總部","lat":"22.317339","long":"114.178281"},{"id":"E907FA24426A9FD6","name":"九龍維景酒店","lat":"22.319026","long":"114.175669"},{"id":"7D06FF559C2414AF","name":"聖佐治大廈","lat":"22.323516","long":"114.178017"},{"id":"0A72152D4873A5C7","name":"聖德肋撒堂","lat":"22.325447","long":"114.177493"},{"id":"AE88B3CCA11ACCDC","name":"基堤道","lat":"22.325905","long":"114.174204"},{"id":"F851B0B122F38CCC","name":"明愛太子宿舍","lat":"22.326955","long":"114.176894"},{"id":"EE848579A1FCC0E0","name":"喇沙小學","lat":"22.327117","long":"114.181045"},{"id":"1E58DF8CAD59712E","name":"聖德肋撒醫院","lat":"22.327382","long":"114.185584"},{"id":"FD45CEE7D2E4A9BF","name":"衙前圍道","lat":"22.328490","long":"114.186330"},{"id":"C6F9EC39B9F09F32","name":"東寶庭道","lat":"22.330563","long":"114.186481"},{"id":"0021600EF3DBEF94","name":"九龍寨城公園","lat":"22.332460","long":"114.188921"},{"id":"26DE86F5E667C410","name":"美東樓","lat":"22.333067","long":"114.190213"},{"id":"B8626845E031C9CF","name":"摩士露天劇場","lat":"22.336181","long":"114.191437"},{"id":"A811A4AAF18AFAFF","name":"龍滿樓","lat":"22.337746","long":"114.192361"},{"id":"20915DF05723C615","name":"龍慧樓","lat":"22.340024","long":"114.194140"},{"id":"FE3B13A457EEA70C","name":"黃大仙警署","lat":"22.338987","long":"114.196765"},{"id":"138A71694F5A3451","name":"新蒲崗四美街","lat":"22.338289","long":"114.201631"},{"id":"5169C5ACEA8B1746","name":"彩虹轉車站- 碧海樓 (M1)","lat":"22.335915","long":"114.204677"},{"id":"4FDB108B1B5186DF","name":"彩虹轉車站 - 彩虹總站 (N3)","lat":"22.335999","long":"114.204188"}],"routeId":"113","description":"正常班次"},{"company":"ctb","route":"113","routeType":null,"dir":"I","orig":"彩虹","dest":"堅尼地城 (卑路乍灣)","stopList":[{"id":"001698","name":"彩虹","lat":"22.336220792091","long":"114.20420603053"},{"id":"001695","name":"鑽石山站, 龍翔道","lat":"22.339272392091","long":"114.20228739053"},{"id":"001690","name":"沙田坳道, 龍翔道","lat":"22.341586742091","long":"114.19546107053"},{"id":"001524","name":"摩士公園游泳池, 龍翔道","lat":"22.341541322091","long":"114.19151762053"},{"id":"003006","name":"摩士公園, 鳳舞街","lat":"22.339926712091","long":"114.18935852053"},{"id":"003007","name":"摩士公園體育館, 鳳舞街","lat":"22.338013342091","long":"114.18969742053"},{"id":"003008","name":"東頭邨偉東樓, 東頭村道","lat":"22.335890592091","long":"114.19152220053"},{"id":"003014","name":"東頭邨盈東樓, 東頭村道","lat":"22.334102832091","long":"114.19102897053"},{"id":"003009","name":"九龍寨城公園, 東頭村道","lat":"22.332321132091","long":"114.18823587053"},{"id":"003010","name":"賈炳達道, 聯合道","lat":"22.330306152091","long":"114.18708746053"},{"id":"003011","name":"太子道西, 聯合道","lat":"22.327964722091","long":"114.18699193053"},{"id":"003012","name":"喇沙利道, 太子道西","lat":"22.326509252091","long":"114.18310233053"},{"id":"003013","name":"伯爵街, 太子道西","lat":"22.326031552091","long":"114.18039547053"},{"id":"001625","name":"九龍醫院, 窩打老道","lat":"22.323544842091","long":"114.17836146053"},{"id":"001626","name":"萬基大廈, 窩打老道","lat":"22.320013062091","long":"114.17668017053"},{"id":"002719","name":"培正中學, 培正道","lat":"22.318136222091","long":"114.17641017053"},{"id":"001580","name":"醫療輔助隊總部, 公主道","lat":"22.317200302091","long":"114.17848322053"},{"id":"001581","name":"愛民邨, 公主道","lat":"22.312810302091","long":"114.17687688053"},{"id":"001537","name":"海底隧道巴士轉乘站","lat":"22.302678002091","long":"114.18065137053"},{"id":"002558","name":"跑馬地馬場, 摩理臣山道","lat":"22.275441072091","long":"114.18030536053"},{"id":"002487","name":"香港華仁書院, 皇后大道東","lat":"22.274833802091","long":"114.17623997053"},{"id":"002569","name":"胡忠大廈, 皇后大道東","lat":"22.274580512091","long":"114.17250642053"},{"id":"002488","name":"聯發街, 皇后大道東","lat":"22.276100292091","long":"114.17002156053"},{"id":"002489","name":"太古廣場三座, 皇后大道東","lat":"22.277274142091","long":"114.16820458053"},{"id":"001140","name":"金鐘 - 太古廣場, 金鐘道","lat":"22.278070732091","long":"114.16486695053"},{"id":"001142","name":"中銀大廈, 金鐘道","lat":"22.279480102091","long":"114.16214434053"},{"id":"001054","name":"置地廣場, 德輔道中","lat":"22.281316152091","long":"114.15825054053"},{"id":"001056","name":"中環街市, 德輔道中","lat":"22.284855172091","long":"114.15539392053"},{"id":"001175","name":"急庇利街, 德輔道中","lat":"22.286597682091","long":"114.15157623053"},{"id":"001040","name":"西港城, 干諾道西","lat":"22.287710712091","long":"114.14980124053"},{"id":"001066","name":"皇后街, 德輔道西","lat":"22.287617562091","long":"114.14686036053"},{"id":"001067","name":"高陞街, 德輔道西","lat":"22.287746752091","long":"114.14541645053"},{"id":"001068","name":"正街, 德輔道西","lat":"22.287878642091","long":"114.14161842053"},{"id":"001069","name":"水街, 德輔道西","lat":"22.287186722091","long":"114.13806360053"},{"id":"001070","name":"山道, 德輔道西","lat":"22.286627542091","long":"114.13607459053"},{"id":"001082","name":"堅尼地城游泳池, 堅彌地城海旁","lat":"22.285471952091","long":"114.13174101053"},{"id":"001083","name":"山市街, 堅彌地城海旁","lat":"22.284330652091","long":"114.13037010053"},{"id":"001005","name":"聯邦新樓, 卑路乍街","lat":"22.282463392091","long":"114.12760792053"},{"id":"002590","name":"加多近街","lat":"22.282790252091","long":"114.12590822053"},{"id":"001177","name":"卑路乍灣","lat":"22.284611882091","long":"114.12845352053"}],"routeId":"113","description":"正常班次"},{"company":"ctb","route":"113","routeType":null,"dir":"O","orig":"堅尼地城 (卑路乍灣)","dest":"彩虹","stopList":[{"id":"001177","name":"卑路乍灣","lat":"22.284611882091","long":"114.12845352053"},{"id":"002764","name":"荷蘭街","lat":"22.284460442091","long":"114.13077129053"},{"id":"001059","name":"堅尼地城游泳池休憩處, 德輔道西","lat":"22.287202282091","long":"114.13257171053"},{"id":"001060","name":"山道, 德輔道西","lat":"22.287192342091","long":"114.13433789053"},{"id":"001192","name":"均益大廈第二期, 德輔道西","lat":"22.287246062091","long":"114.13780956053"},{"id":"002734","name":"西區警署, 德輔道西","lat":"22.287766442091","long":"114.13975075053"},{"id":"001064","name":"東邊街, 德輔道西","lat":"22.287915452091","long":"114.14422510053"},{"id":"001065","name":"修打蘭街, 德輔道西","lat":"22.287779782091","long":"114.14637128053"},{"id":"001044","name":"林士街, 德輔道中","lat":"22.286050072091","long":"114.15372775053"},{"id":"001047","name":"德忌利士街, 德輔道中","lat":"22.283301982091","long":"114.15683404053"},{"id":"001051","name":"皇后像廣場, 德輔道中","lat":"22.280748762091","long":"114.15964401053"},{"id":"002479","name":"太古廣場三座, 皇后大道東","lat":"22.277614332091","long":"114.16784733053"},{"id":"002480","name":"聯發街, 皇后大道東","lat":"22.276092532091","long":"114.17017417053"},{"id":"002481","name":"廈門街, 皇后大道東","lat":"22.275205172091","long":"114.17158011053"},{"id":"002482","name":"尚翹峰, 皇后大道東","lat":"22.274470092091","long":"114.17386255053"},{"id":"002484","name":"聖若瑟小學, 皇后大道東","lat":"22.275165142091","long":"114.17692050053"},{"id":"002405","name":"堅拿道西","lat":"22.277412402091","long":"114.18097147053"},{"id":"001475","name":"海底隧道巴士轉乘站","lat":"22.302817792091","long":"114.18008423053"},{"id":"001578","name":"嘉輝台, 公主道","lat":"22.313295812091","long":"114.17677449053"},{"id":"001579","name":"醫療輔助隊總部, 公主道","lat":"22.317377132091","long":"114.17833347053"},{"id":"001616","name":"九龍維景酒店, 窩打老道","lat":"22.319136922091","long":"114.17577537053"},{"id":"001617","name":"聖佐治大廈, 窩打老道","lat":"22.323495502091","long":"114.17811905053"},{"id":"003015","name":"聖德肋撒堂, 太子道西","lat":"22.325527352091","long":"114.17759294053"},{"id":"003016","name":"基堤道","lat":"22.325651522091","long":"114.17415508053"},{"id":"003017","name":"明愛太子宿舍, 界限街","lat":"22.326951232091","long":"114.17713847053"},{"id":"003018","name":"喇沙小學, 界限街","lat":"22.327114502091","long":"114.18105590053"},{"id":"003019","name":"聖德肋撒醫院, 界限街","lat":"22.327312562091","long":"114.18559238053"},{"id":"003020","name":"衙前圍道, 嘉林邊道","lat":"22.328394612091","long":"114.18638464053"},{"id":"003021","name":"東寶庭道, 嘉林邊道","lat":"22.330607402091","long":"114.18647885053"},{"id":"003022","name":"九龍寨城公園, 東頭村道","lat":"22.332474952091","long":"114.18912449053"},{"id":"003023","name":"美東邨美東樓, 東頭村道","lat":"22.333155732091","long":"114.19040981053"},{"id":"003024","name":"摩士公園露天劇場, 東頭村道","lat":"22.336213802091","long":"114.19155837053"},{"id":"003025","name":"黃大仙下邨龍滿樓, 東頭村道","lat":"22.337938162091","long":"114.19268420053"},{"id":"002993","name":"黃大仙下邨龍慧樓, 東頭村道","lat":"22.339992092091","long":"114.19421942053"},{"id":"001689","name":"黃大仙警署, 彩虹道","lat":"22.339132542091","long":"114.19711901053"},{"id":"001452","name":"四美街, 彩虹道","lat":"22.338858572091","long":"114.20021569053"},{"id":"001742","name":"彩虹邨碧海樓, 彩虹邨通道","lat":"22.336128432091","long":"114.20447573053"},{"id":"001698","name":"彩虹","lat":"22.336220792091","long":"114.20420603053"}],"routeId":"113","description":"正常班次"},{"company":"gmb","route":"113","routeType":1,"orig":"峻瀅","dest":"坑口站公共運輸交匯處(循環線)","stopList":[{"id":20015377,"name":"石角路, 近峻瀅II","lat":22.297072694668127,"long":114.27385210990907},{"id":20002647,"name":"環保大道, 首都外","lat":22.29665076093623,"long":114.27271494679499},{"id":20002650,"name":"環保大道, 近百勝角路","lat":22.303388332027975,"long":114.27145791418441},{"id":20002652,"name":"環保大道, 近啓思中學","lat":22.30772503051832,"long":114.2679475704486},{"id":20019534,"name":" 昭信路, 近文曲里公園","lat":22.31296432748827,"long":114.26640629768372},{"id":20002605,"name":"昭信路, 近煜明苑煒明閣","lat":22.31480471410881,"long":114.2684859748715},{"id":20001172,"name":"寶寧路, 將軍澳醫院對面","lat":22.317468528327797,"long":114.26885653546587},{"id":20002563,"name":"重華路, 近厚德邨 TKO Gateway","lat":22.317172656416272,"long":114.26558632943164},{"id":20002597,"name":"坑口站公共運輸交匯處","lat":22.315845573505552,"long":114.26424525693855},{"id":20002563,"name":"重華路, 近厚德邨 TKO Gateway","lat":22.317172656416272,"long":114.26558632943164},{"id":20001974,"name":"銀澳路, 近煜明苑熹明閣","lat":22.314579938123607,"long":114.26671940396027},{"id":20002648,"name":"環保大道, 清水灣半島對面","lat":22.308411361259022,"long":114.26793831053423},{"id":20002649,"name":"環保大道, 邵氏影城外","lat":22.301680962331464,"long":114.27245635181565},{"id":20002633,"name":"環保大道, 首都對面","lat":22.297444942848802,"long":114.27253514528277},{"id":20015377,"name":"石角路, 近峻瀅II","lat":22.297072694668127,"long":114.27385210990907}],"routeId":2007368,"description":"正常班次"}]