[{"company":"gmb","route":"116H","routeType":1,"orig":"香港中醫醫院","dest":"將軍澳站公共運輸交匯處(循環線)","stopList":[{"id":20022405,"name":"香港中醫醫院","lat":"22.303664","long":"114.273434"},{"id":20022406,"name":"百勝角路, 香港中醫醫院對面","lat":"22.303438","long":"114.273377"},{"id":20002650,"name":"環保大道近百勝角路的巴士停車灣 ","lat":"22.303388","long":"114.271458"},{"id":20002652,"name":"環保大道近啟思中學的巴士停車灣","lat":"22.307725","long":"114.267948"},{"id":20015238,"name":"寶邑路寶盈花園外的巴士停車灣 ","lat":"22.307800","long":"114.262528"},{"id":20015602,"name":"將軍澳站公共運輸交匯處","lat":"22.308560","long":"114.260365"},{"id":20002648,"name":"環保大道啟思中學對面的巴士停車灣","lat":"22.308411","long":"114.267938"},{"id":20022405,"name":"香港中醫醫院","lat":"22.303664","long":"114.273434"}],"routeId":2011259,"description":"特別班次"}]