[{"company":"gmb","route":"116H","routeType":1,"orig":"香港中醫醫院","dest":"將軍澳站公共運輸交匯處(循環線)","stopList":[{"id":20022405,"name":"香港中醫醫院","lat":22.30366382241912,"long":114.27343368530275},{"id":20022406,"name":"百勝角路, 香港中醫醫院對面","lat":22.303438002027455,"long":114.27337735891345},{"id":20002650,"name":"環保大道近百勝角路的巴士停車灣 ","lat":22.303388332027975,"long":114.27145791418441},{"id":20002652,"name":"環保大道近啟思中學的巴士停車灣","lat":22.30772503051832,"long":114.2679475704486},{"id":20015238,"name":"寶邑路寶盈花園外的巴士停車灣 ","lat":22.307800489604297,"long":114.2625278234482},{"id":20015602,"name":"將軍澳站公共運輸交匯處","lat":22.308559803465236,"long":114.2603653179644},{"id":20002648,"name":"環保大道啟思中學對面的巴士停車灣","lat":22.308411361259022,"long":114.26793831053423},{"id":20022405,"name":"香港中醫醫院","lat":22.30366382241912,"long":114.27343368530275}],"routeId":2011259,"description":"特別班次"}]