[{"company":"kmb","route":"11X","routeType":"1","dir":"O","orig":"安泰(北)","dest":"紅磡站","stopList":[{"id":"C12548B7D13D566A","name":"安泰(北)(智泰樓)","lat":"22.327782","long":"114.229326"},{"id":"51657C54B75A5304","name":"愛達樓","lat":"22.323350","long":"114.231662"},{"id":"B930999AA5F7E997","name":"安達邨","lat":"22.320067","long":"114.234642"},{"id":"EA2CFF27310EAEC3","name":"寶達邨轉車站 (H2)","lat":"22.318256","long":"114.237594"},{"id":"B222F08B5E956350","name":"上秀茂坪總站","lat":"22.314990","long":"114.236302"},{"id":"D17050E8964504BB","name":"秀明樓","lat":"22.315934","long":"114.233922"},{"id":"04DDF4F7F1C74876","name":"秀富樓","lat":"22.317096","long":"114.232170"},{"id":"BF08F9C08BB54A2B","name":"秀茂坪商場","lat":"22.319131","long":"114.231266"},{"id":"5FF5FCFD1121F033","name":"秀樂樓","lat":"22.321718","long":"114.230419"},{"id":"6765DD696FA8BF8D","name":"寧波第二中學","lat":"22.323885","long":"114.227862"},{"id":"CE097C48CCAE22C9","name":"聯合醫院","lat":"22.322495","long":"114.226111"},{"id":"6CF34EF02CDBE26B","name":"祥和苑","lat":"22.318588","long":"114.227400"},{"id":"073C44CE5FF431BC","name":"和樂邨","lat":"22.317237","long":"114.226791"},{"id":"3D40B78AACF268D7","name":"apm創紀之城5期 (D2)","lat":"22.312551","long":"114.225376"},{"id":"FDFA7692A141612F","name":"觀塘轉車站 - 創紀之城 (B10)","lat":"22.313721","long":"114.222607"},{"id":"7A95C545D0393126","name":"啟隧轉車站-啟福道(L1)","lat":"22.322033","long":"114.204300"},{"id":"D46ED62A04D37ECE","name":"貴州街","lat":"22.318125","long":"114.191562"},{"id":"68A8F08ABC5C90F0","name":"落山道","lat":"22.316874","long":"114.190332"},{"id":"AFEFDF25A955C72C","name":"鴻福街","lat":"22.314625","long":"114.188176"},{"id":"906508C26C6B89EC","name":"紅磡庇利街","lat":"22.311425","long":"114.187735"},{"id":"8D5FB973BE9429B4","name":"紅磡民裕街","lat":"22.308415","long":"114.187741"},{"id":"AD803E8A0ED6C3B9","name":"寶其利街","lat":"22.307149","long":"114.185112"},{"id":"98F5ACF0CF540E7C","name":"機利士南路","lat":"22.306475","long":"114.184129"},{"id":"ECB7F57E734C9691","name":"紅磡站總站","lat":"22.303870","long":"114.181838"}],"routeId":"11X","description":"正常班次"},{"company":"kmb","route":"11X","routeType":"1","dir":"I","orig":"紅磡站","dest":"安泰(北)","stopList":[{"id":"ECB7F57E734C9691","name":"紅磡站總站","lat":"22.303870","long":"114.181838"},{"id":"EE5D9C9A5622C786","name":"紅荔道","lat":"22.304488","long":"114.185321"},{"id":"3DEB0D13043F4C17","name":"機利士南路","lat":"22.307054","long":"114.184247"},{"id":"97377AA89B45CD34","name":"觀音街","lat":"22.307555","long":"114.185684"},{"id":"69EB1A85EBBBA550","name":"紅磡民泰街","lat":"22.306167","long":"114.189067"},{"id":"D3139CF35C894BC8","name":"紅磡邨","lat":"22.307503","long":"114.189987"},{"id":"C5888ACE3DDA6B30","name":"鶴園東街","lat":"22.311667","long":"114.190298"},{"id":"38C2E40346BA619E","name":"崇潔街","lat":"22.312166","long":"114.188940"},{"id":"C9051FC04690CD7F","name":"江西街","lat":"22.314723","long":"114.187367"},{"id":"1D093403B1F24DF7","name":"上鄉道","lat":"22.318773","long":"114.187471"},{"id":"9C1D2401E1E06544","name":"新山道","lat":"22.321714","long":"114.187444"},{"id":"6F357BC5B6EF7647","name":"香港家庭計劃指導會","lat":"22.324154","long":"114.188455"},{"id":"47B6BE5FC95C2042","name":"亞皆老街球場","lat":"22.326329","long":"114.189403"},{"id":"0AB522DFFCD4CD4F","name":"九龍城轉車站- 富豪東方酒店(A6)","lat":"22.329126","long":"114.192519"},{"id":"7210357910C44570","name":"譽．港灣","lat":"22.333055","long":"114.196691"},{"id":"C8FD960431F7210C","name":"成業街休憩公園","lat":"22.309357","long":"114.228494"},{"id":"CB341BEEABF66D6E","name":"觀塘站 (E3)","lat":"22.311151","long":"114.227669"},{"id":"6530130BE25E909C","name":"和樂邨","lat":"22.316432","long":"114.226177"},{"id":"3093477EA64DDA89","name":"祥和苑","lat":"22.319461","long":"114.227281"},{"id":"E61F9EA5AEE1EFE0","name":"聯合醫院","lat":"22.322257","long":"114.225928"},{"id":"BBBDC092F96C0A41","name":"寧波第二中學","lat":"22.324023","long":"114.228358"},{"id":"4A14A012710E80B1","name":"秀樂樓","lat":"22.321801","long":"114.230416"},{"id":"25D24692B2A312FB","name":"秀逸樓","lat":"22.317818","long":"114.231893"},{"id":"6F106FD26B684372","name":"秀安樓","lat":"22.316738","long":"114.233354"},{"id":"A078E2CAF27A699C","name":"秀明樓","lat":"22.315440","long":"114.234394"},{"id":"D83C4CC1305E35E9","name":"上秀茂坪","lat":"22.315073","long":"114.235696"},{"id":"1FBAAE29AF1CA50E","name":"秀暉樓","lat":"22.316851","long":"114.235856"},{"id":"466BC4C1908A1A06","name":"寶達邨轉車站 (N1)","lat":"22.318565","long":"114.236118"},{"id":"AA52228890817D12","name":"善達樓","lat":"22.320283","long":"114.235550"},{"id":"D9563FD5B8CB0CEF","name":"愛達樓","lat":"22.321967","long":"114.232500"},{"id":"FF68304E8C1FF0B1","name":"錦泰樓","lat":"22.324236","long":"114.230703"},{"id":"A6A1C99BF11EE56C","name":"安泰(南)(恆泰樓)","lat":"22.326480","long":"114.228783"},{"id":"C12548B7D13D566A","name":"安泰(北)(智泰樓)","lat":"22.327782","long":"114.229326"}],"routeId":"11X","description":"正常班次"}]