[{"company":"kmb","route":"12","routeType":"1","dir":"O","orig":"海麗邨","dest":"尖沙咀東(麼地道)","stopList":[{"id":"296E43213D6DB624","name":"海麗邨巴士總站 (SS667)","lat":"22.332734","long":"114.147094"},{"id":"32CB1FBDCB7932A6","name":"泓景臺 (SS280)","lat":"22.333824","long":"114.148134"},{"id":"CCAD6B9A4B1CFFD8","name":"碧海藍天 (SS283)","lat":"22.333001","long":"114.149756"},{"id":"1BD82E4312536F0C","name":"發祥街西 (SS289)","lat":"22.330184","long":"114.151263"},{"id":"5FBC215F6F58AC98","name":"富昌邨 (SS291)","lat":"22.327330","long":"114.154676"},{"id":"A411F9374FB2879B","name":"港灣豪庭 (MK295)","lat":"22.324135","long":"114.158717"},{"id":"5A0D9C9441ED6AC5","name":"大角咀中匯街 (MK296)","lat":"22.322767","long":"114.159836"},{"id":"9BF9C994F2DAE15D","name":"奧運站 (MK297)","lat":"22.318545","long":"114.160606"},{"id":"F5098BFD784B8FAB","name":"海富苑 柏景灣 (MK121)","lat":"22.316217","long":"114.163941"},{"id":"1C7C526A52EF9171","name":"富榮花園 (MK122)","lat":"22.313988","long":"114.164449"},{"id":"DED3339EB26494EA","name":"甘肅街 (YT325)","lat":"22.308783","long":"114.167883"},{"id":"577633405E7A3ACD","name":"渡船街 (YT326)","lat":"22.307260","long":"114.167506"},{"id":"F6EE4DC41A299593","name":"匯翔道,高鐵站 (YT200)","lat":"22.304334","long":"114.167837"},{"id":"83EB94899B6BBB4B","name":"柯士甸道 戲曲中心 (YT202)","lat":"22.302051","long":"114.168121"},{"id":"5F60283656DF3016","name":"廣東道,新港中心 (YT205)","lat":"22.297488","long":"114.168979"},{"id":"576538E1395C8508","name":"尖東站 K11 MUSEA (YT215)","lat":"22.295226","long":"114.174647"},{"id":"F388A6F066DE4562","name":"尖沙咀東（麼地道） (YT927)","lat":"22.296679","long":"114.175866"}],"routeId":"12","description":"正常班次"},{"company":"kmb","route":"12","routeType":"1","dir":"I","orig":"尖沙咀東(麼地道)","dest":"海麗邨","stopList":[{"id":"F388A6F066DE4562","name":"尖沙咀東（麼地道） (YT927)","lat":"22.296679","long":"114.175866"},{"id":"8E8DB91C885F1230","name":"尖東站 K11 MUSEA (YT633)","lat":"22.294724","long":"114.174189"},{"id":"E3A083E4F64D93CD","name":"九龍公園徑 (YT640)","lat":"22.295997","long":"114.170136"},{"id":"2EEB9CB69FB6A58D","name":"中港城 戲曲中心 (YT645)","lat":"22.300341","long":"114.168095"},{"id":"450A96AF1DA8E41C","name":"柯士甸站 (YT647)","lat":"22.303707","long":"114.167718"},{"id":"F2BD88B8D506E78A","name":"渡船街 (YT650)","lat":"22.307181","long":"114.167159"},{"id":"16F899DA5289900D","name":"欣翔道 (YT656)","lat":"22.308881","long":"114.166179"},{"id":"B96E368FC17CD0B0","name":"富榮花園 (MK220)","lat":"22.314039","long":"114.164201"},{"id":"420E7970087AD769","name":"柏景灣 奧海城 (MK221)","lat":"22.316414","long":"114.163641"},{"id":"831F928D7F101526","name":"博文街 (MK240)","lat":"22.319356","long":"114.160769"},{"id":"195C509959C6A799","name":"君匯港 (MK657)","lat":"22.322229","long":"114.159642"},{"id":"663688103FBA1C52","name":"聚魚道 (SS660)","lat":"22.323831","long":"114.158758"},{"id":"E4B28352C803EAA9","name":"南昌公園 (SS661)","lat":"22.325062","long":"114.156979"},{"id":"CC9AE3EF28E5725F","name":"富昌邨 (SS662)","lat":"22.327310","long":"114.154421"},{"id":"2D30B4FAF44D2398","name":"東京街西 (SS664)","lat":"22.329224","long":"114.152032"},{"id":"296E43213D6DB624","name":"海麗邨巴士總站 (SS667)","lat":"22.332734","long":"114.147094"}],"routeId":"12","description":"正常班次"},{"company":"ctb","route":"12","routeType":null,"dir":"I","orig":"羅便臣道／柏道","dest":"中環3號碼頭","stopList":[{"id":"001018","name":"明愛中心, 堅道","lat":"22.279435","long":"114.154205"},{"id":"001019","name":"孫中山紀念館, 堅道","lat":"22.281336","long":"114.151907"},{"id":"001020","name":"樓梯街, 堅道","lat":"22.282821","long":"114.149495"},{"id":"001021","name":"西摩道, 堅道","lat":"22.283160","long":"114.147864"},{"id":"001011","name":"豫苑, 般咸道","lat":"22.284879","long":"114.145157"},{"id":"001013","name":"東邊街, 般咸道","lat":"22.284210","long":"114.144338"},{"id":"001092","name":"聖士提反女子中學, 柏道","lat":"22.283869","long":"114.143510"},{"id":"001091","name":"豫苑, 柏道","lat":"22.284372","long":"114.144694"},{"id":"001146","name":"英華女學校, 羅便臣道","lat":"22.282572","long":"114.146710"},{"id":"003158","name":"蔚巒閣, 羅便臣道","lat":"22.281970","long":"114.147607"},{"id":"002732","name":"美麗閣, 衛城道","lat":"22.282177","long":"114.149251"},{"id":"001154","name":"寶玉閣, 西摩道","lat":"22.282826","long":"114.148804"},{"id":"001156","name":"羅便臣道, 西摩道","lat":"22.280757","long":"114.150725"},{"id":"001149","name":"高主教書院, 羅便臣道","lat":"22.278541","long":"114.153243"},{"id":"001150","name":"花園台, 羅便臣道","lat":"22.276011","long":"114.154893"},{"id":"001072","name":"香港動植物公園, 花園道","lat":"22.277527","long":"114.157720"},{"id":"001073","name":"聖約翰座堂, 花園道","lat":"22.278374","long":"114.159781"},{"id":"001157","name":"金鐘 - 添馬街","lat":"22.279092","long":"114.163933"},{"id":"001033","name":"皇后像廣場, 干諾道中","lat":"22.281992","long":"114.160038"},{"id":"001181","name":"域多利皇后街, 干諾道中","lat":"22.284417","long":"114.156667"},{"id":"001036","name":"租庇利街, 干諾道中","lat":"22.285204","long":"114.156044"},{"id":"001185","name":"永和街, 干諾道中","lat":"22.285955","long":"114.154977"},{"id":"001076","name":"歷山大廈, 雪廠街","lat":"22.281372","long":"114.158842"},{"id":"001143","name":"國際金融中心二期, 民耀街","lat":"22.284965","long":"114.159820"},{"id":"001170","name":"中環碼頭 - 愉景灣渡輪, 民光街","lat":"22.287371","long":"114.157617"}],"routeId":"12","description":"正常班次"},{"company":"ctb","route":"12","routeType":null,"dir":"O","orig":"中環3號碼頭","dest":"羅便臣道／柏道","stopList":[{"id":"001170","name":"中環碼頭 - 愉景灣渡輪, 民光街","lat":"22.287371","long":"114.157617"},{"id":"001195","name":"中環碼頭 - 長洲及南丫島渡輪","lat":"22.286972","long":"114.159171"},{"id":"001171","name":"中環碼頭 - 天星小輪","lat":"22.286604","long":"114.160353"},{"id":"001032","name":"中環 (交易廣場)","lat":"22.283696","long":"114.158033"},{"id":"001030","name":"怡和大廈, 干諾道中","lat":"22.282619","long":"114.159299"},{"id":"001157","name":"金鐘 - 添馬街","lat":"22.279092","long":"114.163933"},{"id":"001122","name":"滙豐總行大廈, 皇后大道中","lat":"22.279920","long":"114.159038"},{"id":"001042","name":"蘭桂坊, 德己立街","lat":"22.281517","long":"114.156139"},{"id":"001084","name":"擺花街","lat":"22.282471","long":"114.154292"},{"id":"001075","name":"大館, 荷李活道","lat":"22.281908","long":"114.154316"},{"id":"001001","name":"中央廣場, 亞畢諾道","lat":"22.279917","long":"114.154585"},{"id":"001018","name":"明愛中心, 堅道","lat":"22.279435","long":"114.154205"},{"id":"001019","name":"孫中山紀念館, 堅道","lat":"22.281336","long":"114.151907"},{"id":"001020","name":"樓梯街, 堅道","lat":"22.282821","long":"114.149495"},{"id":"001021","name":"西摩道, 堅道","lat":"22.283160","long":"114.147864"},{"id":"001011","name":"豫苑, 般咸道","lat":"22.284879","long":"114.145157"},{"id":"001013","name":"東邊街, 般咸道","lat":"22.284210","long":"114.144338"},{"id":"001092","name":"聖士提反女子中學, 柏道","lat":"22.283869","long":"114.143510"},{"id":"001091","name":"豫苑, 柏道","lat":"22.284372","long":"114.144694"},{"id":"001146","name":"英華女學校, 羅便臣道","lat":"22.282572","long":"114.146710"},{"id":"003158","name":"蔚巒閣, 羅便臣道","lat":"22.281970","long":"114.147607"},{"id":"002732","name":"美麗閣, 衛城道","lat":"22.282177","long":"114.149251"},{"id":"001154","name":"寶玉閣, 西摩道","lat":"22.282826","long":"114.148804"},{"id":"001156","name":"羅便臣道, 西摩道","lat":"22.280757","long":"114.150725"},{"id":"001149","name":"高主教書院, 羅便臣道","lat":"22.278541","long":"114.153243"},{"id":"001150","name":"花園台, 羅便臣道","lat":"22.276011","long":"114.154893"},{"id":"001072","name":"香港動植物公園, 花園道","lat":"22.277527","long":"114.157720"}],"routeId":"12","description":"正常班次"},{"company":"gmb","route":"12","routeType":1,"orig":"觀龍樓","dest":"西營盤(循環線)","stopList":[{"id":20000080,"name":"觀龍樓","lat":"22.279776","long":"114.128620"},{"id":20013165,"name":"吉席街, 近添利閣","lat":"22.283106","long":"114.126854"},{"id":20003468,"name":"堅彌地城海旁, 卑路乍灣公園外","lat":"22.284535","long":"114.130365"},{"id":20006948,"name":"堅彌地城海旁, 堅尼地城游泳池外","lat":"22.285764","long":"114.131694"},{"id":20000082,"name":"德輔道西, 香港商業中心東端","lat":"22.286785","long":"114.136031"},{"id":20013166,"name":"德輔道西, 近豐業大廈","lat":"22.286950","long":"114.136675"},{"id":20003470,"name":"德輔道西, 均益大廈二期外 (巴士站前)","lat":"22.287301","long":"114.137914"},{"id":20003471,"name":"正街, 港島太平洋酒店對面","lat":"22.288187","long":"114.142261"},{"id":20003472,"name":"高街, 西營盤社區綜合大樓對面","lat":"22.285126","long":"114.144105"},{"id":20013167,"name":" 醫院道","lat":"22.283669","long":"114.147512"},{"id":20013192,"name":"皇后大道西, 安達中心對面","lat":"22.286879","long":"114.141906"},{"id":20003474,"name":"皇后大道西, 近水街","lat":"22.286524","long":"114.138904"},{"id":20013193,"name":"皇后大道西, 近聯華大廈","lat":"22.286154","long":"114.134727"},{"id":20000085,"name":"卑路乍街, 近新城大樓","lat":"22.286307","long":"114.132728"},{"id":20013194,"name":"卑路乍街, 近如意大樓","lat":"22.283812","long":"114.130877"},{"id":20013195,"name":"卑路乍街, 近隆基大樓","lat":"22.282764","long":"114.129441"},{"id":20000289,"name":"卑路乍街, 近Imperial Kennedy","lat":"22.282627","long":"114.128651"},{"id":20021451,"name":"卑路乍街, 近聯威新樓","lat":"22.282338","long":"114.127039"},{"id":20000088,"name":"士美菲路, 近文光閣","lat":"22.282133","long":"114.128319"},{"id":20011779,"name":"士美菲路, 近慧華閣","lat":"22.280476","long":"114.129189"},{"id":20000080,"name":"觀龍樓","lat":"22.279776","long":"114.128620"}],"routeId":2002285,"description":"正常班次"},{"company":"gmb","route":"12","routeType":1,"orig":"白田","dest":"旺角東站","stopList":[{"id":20021844,"name":"白田(白雲街)公共運輸交匯處","lat":"22.336290","long":"114.165636"},{"id":20000859,"name":"白雲街, 安田樓外","lat":"22.335664","long":"114.166255"},{"id":20009670,"name":"偉倫街, 田豐樓外","lat":"22.334853","long":"114.167312"},{"id":20009674,"name":"大坑西街, 南山商場外","lat":"22.332782","long":"114.170257"},{"id":20000541,"name":"大坑東道, 大坑東邨東龍樓外","lat":"22.331456","long":"114.171157"},{"id":20000433,"name":"大坑東道, 大坑東遊樂場外","lat":"22.328151","long":"114.172186"},{"id":20009675,"name":"勵德街","lat":"22.325790","long":"114.176410"},{"id":20004126,"name":"太子道西, 新世紀廣場外","lat":"22.324719","long":"114.173021"},{"id":20009676,"name":"洗衣街, 伊利沙伯中學外","lat":"22.323564","long":"114.170946"},{"id":20000547,"name":"港鐵旺角東站","lat":"22.322073","long":"114.172196"}],"routeId":2002329,"description":"正常班次"},{"company":"gmb","route":"12","routeType":2,"orig":"旺角東站","dest":"白田","stopList":[{"id":20000547,"name":"港鐵旺角東站","lat":"22.322073","long":"114.172196"},{"id":20006961,"name":"洗衣街171號","lat":"22.323112","long":"114.170857"},{"id":20000546,"name":"通菜街, 旺角警署外","lat":"22.324674","long":"114.169391"},{"id":20009667,"name":"棠蔭街,聖道弘爵國際學校外","lat":"22.330144","long":"114.170704"},{"id":20009668,"name":"大坑東道,民興樓外","lat":"22.332127","long":"114.170389"},{"id":20009669,"name":"大坑西街,石硤尾警署","lat":"22.333170","long":"114.169530"},{"id":20000540,"name":"白雲街, 朗田樓外","lat":"22.337064","long":"114.167090"}],"routeId":2002329,"description":"正常班次"},{"company":"gmb","route":"12","routeType":1,"orig":"寶琳","dest":"順利","stopList":[{"id":20001149,"name":"寶琳公共運輸交匯處","lat":"22.323398","long":"114.257931"},{"id":20001150,"name":"寶琳北路, 樂善堂劉德小學外","lat":"22.327002","long":"114.256176"},{"id":20001151,"name":"寶琳北路, 寶琳邨寶仁樓外","lat":"22.326408","long":"114.252468"},{"id":20010616,"name":"寶琳北路, 翠林邨對面","lat":"22.322562","long":"114.250238"},{"id":20002021,"name":"寶琳北路, 康盛花園對面","lat":"22.318244","long":"114.254463"},{"id":20001152,"name":"寶琳路, 近馬游塘","lat":"22.320199","long":"114.244574"},{"id":20003282,"name":"寶琳路, 寶達邨外","lat":"22.318206","long":"114.237585"},{"id":20017257,"name":"秀茂坪邨, 秀樂樓外","lat":"22.321018","long":"114.232125"},{"id":20001154,"name":"秀茂坪道, 秀義樓外","lat":"22.322895","long":"114.230656"},{"id":20012436,"name":"順安道, 寧波第二中學外","lat":"22.324338","long":"114.228818"},{"id":20000953,"name":"順天邨","lat":"22.326530","long":"114.226882"},{"id":20012437,"name":"利安道順利巴士總站外","lat":"22.331003","long":"114.226978"},{"id":20012438,"name":"順利消防局, 利安道","lat":"22.331841","long":"114.222563"},{"id":20012439,"name":"順利邨道, 順利邨利康樓外","lat":"22.330502","long":"114.225857"},{"id":20012440,"name":"順利邨道, 順安邨安頌樓外","lat":"22.329504","long":"114.225980"},{"id":20012441,"name":"順利邨道, 迦密梁省德學校外","lat":"22.327986","long":"114.224752"},{"id":20000983,"name":"秀茂坪道, 聯合醫院對面","lat":"22.324116","long":"114.226163"},{"id":20002030,"name":"秀茂坪道, 寧波第二中學外","lat":"22.324061","long":"114.228541"},{"id":20007878,"name":"秀茂坪道, 秀程樓對面","lat":"22.319455","long":"114.234024"},{"id":20014772,"name":"寶琳路, 寶達邨對面","lat":"22.318536","long":"114.235947"},{"id":20002032,"name":"寶琳路, 近馬游塘","lat":"22.319494","long":"114.245690"},{"id":20002033,"name":"寶琳北路, 康盛花園外","lat":"22.317495","long":"114.252104"},{"id":20002020,"name":"寶琳北路, 翠林邨外","lat":"22.322752","long":"114.250317"},{"id":20001169,"name":"寶琳北路, 寶仁樓對面","lat":"22.326481","long":"114.251866"},{"id":20002005,"name":"寶琳北路, 英明苑對面","lat":"22.327255","long":"114.256021"},{"id":20001149,"name":"寶琳公共運輸交匯處","lat":"22.323398","long":"114.257931"}],"routeId":2004763,"description":"特別班次"},{"company":"gmb","route":"12","routeType":1,"orig":"西貢","dest":"寶琳","stopList":[{"id":20001112,"name":"福民路小巴總站, 經華樓外","lat":"22.381610","long":"114.273424"},{"id":20001144,"name":"普通道, 西貢賽馬會大會堂外","lat":"22.383101","long":"114.270978"},{"id":20012443,"name":"翠塘花園","lat":"22.380799","long":"114.269040"},{"id":20012444,"name":"菠蘿輋","lat":"22.378556","long":"114.265586"},{"id":20012445,"name":"西貢公路,北港","lat":"22.374955","long":"114.261745"},{"id":20001113,"name":"西貢公路, 白沙灣遊艇會外","lat":"22.364821","long":"114.259431"},{"id":20009421,"name":"西貢公路, 匡湖居外","lat":"22.359755","long":"114.252609"},{"id":20012474,"name":"大學道, 香港科技大學","lat":"22.338550","long":"114.262061"},{"id":20001145,"name":"清水灣道, 壁屋懲教署對面","lat":"22.339740","long":"114.246845"},{"id":20001996,"name":"清水灣道, 近井欄樹","lat":"22.334000","long":"114.237883"},{"id":20012473,"name":"新清水灣道, 政府宿舍外","lat":"22.331216","long":"114.221286"},{"id":20012475,"name":"利安道, 近消防局","lat":"22.332075","long":"114.222558"},{"id":20012439,"name":"順利邨道, 順利邨利康樓外","lat":"22.330502","long":"114.225857"},{"id":20012440,"name":"順利邨道, 順安邨安頌樓外","lat":"22.329504","long":"114.225980"},{"id":20012441,"name":"順利邨道, 迦密梁省德學校外","lat":"22.327986","long":"114.224752"},{"id":20000983,"name":"秀茂坪道, 聯合醫院對面","lat":"22.324116","long":"114.226163"},{"id":20002030,"name":"秀茂坪道, 寧波第二中學外","lat":"22.324061","long":"114.228541"},{"id":20007878,"name":"秀茂坪道, 秀程樓對面","lat":"22.319455","long":"114.234024"},{"id":20014772,"name":"寶琳路, 寶達邨對面","lat":"22.318536","long":"114.235947"},{"id":20002032,"name":"寶琳路, 近馬游塘","lat":"22.319494","long":"114.245690"},{"id":20002003,"name":"寶琳北路, 康盛花園外","lat":"22.319653","long":"114.254173"},{"id":20002020,"name":"寶琳北路, 翠林邨外","lat":"22.322752","long":"114.250317"},{"id":20001169,"name":"寶琳北路, 寶仁樓對面","lat":"22.326481","long":"114.251866"},{"id":20002005,"name":"寶琳北路, 英明苑對面","lat":"22.327255","long":"114.256021"},{"id":20001149,"name":"寶琳公共運輸交匯處","lat":"22.323398","long":"114.257931"}],"routeId":2004764,"description":"正常班次"},{"company":"gmb","route":"12","routeType":2,"orig":"寶琳","dest":"西貢","stopList":[{"id":20001149,"name":"寶琳公共運輸交匯處","lat":"22.323398","long":"114.257931"},{"id":20001150,"name":"寶琳北路, 樂善堂劉德小學外","lat":"22.327002","long":"114.256176"},{"id":20001151,"name":"寶琳北路, 寶琳邨寶仁樓外","lat":"22.326408","long":"114.252468"},{"id":20010616,"name":"寶琳北路, 翠林邨對面","lat":"22.322562","long":"114.250238"},{"id":20002021,"name":"寶琳北路, 康盛花園對面","lat":"22.318244","long":"114.254463"},{"id":20001152,"name":"寶琳路, 近馬游塘","lat":"22.320199","long":"114.244574"},{"id":20003282,"name":"寶琳路, 寶達邨外","lat":"22.318206","long":"114.237585"},{"id":20017257,"name":"秀茂坪邨, 秀樂樓外","lat":"22.321018","long":"114.232125"},{"id":20001154,"name":"秀茂坪道, 秀義樓外","lat":"22.322895","long":"114.230656"},{"id":20012476,"name":"順利邨道, 迦密梁省德學校對面","lat":"22.328011","long":"114.224532"},{"id":20012477,"name":"順利邨道, 順利邨康樂中心外","lat":"22.329162","long":"114.225556"},{"id":20012478,"name":"新清水灣道, 政府宿舍對面","lat":"22.330963","long":"114.221254"},{"id":20001999,"name":"清水灣道, 井欄樹","lat":"22.334154","long":"114.237339"},{"id":20002001,"name":"清水灣道, 壁屋懲教所外","lat":"22.339749","long":"114.246476"},{"id":20002002,"name":"清水灣道, 打鼓嶺新村","lat":"22.343818","long":"114.254147"},{"id":20012479,"name":"清水灣道, 大埔仔坳","lat":"22.340500","long":"114.258547"},{"id":20012474,"name":"大學道, 香港科技大學","lat":"22.338550","long":"114.262061"},{"id":20012480,"name":"西貢公路, 匡湖居對面","lat":"22.356079","long":"114.251434"},{"id":20002600,"name":"西貢公路, 白沙灣遊艇會對面","lat":"22.364848","long":"114.259314"},{"id":20012481,"name":"西貢公路, 北港","lat":"22.375645","long":"114.262190"},{"id":20012482,"name":"菠蘿輋","lat":"22.378373","long":"114.265333"},{"id":20012483,"name":"翠塘花園","lat":"22.380709","long":"114.268284"},{"id":20001112,"name":"福民路小巴總站, 經華樓外","lat":"22.381610","long":"114.273424"}],"routeId":2004764,"description":"正常班次"}]