[{"company":"kmb","route":"12","routeType":"1","dir":"O","orig":"海麗邨","dest":"尖沙咀東(麼地道)","stopList":[{"id":"296E43213D6DB624","name":"海麗邨巴士總站","lat":"22.332734","long":"114.147094"},{"id":"32CB1FBDCB7932A6","name":"泓景臺","lat":"22.333824","long":"114.148134"},{"id":"CCAD6B9A4B1CFFD8","name":"碧海藍天","lat":"22.333001","long":"114.149756"},{"id":"1BD82E4312536F0C","name":"發祥街西","lat":"22.330184","long":"114.151263"},{"id":"5FBC215F6F58AC98","name":"富昌邨","lat":"22.327330","long":"114.154676"},{"id":"A411F9374FB2879B","name":"港灣豪庭","lat":"22.324135","long":"114.158717"},{"id":"5A0D9C9441ED6AC5","name":"大角咀中匯街","lat":"22.322767","long":"114.159836"},{"id":"9BF9C994F2DAE15D","name":"奧運站","lat":"22.318545","long":"114.160606"},{"id":"F5098BFD784B8FAB","name":"海富苑 柏景灣","lat":"22.316217","long":"114.163941"},{"id":"1C7C526A52EF9171","name":"富榮花園","lat":"22.313988","long":"114.164449"},{"id":"DED3339EB26494EA","name":"甘肅街","lat":"22.308783","long":"114.167883"},{"id":"577633405E7A3ACD","name":"渡船街","lat":"22.307260","long":"114.167506"},{"id":"F6EE4DC41A299593","name":"匯翔道  柯士甸站","lat":"22.304334","long":"114.167837"},{"id":"83EB94899B6BBB4B","name":"柯士甸道 戲曲中心","lat":"22.302051","long":"114.168121"},{"id":"5F60283656DF3016","name":"廣東道,新港中心","lat":"22.297488","long":"114.168979"},{"id":"576538E1395C8508","name":"尖東站 K11 MUSEA","lat":"22.295226","long":"114.174647"},{"id":"F388A6F066DE4562","name":"尖沙咀東（麼地道）","lat":"22.296679","long":"114.175866"}],"routeId":"12","description":"正常班次"},{"company":"kmb","route":"12","routeType":"1","dir":"I","orig":"尖沙咀東(麼地道)","dest":"海麗邨","stopList":[{"id":"F388A6F066DE4562","name":"尖沙咀東（麼地道）","lat":"22.296679","long":"114.175866"},{"id":"8E8DB91C885F1230","name":"尖東站 K11 MUSEA","lat":"22.294724","long":"114.174189"},{"id":"E3A083E4F64D93CD","name":"九龍公園徑","lat":"22.295997","long":"114.170136"},{"id":"2EEB9CB69FB6A58D","name":"中港城 戲曲中心","lat":"22.300341","long":"114.168095"},{"id":"450A96AF1DA8E41C","name":"柯士甸站","lat":"22.303707","long":"114.167718"},{"id":"F2BD88B8D506E78A","name":"渡船街","lat":"22.307181","long":"114.167159"},{"id":"16F899DA5289900D","name":"欣翔道","lat":"22.308881","long":"114.166179"},{"id":"B96E368FC17CD0B0","name":"富榮花園","lat":"22.314039","long":"114.164201"},{"id":"420E7970087AD769","name":"柏景灣 奧海城","lat":"22.316414","long":"114.163641"},{"id":"831F928D7F101526","name":"博文街","lat":"22.319356","long":"114.160769"},{"id":"195C509959C6A799","name":"君匯港","lat":"22.322229","long":"114.159642"},{"id":"663688103FBA1C52","name":"聚魚道","lat":"22.323831","long":"114.158758"},{"id":"E4B28352C803EAA9","name":"南昌公園","lat":"22.325062","long":"114.156979"},{"id":"CC9AE3EF28E5725F","name":"富昌邨","lat":"22.327310","long":"114.154421"},{"id":"2D30B4FAF44D2398","name":"東京街西","lat":"22.329224","long":"114.152032"},{"id":"296E43213D6DB624","name":"海麗邨巴士總站","lat":"22.332734","long":"114.147094"}],"routeId":"12","description":"正常班次"},{"company":"ctb","route":"12","routeType":null,"dir":"I","orig":"羅便臣道／柏道","dest":"中環3號碼頭","stopList":[{"id":"001018","name":"明愛中心, 堅道","lat":"22.279434502091","long":"114.15420482053"},{"id":"001019","name":"孫中山紀念館, 堅道","lat":"22.281336102091","long":"114.15190655053"},{"id":"001020","name":"樓梯街, 堅道","lat":"22.282821442091","long":"114.14949489053"},{"id":"001021","name":"西摩道, 堅道","lat":"22.283159702091","long":"114.14786353053"},{"id":"001011","name":"豫苑, 般咸道","lat":"22.284879112091","long":"114.14515677053"},{"id":"001013","name":"東邊街, 般咸道","lat":"22.284209702091","long":"114.14433785053"},{"id":"001092","name":"聖士提反女子中學, 柏道","lat":"22.283869362091","long":"114.14350996053"},{"id":"001091","name":"豫苑, 柏道","lat":"22.284372122091","long":"114.14469393053"},{"id":"001146","name":"英華女學校, 羅便臣道","lat":"22.282571772091","long":"114.14670968053"},{"id":"003158","name":"蔚巒閣, 羅便臣道","lat":"22.281969702091","long":"114.14760704053"},{"id":"002732","name":"美麗閣, 衛城道","lat":"22.282176712091","long":"114.14925129053"},{"id":"001154","name":"寶玉閣, 西摩道","lat":"22.282826282091","long":"114.14880373053"},{"id":"001156","name":"羅便臣道, 西摩道","lat":"22.280757142091","long":"114.15072530053"},{"id":"001149","name":"高主教書院, 羅便臣道","lat":"22.278541232091","long":"114.15324279053"},{"id":"001150","name":"花園台, 羅便臣道","lat":"22.276011452091","long":"114.15489341053"},{"id":"001072","name":"香港動植物公園, 花園道","lat":"22.277527002091","long":"114.15772013053"},{"id":"001073","name":"聖約翰座堂, 花園道","lat":"22.278373862091","long":"114.15978086053"},{"id":"001157","name":"金鐘 - 添馬街","lat":"22.279161072091","long":"114.16399066053"},{"id":"001033","name":"皇后像廣場, 干諾道中","lat":"22.281992192091","long":"114.16003822053"},{"id":"001181","name":"域多利皇后街, 干諾道中","lat":"22.284417192091","long":"114.15666707053"},{"id":"001036","name":"租庇利街, 干諾道中","lat":"22.285203642091","long":"114.15604393053"},{"id":"001185","name":"永和街, 干諾道中","lat":"22.285954582091","long":"114.15497687053"},{"id":"001076","name":"歷山大廈, 雪廠街","lat":"22.281372022091","long":"114.15884246053"},{"id":"001143","name":"國際金融中心二期, 民耀街","lat":"22.284964992091","long":"114.15981958053"},{"id":"001170","name":"中環碼頭 - 愉景灣渡輪, 民光街","lat":"22.287492242091","long":"114.15733493053"}],"routeId":"12","description":"正常班次"},{"company":"ctb","route":"12","routeType":null,"dir":"O","orig":"中環3號碼頭","dest":"羅便臣道／柏道","stopList":[{"id":"001170","name":"中環碼頭 - 愉景灣渡輪, 民光街","lat":"22.287492242091","long":"114.15733493053"},{"id":"001195","name":"中環碼頭 - 長洲及南丫島渡輪","lat":"22.287037892091","long":"114.15895010053"},{"id":"001171","name":"中環碼頭 - 天星小輪","lat":"22.286604172091","long":"114.16035307053"},{"id":"001032","name":"中環 (交易廣場)","lat":"22.283695952091","long":"114.15803274053"},{"id":"001030","name":"怡和大廈, 干諾道中","lat":"22.282618792091","long":"114.15929917053"},{"id":"001157","name":"金鐘 - 添馬街","lat":"22.279161072091","long":"114.16399066053"},{"id":"001122","name":"滙豐總行大廈, 皇后大道中","lat":"22.279919512091","long":"114.15903769053"},{"id":"001042","name":"蘭桂坊, 德己立街","lat":"22.281516532091","long":"114.15613926053"},{"id":"001084","name":"擺花街","lat":"22.282471302091","long":"114.15429220053"},{"id":"001075","name":"大館, 荷李活道","lat":"22.281907662091","long":"114.15431591053"},{"id":"001001","name":"中央廣場, 亞畢諾道","lat":"22.279916732091","long":"114.15458450053"},{"id":"001018","name":"明愛中心, 堅道","lat":"22.279434502091","long":"114.15420482053"},{"id":"001019","name":"孫中山紀念館, 堅道","lat":"22.281336102091","long":"114.15190655053"},{"id":"001020","name":"樓梯街, 堅道","lat":"22.282821442091","long":"114.14949489053"},{"id":"001021","name":"西摩道, 堅道","lat":"22.283159702091","long":"114.14786353053"},{"id":"001011","name":"豫苑, 般咸道","lat":"22.284879112091","long":"114.14515677053"},{"id":"001013","name":"東邊街, 般咸道","lat":"22.284209702091","long":"114.14433785053"},{"id":"001092","name":"聖士提反女子中學, 柏道","lat":"22.283869362091","long":"114.14350996053"},{"id":"001091","name":"豫苑, 柏道","lat":"22.284372122091","long":"114.14469393053"},{"id":"001146","name":"英華女學校, 羅便臣道","lat":"22.282571772091","long":"114.14670968053"},{"id":"003158","name":"蔚巒閣, 羅便臣道","lat":"22.281969702091","long":"114.14760704053"},{"id":"002732","name":"美麗閣, 衛城道","lat":"22.282176712091","long":"114.14925129053"},{"id":"001154","name":"寶玉閣, 西摩道","lat":"22.282826282091","long":"114.14880373053"},{"id":"001156","name":"羅便臣道, 西摩道","lat":"22.280757142091","long":"114.15072530053"},{"id":"001149","name":"高主教書院, 羅便臣道","lat":"22.278541232091","long":"114.15324279053"},{"id":"001150","name":"花園台, 羅便臣道","lat":"22.276011452091","long":"114.15489341053"},{"id":"001072","name":"香港動植物公園, 花園道","lat":"22.277527002091","long":"114.15772013053"}],"routeId":"12","description":"正常班次"},{"company":"gmb","route":"12","routeType":1,"orig":"觀龍樓","dest":"西營盤(循環線)","stopList":[{"id":20000080,"name":"觀龍樓","lat":22.279775626983707,"long":114.12862017977727},{"id":20013165,"name":"吉席街, 近添利閣","lat":22.28310616962027,"long":114.12685431540014},{"id":20003468,"name":"堅彌地城海旁, 卑路乍灣公園外","lat":22.284535279518657,"long":114.13036518852135},{"id":20006948,"name":"堅彌地城海旁, 堅尼地城游泳池外","lat":22.28576382014922,"long":114.13169418161527},{"id":20000082,"name":"德輔道西, 香港商業中心東端","lat":22.286785429187795,"long":114.13603141364369},{"id":20013166,"name":"德輔道西, 近豐業大廈","lat":22.28694989060747,"long":114.13667522370817},{"id":20003470,"name":"德輔道西, 均益大廈二期外 (巴士站前)","lat":22.287300637182387,"long":114.13791379153541},{"id":20003471,"name":"正街, 港島太平洋酒店對面","lat":22.288186622645625,"long":114.14226085356596},{"id":20003472,"name":"高街, 西營盤社區綜合大樓對面","lat":22.28512562151426,"long":114.14410529012093},{"id":20013167,"name":" 醫院道","lat":22.283668697405467,"long":114.14751168340446},{"id":20013192,"name":"皇后大道西, 安達中心對面","lat":22.28687891329004,"long":114.14190620183946},{"id":20003474,"name":"皇后大道西, 近水街","lat":22.286524237402375,"long":114.13890378342397},{"id":20013193,"name":"皇后大道西, 近聯華大廈","lat":22.28615407118501,"long":114.1347272694111},{"id":20000085,"name":"卑路乍街, 近新城大樓","lat":22.28630684826224,"long":114.1327276825905},{"id":20013194,"name":"卑路乍街, 近如意大樓","lat":22.283811781309307,"long":114.1308766230941},{"id":20013195,"name":"卑路乍街, 近隆基大樓","lat":22.282763933653477,"long":114.12944079645384},{"id":20000086,"name":"卑路乍街, 近Imperial Kennedy","lat":22.2826187719783,"long":114.12867218255998},{"id":20021451,"name":"卑路乍街, 近聯邦新樓","lat":22.282338315360033,"long":114.12703871726991},{"id":20000088,"name":"士美菲路, 近文光閣","lat":22.28213253278152,"long":114.12831856670377},{"id":20011779,"name":"士美菲路, 近慧華閣","lat":22.280476219629325,"long":114.12918850779536},{"id":20000080,"name":"觀龍樓","lat":22.279775626983707,"long":114.12862017977727}],"routeId":2002285,"description":"正常班次"},{"company":"gmb","route":"12","routeType":1,"orig":"白田","dest":"旺角東站","stopList":[{"id":20000540,"name":"白雲街, 白田邨巴士總站","lat":22.33706362826191,"long":114.1670895180512},{"id":20000859,"name":"白雲街, 安田樓外","lat":22.335663836730316,"long":114.16625480520756},{"id":20009670,"name":"偉倫街, 田豐樓外","lat":22.33485330542204,"long":114.16731208562854},{"id":20009674,"name":"大坑西街, 南山商場外","lat":22.33278166650274,"long":114.17025715112689},{"id":20000541,"name":"大坑東道, 大坑東邨東龍樓外","lat":22.331455832861888,"long":114.17115705786873},{"id":20000433,"name":"大坑東道, 大坑東遊樂場外","lat":22.32815067228665,"long":114.17218608838928},{"id":20009675,"name":"勵德街","lat":22.325789968130593,"long":114.17641013860705},{"id":20004126,"name":"太子道西, 新世紀廣場外","lat":22.324719071141207,"long":114.1730209469322},{"id":20009676,"name":"洗衣街, 伊利沙伯中學外","lat":22.323564361097425,"long":114.17094647884369},{"id":20000547,"name":"港鐵旺角東站","lat":22.322073086789946,"long":114.17219599568885}],"routeId":2002329,"description":"正常班次"},{"company":"gmb","route":"12","routeType":2,"orig":"旺角東站","dest":"白田","stopList":[{"id":20000547,"name":"港鐵旺角東站","lat":22.322073086789946,"long":114.17219599568885},{"id":20006961,"name":"洗衣街171號","lat":22.323111560917038,"long":114.17085650227438},{"id":20000546,"name":"通菜街, 旺角警署外","lat":22.324673792247307,"long":114.16939077940425},{"id":20009667,"name":"棠蔭街,聖道弘爵國際學校外","lat":22.330144313992292,"long":114.17070373892784},{"id":20009668,"name":"大坑東道,民興樓外","lat":22.33212667486112,"long":114.1703885793686},{"id":20009669,"name":"大坑西街,石硤尾警署","lat":22.33316994608054,"long":114.16953027248384},{"id":20000540,"name":"白雲街, 白田邨巴士總站","lat":22.33706362826191,"long":114.1670895180512}],"routeId":2002329,"description":"正常班次"},{"company":"gmb","route":"12","routeType":1,"orig":"寶琳","dest":"順利","stopList":[{"id":20001149,"name":"寶琳公共運輸交匯處","lat":22.323398415872884,"long":114.25793122710385},{"id":20001150,"name":"寶琳北路, 樂善堂劉德小學外","lat":22.32700249641062,"long":114.25617640839003},{"id":20001151,"name":"寶琳北路, 寶琳邨寶仁樓外","lat":22.326408250755343,"long":114.25246820937538},{"id":20010616,"name":"寶琳北路, 翠林邨對面","lat":22.322561957929203,"long":114.25023794174196},{"id":20002021,"name":"寶琳北路, 康盛花園對面","lat":22.318243658246242,"long":114.25446322111691},{"id":20001152,"name":"寶琳路, 近馬游塘","lat":22.320198698944274,"long":114.24457386922444},{"id":20003282,"name":"寶琳路, 寶達邨外","lat":22.318205707796157,"long":114.23758467216754},{"id":20017257,"name":"秀茂坪邨, 秀樂樓外","lat":22.321018301700473,"long":114.23212474839555},{"id":20001154,"name":"秀茂坪道, 秀義樓外","lat":22.322895032128947,"long":114.23065646996531},{"id":20012436,"name":"順安道, 寧波第二中學外","lat":22.32433848930932,"long":114.22881782054903},{"id":20000953,"name":"順天邨","lat":22.326530029582177,"long":114.22688249476779},{"id":20012437,"name":"利安道順利巴士總站外","lat":22.331002761581722,"long":114.2269778251648},{"id":20012438,"name":"順利消防局, 利安道","lat":22.33184135557062,"long":114.2225629091263},{"id":20012439,"name":"順利邨道, 順利邨利康樓外","lat":22.330501587619317,"long":114.22585666179658},{"id":20012440,"name":"順利邨道, 順安邨安頌樓外","lat":22.329504196455442,"long":114.22598004341127},{"id":20012441,"name":"順利邨道, 迦密梁省德學校外","lat":22.327985766364478,"long":114.22475159168245},{"id":20000983,"name":"秀茂坪道, 聯合醫院對面","lat":22.324115580952018,"long":114.22616295244056},{"id":20002030,"name":"秀茂坪道, 寧波第二中學外","lat":22.32406065636953,"long":114.22854097384555},{"id":20007878,"name":"秀茂坪道, 秀程樓對面","lat":22.31945546043994,"long":114.23402398824693},{"id":20014772,"name":"寶琳路, 寶達邨對面","lat":22.31853614465332,"long":114.23594728551366},{"id":20002032,"name":"寶琳路, 近馬游塘","lat":22.319493832909476,"long":114.24568974313613},{"id":20002033,"name":"寶琳北路, 康盛花園外","lat":22.31749522148137,"long":114.25210431757534},{"id":20002020,"name":"寶琳北路, 翠林邨外","lat":22.3227521689809,"long":114.25031669819424},{"id":20001169,"name":"寶琳北路, 寶仁樓對面","lat":22.32648076509209,"long":114.25186647583837},{"id":20002005,"name":"寶琳北路, 英明苑對面","lat":22.32725541856964,"long":114.2560212747401},{"id":20001149,"name":"寶琳公共運輸交匯處","lat":22.323398415872884,"long":114.25793122710385}],"routeId":2004763,"description":"特別班次"},{"company":"gmb","route":"12","routeType":1,"orig":"西貢","dest":"寶琳","stopList":[{"id":20001112,"name":"福民路小巴總站, 經華樓外","lat":22.38160987711899,"long":114.2734236652468},{"id":20001144,"name":"普通道, 西貢賽馬會大會堂外","lat":22.383101349759468,"long":114.27097769280442},{"id":20012443,"name":"翠塘花園","lat":22.380798558108108,"long":114.26904022693635},{"id":20012444,"name":"菠蘿輋","lat":22.378556468077853,"long":114.26558554172517},{"id":20012445,"name":"西貢公路,北港","lat":22.37495515936712,"long":114.26174461841585},{"id":20001113,"name":"西貢公路, 白沙灣遊艇會外","lat":22.364820840211255,"long":114.25943097764687},{"id":20009421,"name":"西貢公路, 匡湖居外","lat":22.359755221283116,"long":114.25260901451112},{"id":20012474,"name":"大學道, 香港科技大學","lat":22.33854992596409,"long":114.2620611190796},{"id":20001145,"name":"清水灣道, 壁屋懲教署對面","lat":22.339739895208332,"long":114.24684515105326},{"id":20001996,"name":"清水灣道, 近井欄樹","lat":22.334000086544158,"long":114.23788272041506},{"id":20012473,"name":"新清水灣道, 政府宿舍外","lat":22.3312161321281,"long":114.2212861776352},{"id":20012475,"name":"利安道, 近消防局","lat":22.33207457312119,"long":114.22255754470827},{"id":20012439,"name":"順利邨道, 順利邨利康樓外","lat":22.330501587619317,"long":114.22585666179658},{"id":20012440,"name":"順利邨道, 順安邨安頌樓外","lat":22.329504196455442,"long":114.22598004341127},{"id":20012441,"name":"順利邨道, 迦密梁省德學校外","lat":22.327985766364478,"long":114.22475159168245},{"id":20000983,"name":"秀茂坪道, 聯合醫院對面","lat":22.324115580952018,"long":114.22616295244056},{"id":20002030,"name":"秀茂坪道, 寧波第二中學外","lat":22.32406065636953,"long":114.22854097384555},{"id":20007878,"name":"秀茂坪道, 秀程樓對面","lat":22.31945546043994,"long":114.23402398824693},{"id":20014772,"name":"寶琳路, 寶達邨對面","lat":22.31853614465332,"long":114.23594728551366},{"id":20002032,"name":"寶琳路, 近馬游塘","lat":22.319493832909476,"long":114.24568974313613},{"id":20002003,"name":"寶琳北路, 康盛花園外","lat":22.31965256896298,"long":114.25417282094037},{"id":20002020,"name":"寶琳北路, 翠林邨外","lat":22.3227521689809,"long":114.25031669819424},{"id":20001169,"name":"寶琳北路, 寶仁樓對面","lat":22.32648076509209,"long":114.25186647583837},{"id":20002005,"name":"寶琳北路, 英明苑對面","lat":22.32725541856964,"long":114.2560212747401},{"id":20001149,"name":"寶琳公共運輸交匯處","lat":22.323398415872884,"long":114.25793122710385}],"routeId":2004764,"description":"正常班次"},{"company":"gmb","route":"12","routeType":2,"orig":"寶琳","dest":"西貢","stopList":[{"id":20001149,"name":"寶琳公共運輸交匯處","lat":22.323398415872884,"long":114.25793122710385},{"id":20001150,"name":"寶琳北路, 樂善堂劉德小學外","lat":22.32700249641062,"long":114.25617640839003},{"id":20001151,"name":"寶琳北路, 寶琳邨寶仁樓外","lat":22.326408250755343,"long":114.25246820937538},{"id":20010616,"name":"寶琳北路, 翠林邨對面","lat":22.322561957929203,"long":114.25023794174196},{"id":20002021,"name":"寶琳北路, 康盛花園對面","lat":22.318243658246242,"long":114.25446322111691},{"id":20001152,"name":"寶琳路, 近馬游塘","lat":22.320198698944274,"long":114.24457386922444},{"id":20003282,"name":"寶琳路, 寶達邨外","lat":22.318205707796157,"long":114.23758467216754},{"id":20017257,"name":"秀茂坪邨, 秀樂樓外","lat":22.321018301700473,"long":114.23212474839555},{"id":20001154,"name":"秀茂坪道, 秀義樓外","lat":22.322895032128947,"long":114.23065646996531},{"id":20012476,"name":"順利邨道, 迦密梁省德學校對面","lat":22.3280105774465,"long":114.22453165054321},{"id":20012477,"name":"順利邨道, 順利邨康樂中心外","lat":22.32916180679973,"long":114.22555625438692},{"id":20012478,"name":"新清水灣道, 政府宿舍對面","lat":22.330963064699862,"long":114.22125399112703},{"id":20001999,"name":"清水灣道, 井欄樹","lat":22.334153810160945,"long":114.23733919611703},{"id":20002001,"name":"清水灣道, 壁屋懲教所外","lat":22.339749094792726,"long":114.24647624790641},{"id":20002002,"name":"清水灣道, 打鼓嶺新村","lat":22.343818400314323,"long":114.25414731525628},{"id":20012479,"name":"清水灣道, 大埔仔坳","lat":22.34049991584068,"long":114.25854742527008},{"id":20012474,"name":"大學道, 香港科技大學","lat":22.33854992596409,"long":114.2620611190796},{"id":20012480,"name":"西貢公路, 匡湖居對面","lat":22.356079008005075,"long":114.2514342069626},{"id":20002600,"name":"西貢公路, 白沙灣遊艇會對面","lat":22.36484800125427,"long":114.25931445671114},{"id":20012481,"name":"西貢公路, 北港","lat":22.37564467334434,"long":114.2621898651123},{"id":20012482,"name":"菠蘿輋","lat":22.37837293255981,"long":114.26533341407776},{"id":20012483,"name":"翠塘花園","lat":22.380709272027687,"long":114.26828384399415},{"id":20001112,"name":"福民路小巴總站, 經華樓外","lat":22.38160987711899,"long":114.2734236652468}],"routeId":2004764,"description":"正常班次"}]