[{"company":"kmb","route":"12A","routeType":"1","dir":"O","orig":"黃埔花園","dest":"長沙灣(海達邨)","stopList":[{"id":"ACFA28064D1B2380","name":"黃埔花園總站","lat":"22.304899","long":"114.190690"},{"id":"36F7DCE4723C2C44","name":"紅樂道","lat":"22.302752","long":"114.185478"},{"id":"EF5A5CD9C3A038C9","name":"紅磡南道","lat":"22.305067","long":"114.185185"},{"id":"A5E27C280260D008","name":"機利士南路","lat":"22.306587","long":"114.183925"},{"id":"B0095CE9771BFC17","name":"孖庶街","lat":"22.307305","long":"114.186095"},{"id":"B9CC4872480304AA","name":"北拱街","lat":"22.311398","long":"114.187550"},{"id":"E80A3E968CCEEFF7","name":"石塘街","lat":"22.313788","long":"114.187494"},{"id":"4960882151DB05E0","name":"浙江街","lat":"22.316089","long":"114.189221"},{"id":"411A32C9BBF53857","name":"上鄉道","lat":"22.317597","long":"114.190666"},{"id":"489A72B19BE37AE1","name":"中華煤氣公司","lat":"22.320607","long":"114.192671"},{"id":"A91745D47D69FF05","name":"欣榮花園","lat":"22.321923","long":"114.189676"},{"id":"6F357BC5B6EF7647","name":"香港家庭計劃指導會","lat":"22.324154","long":"114.188455"},{"id":"2F7C67769B9FB896","name":"亞皆老街球場","lat":"22.326376","long":"114.189427"},{"id":"121EAC1C0D7D77BE","name":"福佬村道","lat":"22.327224","long":"114.187473"},{"id":"CC6ED4BD466C1CB0","name":"喇沙利道","lat":"22.326376","long":"114.182647"},{"id":"0A72152D4873A5C7","name":"聖德肋撒堂","lat":"22.325447","long":"114.177493"},{"id":"60F1DDDCB555E319","name":"拔萃男書院","lat":"22.324949","long":"114.174484"},{"id":"BF0AC2C1EDAB5E28","name":"深水埗楓樹街","lat":"22.325480","long":"114.164273"},{"id":"242DFDBDBFA2034A","name":"深水埗南昌街","lat":"22.326980","long":"114.160363"},{"id":"EF568D9658FEF62C","name":"深水埗桂林街","lat":"22.328213","long":"114.158876"},{"id":"CC14CF9E8A163F34","name":"通州街公園","lat":"22.327741","long":"114.157546"},{"id":"CC9AE3EF28E5725F","name":"富昌邨","lat":"22.327310","long":"114.154421"},{"id":"D3F3BE8469B2F179","name":"長沙灣(海達邨)總站","lat":"22.329145","long":"114.151035"}],"routeId":"12A","description":"正常班次"},{"company":"kmb","route":"12A","routeType":"1","dir":"I","orig":"長沙灣(海達邨)","dest":"黃埔花園","stopList":[{"id":"D3F3BE8469B2F179","name":"長沙灣(海達邨)總站","lat":"22.329145","long":"114.151035"},{"id":"5FBC215F6F58AC98","name":"富昌邨","lat":"22.327330","long":"114.154676"},{"id":"7B3074F34B2D6D01","name":"南昌邨","lat":"22.327351","long":"114.156846"},{"id":"98AB21EAFF27FE09","name":"深水埗醫局街","lat":"22.328968","long":"114.158310"},{"id":"0D7B059BFF6CA5E2","name":"深水埗桂林街","lat":"22.329337","long":"114.159707"},{"id":"8D386F5D210C3439","name":"石硤尾街","lat":"22.327142","long":"114.162550"},{"id":"A80D9E7FA0C070E6","name":"大南街","lat":"22.326427","long":"114.163724"},{"id":"32CCEDBCC9EAAA9E","name":"白楊街","lat":"22.326542","long":"114.166667"},{"id":"2751781A6F757C5D","name":"警察體育遊樂會","lat":"22.326707","long":"114.170094"},{"id":"6045969736940272","name":"花墟公園","lat":"22.326866","long":"114.173105"},{"id":"38A53BACD13CD0C8","name":"明愛太子宿舍","lat":"22.326946","long":"114.177209"},{"id":"C4F65410A7A2E8B6","name":"喇沙小學","lat":"22.327132","long":"114.180671"},{"id":"1E58DF8CAD59712E","name":"聖德肋撒醫院","lat":"22.327382","long":"114.185584"},{"id":"8CD1D697477E50D0","name":"福佬村道","lat":"22.327593","long":"114.187930"},{"id":"F6E296480D3481A2","name":"宋皇臺道","lat":"22.323933","long":"114.188588"},{"id":"25455FDE268CF605","name":"北帝街","lat":"22.323055","long":"114.189914"},{"id":"C1AFF00AC64F457A","name":"香港盲人輔導會","lat":"22.321487","long":"114.193520"},{"id":"5396072459507B7F","name":"翔龍灣","lat":"22.319619","long":"114.192985"},{"id":"C048D4CF6ED36C7A","name":"貴州街","lat":"22.318206","long":"114.191623"},{"id":"68A8F08ABC5C90F0","name":"落山道","lat":"22.316874","long":"114.190332"},{"id":"91929D42214F3D7F","name":"鴻福街","lat":"22.314563","long":"114.188116"},{"id":"97B7EC0354E020B7","name":"紅磡庇利街","lat":"22.311523","long":"114.187652"},{"id":"ED03E689B88CE0E8","name":"紅磡鶴園街","lat":"22.309978","long":"114.187750"},{"id":"438AFA4E9E76C953","name":"德民街","lat":"22.305880","long":"114.188304"},{"id":"ACFA28064D1B2380","name":"黃埔花園總站","lat":"22.304899","long":"114.190690"}],"routeId":"12A","description":"正常班次"},{"company":"ctb","route":"12A","routeType":null,"dir":"O","orig":"金鐘 (添馬街)","dest":"麥當勞道","stopList":[{"id":"001157","name":"金鐘站 - 添馬街","lat":"22.279161072091","long":"114.16399066053"},{"id":"001041","name":"香港公園, 紅棉路","lat":"22.277664742091","long":"114.16044539053"},{"id":"001085","name":"女青年會, 麥當勞道","lat":"22.275806862091","long":"114.15609299053"},{"id":"001086","name":"纜車徑, 麥當勞道","lat":"22.275547472091","long":"114.15731072053"},{"id":"001087","name":"聖保羅男女中學, 麥當勞道","lat":"22.275489902091","long":"114.15810184053"},{"id":"001088","name":"龍景樓, 麥當勞道","lat":"22.275341822091","long":"114.15902156053"},{"id":"001089","name":"外交部駐港特派員公署, 麥當勞道","lat":"22.275401042091","long":"114.16118587053"},{"id":"002592","name":"香港公園, 堅尼地道","lat":"22.276056952091","long":"114.16054945053"},{"id":"001077","name":"聖若瑟書院, 堅尼地道","lat":"22.276268212091","long":"114.15883771053"},{"id":"001078","name":"堅麗閣, 堅尼地道","lat":"22.276481502091","long":"114.15748729053"},{"id":"001073","name":"聖約翰座堂, 花園道","lat":"22.278373862091","long":"114.15978086053"},{"id":"001122","name":"滙豐總行大廈, 皇后大道中","lat":"22.279919512091","long":"114.15903769053"},{"id":"001106","name":"畢打街","lat":"22.281823852091","long":"114.15738082053"},{"id":"001030","name":"怡和大廈, 干諾道中","lat":"22.282618792091","long":"114.15929917053"},{"id":"001024","name":"遮打大廈, 遮打道","lat":"22.281877032091","long":"114.15841707053"},{"id":"001025","name":"皇后像廣場, 遮打道","lat":"22.281482342091","long":"114.16005494053"}],"routeId":"12A","description":"正常班次"},{"company":"gmb","route":"12A","routeType":1,"orig":"旺角東站","dest":"大同新邨","stopList":[{"id":20000547,"name":"港鐵旺角東站","lat":22.322073086789946,"long":114.17219599568885},{"id":20000470,"name":"亞皆老街62號","lat":22.31956255466139,"long":114.17132254037038},{"id":20007224,"name":"亞皆老街介乎新填地街與上海街","lat":22.318957350645356,"long":114.16786725011414},{"id":20000453,"name":"塘尾道百勝大廈外","lat":22.319508092744382,"long":114.1658483718915},{"id":20006090,"name":"松樹街 20-26 號","lat":22.3212328544179,"long":114.16470291767929},{"id":20006092,"name":"埃華街近大角咀道","lat":22.321341021863798,"long":114.16227638261167},{"id":20001082,"name":"大角咀道近大同新邨","lat":22.321783482855007,"long":114.16185897299195},{"id":20000454,"name":"中匯街, 中和樓外","lat":22.322460742706138,"long":114.16149006589558}],"routeId":2002331,"description":"短程班次"},{"company":"gmb","route":"12A","routeType":2,"orig":"大同新邨","dest":"旺角東站","stopList":[{"id":20000454,"name":"中匯街, 中和樓外","lat":22.322460742706138,"long":114.16149006589558},{"id":20002609,"name":"福全街","lat":22.322072597745,"long":114.16341192670322},{"id":20006602,"name":"快富街近旺角道","lat":22.320348144944596,"long":114.16951718714701},{"id":20000544,"name":"亞皆老街, 先施大廈外","lat":22.319679928623053,"long":114.1706625285673},{"id":20000547,"name":"港鐵旺角東站","lat":22.322073086789946,"long":114.17219599568885}],"routeId":2002331,"description":"短程班次"}]