[{"company":"ctb","route":"12M","routeType":null,"dir":"O","orig":"金鐘 (添馬街)","dest":"柏道","stopList":[{"id":"001157","name":"金鐘 - 添馬街","lat":"22.279161072091","long":"114.16399066053"},{"id":"001122","name":"滙豐總行大廈, 皇后大道中","lat":"22.279919512091","long":"114.15903769053"},{"id":"001042","name":"蘭桂坊, 德己立街","lat":"22.281516532091","long":"114.15613926053"},{"id":"001084","name":"擺花街","lat":"22.282471302091","long":"114.15429220053"},{"id":"001075","name":"大館, 荷李活道","lat":"22.281907662091","long":"114.15431591053"},{"id":"001001","name":"中央廣場, 亞畢諾道","lat":"22.279916732091","long":"114.15458450053"},{"id":"001018","name":"明愛中心, 堅道","lat":"22.279434502091","long":"114.15420482053"},{"id":"001019","name":"孫中山紀念館, 堅道","lat":"22.281336102091","long":"114.15190655053"},{"id":"001020","name":"樓梯街, 堅道","lat":"22.282821442091","long":"114.14949489053"},{"id":"001021","name":"西摩道, 堅道","lat":"22.283159702091","long":"114.14786353053"},{"id":"001011","name":"豫苑, 般咸道","lat":"22.284879112091","long":"114.14515677053"},{"id":"001013","name":"東邊街, 般咸道","lat":"22.284209702091","long":"114.14433785053"},{"id":"001092","name":"聖士提反女子中學, 柏道","lat":"22.283869362091","long":"114.14350996053"},{"id":"001091","name":"豫苑, 柏道","lat":"22.284372122091","long":"114.14469393053"},{"id":"001146","name":"英華女學校, 羅便臣道","lat":"22.282571772091","long":"114.14670968053"},{"id":"001147","name":"蔚巒閣, 羅便臣道","lat":"22.282146492091","long":"114.14758063053"},{"id":"001148","name":"西摩道, 羅便臣道","lat":"22.280494672091","long":"114.15057437053"},{"id":"001149","name":"高主教書院, 羅便臣道","lat":"22.278541232091","long":"114.15324279053"},{"id":"001150","name":"花園台, 羅便臣道","lat":"22.276011452091","long":"114.15489341053"},{"id":"001072","name":"香港動植物公園, 花園道","lat":"22.277527002091","long":"114.15772013053"},{"id":"001073","name":"聖約翰座堂, 花園道","lat":"22.278373862091","long":"114.15978086053"}],"routeId":"12M","description":"正常班次"}]