[{"company":"ctb","route":"12M","routeType":null,"dir":"O","orig":"金鐘 (添馬街)","dest":"柏道","stopList":[{"id":"001157","name":"金鐘 - 添馬街","lat":"22.279092","long":"114.163933"},{"id":"001122","name":"滙豐總行大廈, 皇后大道中","lat":"22.279920","long":"114.159038"},{"id":"001042","name":"蘭桂坊, 德己立街","lat":"22.281517","long":"114.156139"},{"id":"001084","name":"擺花街","lat":"22.282471","long":"114.154292"},{"id":"001075","name":"大館, 荷李活道","lat":"22.281908","long":"114.154316"},{"id":"001001","name":"中央廣場, 亞畢諾道","lat":"22.279917","long":"114.154585"},{"id":"001018","name":"明愛中心, 堅道","lat":"22.279435","long":"114.154205"},{"id":"001019","name":"孫中山紀念館, 堅道","lat":"22.281336","long":"114.151907"},{"id":"001020","name":"樓梯街, 堅道","lat":"22.282821","long":"114.149495"},{"id":"001021","name":"西摩道, 堅道","lat":"22.283160","long":"114.147864"},{"id":"001011","name":"豫苑, 般咸道","lat":"22.284879","long":"114.145157"},{"id":"001013","name":"東邊街, 般咸道","lat":"22.284210","long":"114.144338"},{"id":"001092","name":"聖士提反女子中學, 柏道","lat":"22.283869","long":"114.143510"},{"id":"001091","name":"豫苑, 柏道","lat":"22.284372","long":"114.144694"},{"id":"001146","name":"英華女學校, 羅便臣道","lat":"22.282572","long":"114.146710"},{"id":"001147","name":"蔚巒閣, 羅便臣道","lat":"22.282146","long":"114.147581"},{"id":"001148","name":"西摩道, 羅便臣道","lat":"22.280495","long":"114.150574"},{"id":"001149","name":"高主教書院, 羅便臣道","lat":"22.278541","long":"114.153243"},{"id":"001150","name":"花園台, 羅便臣道","lat":"22.276011","long":"114.154893"},{"id":"001072","name":"香港動植物公園, 花園道","lat":"22.277527","long":"114.157720"},{"id":"001073","name":"聖約翰座堂, 花園道","lat":"22.278374","long":"114.159781"}],"routeId":"12M","description":"正常班次"}]