[{"company":"kmb","route":"12P","routeType":"1","dir":"O","orig":"海麗邨","dest":"紅磡站","stopList":[{"id":"296E43213D6DB624","name":"海麗邨巴士總站 (SS667)","lat":"22.332734","long":"114.147094"},{"id":"32CB1FBDCB7932A6","name":"泓景臺 (SS280)","lat":"22.333824","long":"114.148134"},{"id":"CCAD6B9A4B1CFFD8","name":"碧海藍天 (SS283)","lat":"22.333001","long":"114.149756"},{"id":"1BD82E4312536F0C","name":"發祥街西 (SS289)","lat":"22.330184","long":"114.151263"},{"id":"5FBC215F6F58AC98","name":"富昌邨 (SS291)","lat":"22.327330","long":"114.154676"},{"id":"A411F9374FB2879B","name":"港灣豪庭 (MK295)","lat":"22.324135","long":"114.158717"},{"id":"7EC4B2C80047770A","name":"大角咀中匯街 (MK296)","lat":"22.322767","long":"114.159836"},{"id":"9B62732E0E1E537C","name":"奧運站 (MK297)","lat":"22.318545","long":"114.160606"},{"id":"029EA5F3C2AEFBC9","name":"海富苑 柏景灣 (MK121)","lat":"22.316217","long":"114.163941"},{"id":"6E4C75B59DEF3D89","name":"富榮花園 (MK122)","lat":"22.313988","long":"114.164449"},{"id":"DED3339EB26494EA","name":"甘肅街 (YT325)","lat":"22.308783","long":"114.167883"},{"id":"577633405E7A3ACD","name":"渡船街 (YT326)","lat":"22.307260","long":"114.167506"},{"id":"F6EE4DC41A299593","name":"匯翔道,高鐵站 (YT200)","lat":"22.304334","long":"114.167837"},{"id":"83EB94899B6BBB4B","name":"柯士甸道 戲曲中心 (YT202)","lat":"22.302051","long":"114.168121"},{"id":"5F60283656DF3016","name":"廣東道,新港中心 (YT205)","lat":"22.297488","long":"114.168979"},{"id":"576538E1395C8508","name":"尖東站 K11 MUSEA (YT215)","lat":"22.295226","long":"114.174647"},{"id":"1864222D8939BD69","name":"永安廣場 星光大道 (YT218)","lat":"22.296522","long":"114.176660"},{"id":"95FAB1D2AD752ECE","name":"紅磡南道 (HH321)","lat":"22.305121","long":"114.185074"},{"id":"505D36136FD57784","name":"紅磡站 (HH979)","lat":"22.302083","long":"114.182547"}],"routeId":"12P","description":"正常班次"}]