[{"company":"kmb","route":"12P","routeType":"1","dir":"O","orig":"海麗邨","dest":"紅磡站","stopList":[{"id":"296E43213D6DB624","name":"海麗邨巴士總站","lat":"22.332734","long":"114.147094"},{"id":"32CB1FBDCB7932A6","name":"泓景臺","lat":"22.333824","long":"114.148134"},{"id":"CCAD6B9A4B1CFFD8","name":"碧海藍天","lat":"22.333001","long":"114.149756"},{"id":"1BD82E4312536F0C","name":"發祥街西","lat":"22.330184","long":"114.151263"},{"id":"5FBC215F6F58AC98","name":"富昌邨","lat":"22.327330","long":"114.154676"},{"id":"A411F9374FB2879B","name":"港灣豪庭","lat":"22.324135","long":"114.158717"},{"id":"5A0D9C9441ED6AC5","name":"大角咀中匯街","lat":"22.322767","long":"114.159836"},{"id":"9BF9C994F2DAE15D","name":"奧運站","lat":"22.318545","long":"114.160606"},{"id":"F5098BFD784B8FAB","name":"海富苑 柏景灣","lat":"22.316217","long":"114.163941"},{"id":"1C7C526A52EF9171","name":"富榮花園","lat":"22.313988","long":"114.164449"},{"id":"DED3339EB26494EA","name":"甘肅街","lat":"22.308783","long":"114.167883"},{"id":"577633405E7A3ACD","name":"渡船街","lat":"22.307260","long":"114.167506"},{"id":"F6EE4DC41A299593","name":"匯翔道  柯士甸站","lat":"22.304334","long":"114.167837"},{"id":"83EB94899B6BBB4B","name":"柯士甸道 戲曲中心","lat":"22.302051","long":"114.168121"},{"id":"5F60283656DF3016","name":"新港中心","lat":"22.297488","long":"114.168979"},{"id":"576538E1395C8508","name":"尖東站 K11 MUSEA","lat":"22.295226","long":"114.174647"},{"id":"1864222D8939BD69","name":"永安廣場 星光大道","lat":"22.296522","long":"114.176660"},{"id":"95FAB1D2AD752ECE","name":"紅磡南道","lat":"22.305121","long":"114.185074"},{"id":"505D36136FD57784","name":"紅磡站","lat":"22.302083","long":"114.182547"}],"routeId":"12P","description":"正常班次"}]