[{"company":"kmb","route":"13M","routeType":"1","dir":"O","orig":"觀塘(雅麗道)","dest":"寶達(循環線)","stopList":[{"id":"C1DAF9F8B637B776","name":"觀塘（雅麗道）總站 (KT916)","lat":"22.315173","long":"114.219647"},{"id":"2437897A21642D85","name":"觀塘轉車站 - 觀塘市中心","lat":"22.313063","long":"114.224870"},{"id":"CED060CB0E89E2B3","name":"觀塘游泳池 (KT270)","lat":"22.311955","long":"114.229226"},{"id":"F9210821429F55B6","name":"翠桉樓 (KT272)","lat":"22.315232","long":"114.229331"},{"id":"DE925628D8747F6D","name":"寶珮苑 (KT273)","lat":"22.317402","long":"114.228986"},{"id":"D3FEF85E4DAEEE4E","name":"秀雅道遊樂場 (KT285)","lat":"22.320222","long":"114.228251"},{"id":"C3201264CC8E5C5D","name":"曉麗苑 (KT286)","lat":"22.319078","long":"114.229349"},{"id":"C8830886D41FB5FA","name":"曉光街遊樂場 (KT287)","lat":"22.317021","long":"114.231554"},{"id":"D9ABBD996944C4D3","name":"梁式芝書院 (KT288)","lat":"22.314896","long":"114.233811"},{"id":"D83C4CC1305E35E9","name":"上秀茂坪 (KT289)","lat":"22.314879","long":"114.235418"},{"id":"1FBAAE29AF1CA50E","name":"秀暉樓 (KT501)","lat":"22.316851","long":"114.235856"},{"id":"A2229DD958391455","name":"寶達巴士總站 (KT966)","lat":"22.317564","long":"114.236201"},{"id":"3C0AF6BA82588E2F","name":"秀程樓 (KT502)","lat":"22.320022","long":"114.233232"},{"id":"F8DEE1D5F9A349AD","name":"秀康樓 (KT503)","lat":"22.323034","long":"114.230584"},{"id":"4A14A012710E80B1","name":"秀樂樓 (KT385)","lat":"22.321801","long":"114.230416"},{"id":"25D24692B2A312FB","name":"秀逸樓 (KT388)","lat":"22.317818","long":"114.231893"},{"id":"6F106FD26B684372","name":"秀安樓 (KT390)","lat":"22.316738","long":"114.233354"},{"id":"26305AF62FBEE2BC","name":"秀明樓 (KT393)","lat":"22.315095","long":"114.234630"},{"id":"28A55D04DC72B1EA","name":"梁式芝書院 (KT511)","lat":"22.315347","long":"114.233153"},{"id":"41E81A921D79F375","name":"曉麗苑 (KT513)","lat":"22.318714","long":"114.229840"},{"id":"04B6438688E12AC0","name":"祥和苑 (KT533)","lat":"22.319803","long":"114.227405"},{"id":"073C44CE5FF431BC","name":"和樂邨 (KT535)","lat":"22.317237","long":"114.226791"},{"id":"45C2286729E1475B","name":"裕民坊 (KT556)","lat":"22.313405","long":"114.225071"},{"id":"C1DAF9F8B637B776","name":"觀塘（雅麗道）總站 (KT916)","lat":"22.315173","long":"114.219647"}],"routeId":"13M","description":"正常班次"},{"company":"kmb","route":"13M","routeType":"2","dir":"O","orig":"寶達","dest":"觀塘站","stopList":[{"id":"A2229DD958391455","name":"寶達巴士總站 (KT966)","lat":"22.317564","long":"114.236201"},{"id":"25863CD2A364E72F","name":"秀暉樓 (KT300)","lat":"22.316195","long":"114.236431"},{"id":"F36DEB05146E271D","name":"觀塘站 (E1) (KT622)","lat":"22.311374","long":"114.227319"}],"routeId":"13M","description":"特別班次"},{"company":"gmb","route":"13M","routeType":1,"orig":"紅磡(紅鸞道)","dest":"紅磡站(循環線)","stopList":[{"id":20010401,"name":"紅磡(紅鸞道)小巴總站","lat":22.301651278364705,"long":114.1886866092682},{"id":20010789,"name":"德民街42號","lat":22.305878343555218,"long":114.18807640671731},{"id":20010421,"name":"寶其利街2號","lat":22.30681038065791,"long":114.18570667505266},{"id":20007412,"name":"機利士南路, 近源成大廈","lat":22.30648617140972,"long":114.18416286909768},{"id":20000475,"name":"紅磡站, 暢運道","lat":22.303930565178085,"long":114.1827846399132},{"id":20000684,"name":"紅荔道, 近半島豪庭第五座","lat":22.30448131715826,"long":114.18536617669544},{"id":20010400,"name":"德安街, 聚寶坊外","lat":22.30505844136336,"long":114.18954491615297},{"id":20010401,"name":"紅磡(紅鸞道)小巴總站","lat":22.301651278364705,"long":114.1886866092682}],"routeId":2003603,"description":" 額外班次 "}]