[{"company":"kmb","route":"13P","routeType":"1","dir":"O","orig":"寶達","dest":"長沙灣(麗閣邨)","stopList":[{"id":"A2229DD958391455","name":"寶達巴士總站 (KT966)","lat":"22.317564","long":"114.236201"},{"id":"93084A14AE624C6F","name":"上秀茂坪 (KT510)","lat":"22.315229","long":"114.236377"},{"id":"D17050E8964504BB","name":"秀明樓 (KT519)","lat":"22.315934","long":"114.233922"},{"id":"04DDF4F7F1C74876","name":"秀富樓 (KT520)","lat":"22.317096","long":"114.232170"},{"id":"D6F16850DA906373","name":"秀茂坪商場 (KT521)","lat":"22.319131","long":"114.231266"},{"id":"2BB6115BF9346B34","name":"秀樂樓 (KT524)","lat":"22.321683","long":"114.230444"},{"id":"6765DD696FA8BF8D","name":"寧波第二中學 (KT504)","lat":"22.323885","long":"114.227862"},{"id":"CE097C48CCAE22C9","name":"聯合醫院 (KT530)","lat":"22.322495","long":"114.226111"},{"id":"04B6438688E12AC0","name":"祥和苑 (KT533)","lat":"22.319803","long":"114.227405"},{"id":"AE2A9F719AB5E353","name":"和樂邨 (KT537)","lat":"22.317004","long":"114.226686"},{"id":"B7773ED8D2FC08E5","name":"裕民坊 (KT557)","lat":"22.313816","long":"114.224041"},{"id":"015AD27DAC83E698","name":"觀塘轉車站 - 創紀之城 (B8)","lat":"22.313853","long":"114.222017"},{"id":"C2AA10A9751D3692","name":"德福花園 (KT659)","lat":"22.322128","long":"114.214269"},{"id":"8570495BD7C63C02","name":"九龍灣站 (KT671)","lat":"22.324805","long":"114.214033"},{"id":"ED5554C57CF0061C","name":"麗晶花園 (WT692)","lat":"22.332530","long":"114.206872"},{"id":"300D1812E3A085C3","name":"太平道 (KC615)","lat":"22.319953","long":"114.173591"},{"id":"3DE979ACCBF8988B","name":"旺角站 (MK623)","lat":"22.319464","long":"114.170905"},{"id":"99256D08CF861BA5","name":"弼街,始創中心 (MK180)","lat":"22.321592","long":"114.168744"},{"id":"3CE4A2049409A6DD","name":"太子站,旺角花墟 (MK186)","lat":"22.325598","long":"114.167935"},{"id":"E6ED785726AED4AE","name":"深水埗楓樹街 (SS200)","lat":"22.327562","long":"114.166148"},{"id":"C13E41666B5A1394","name":"深水埗北河街 (X6) (SS207)","lat":"22.330543","long":"114.162338"},{"id":"C6E9CA12DCD8F695","name":"怡靖苑 (X13) (SS214)","lat":"22.332425","long":"114.159871"},{"id":"7C5377EE48AA1E91","name":"長沙灣(麗閣邨)巴士總站 (SS905)","lat":"22.333548","long":"114.156683"}],"routeId":"13P","description":"正常班次"}]