[{"company":"kmb","route":"16","routeType":"1","dir":"O","orig":"藍田(廣田邨)","dest":"旺角(柏景灣)","stopList":[{"id":"92AA28BBE48D6B2E","name":"藍田(廣田邨)總站 (LT924)","lat":"22.302425","long":"114.241092"},{"id":"ECBD286CC9ED9549","name":"龍栢閣 (LT121)","lat":"22.303423","long":"114.238414"},{"id":"DEB36380E32DCD53","name":"康雅苑 (LT123)","lat":"22.304873","long":"114.238168"},{"id":"FA246A7F26F12EDD","name":"德康樓 (LT125)","lat":"22.307497","long":"114.239194"},{"id":"5ACB622335DF5AE7","name":"德敬樓 (LT127)","lat":"22.310818","long":"114.238251"},{"id":"B7082198F517B1E8","name":"興田 (LT161)","lat":"22.313062","long":"114.239436"},{"id":"F36DEB05146E271D","name":"觀塘站 (KT622)","lat":"22.311374","long":"114.227319"},{"id":"015AD27DAC83E698","name":"觀塘轉車站 - 創紀之城 (KT636)","lat":"22.313853","long":"114.222017"},{"id":"7380707A36C032B9","name":"觀塘定富街 (KT646)","lat":"22.316142","long":"114.216218"},{"id":"52AE04E9C3E77BE1","name":"牛頭角下邨 (KT654)","lat":"22.320039","long":"114.214468"},{"id":"CC811B604DD883AE","name":"德福花園 (KT657)","lat":"22.322088","long":"114.214272"},{"id":"8570495BD7C63C02","name":"九龍灣站 (KT671)","lat":"22.324805","long":"114.214033"},{"id":"0A87C29A2B460C96","name":"啟業邨 (KT683)","lat":"22.330394","long":"114.209803"},{"id":"ED5554C57CF0061C","name":"麗晶花園 (WT692)","lat":"22.332530","long":"114.206872"},{"id":"4D9419874306D82F","name":"采頤花園 (WT695)","lat":"22.334909","long":"114.201967"},{"id":"D625B0997C3DBCFE","name":"譽．港灣 (WT698)","lat":"22.332000","long":"114.196917"},{"id":"E9468D2AE13C3F39","name":"九龍城轉車站-富豪東方酒店","lat":"22.327473","long":"114.191106"},{"id":"3B8776600A4384D1","name":"亞皆老街球場 (KC605)","lat":"22.326656","long":"114.188899"},{"id":"D7EDDEA5A942843B","name":"九龍城警署 (KC607)","lat":"22.324574","long":"114.185031"},{"id":"2F3C9727D9186DAB","name":"雅麗居 (KC609)","lat":"22.323194","long":"114.182168"},{"id":"8023E1026EA356F7","name":"九龍醫院 (KC611)","lat":"22.321728","long":"114.179086"},{"id":"8C44D48B9BAAB774","name":"怡安閣 (KC612)","lat":"22.320458","long":"114.176111"},{"id":"300D1812E3A085C3","name":"太平道 (KC615)","lat":"22.319953","long":"114.173591"},{"id":"3DE979ACCBF8988B","name":"旺角站 (MK623)","lat":"22.319464","long":"114.170905"},{"id":"5CA7841E84D52C8A","name":"旺角街市, 地區康健中心 (MK627)","lat":"22.318768","long":"114.166977"},{"id":"22138E6C8051FDBD","name":"銘基書院 (MK631)","lat":"22.318555","long":"114.164859"},{"id":"405DE12B9200AD9F","name":"奧運站 (MK130)","lat":"22.318140","long":"114.161440"},{"id":"145515B1D2C60CAF","name":"海富苑 柏景灣 (MK120)","lat":"22.316269","long":"114.163931"},{"id":"173B9ED2BF5D995C","name":"旺角(柏景灣)總站 (MK916)","lat":"22.315891","long":"114.163366"}],"routeId":"16","description":"正常班次"},{"company":"kmb","route":"16","routeType":"2","dir":"O","orig":"平田","dest":"旺角(柏景灣)","stopList":[{"id":"657899B3C4E4F4A5","name":"平田 (LT934)","lat":"22.308254","long":"114.235514"},{"id":"9D676B8892807F9D","name":"藍田(北) (LT941)","lat":"22.309550","long":"114.237168"},{"id":"1472CA699A47EE46","name":"康逸苑 (LT160)","lat":"22.310504","long":"114.235182"},{"id":"B7082198F517B1E8","name":"興田 (LT161)","lat":"22.313062","long":"114.239436"},{"id":"F36DEB05146E271D","name":"觀塘站 (KT622)","lat":"22.311374","long":"114.227319"},{"id":"015AD27DAC83E698","name":"觀塘轉車站 - 創紀之城 (KT636)","lat":"22.313853","long":"114.222017"},{"id":"7380707A36C032B9","name":"觀塘定富街 (KT646)","lat":"22.316142","long":"114.216218"},{"id":"52AE04E9C3E77BE1","name":"牛頭角下邨 (KT654)","lat":"22.320039","long":"114.214468"},{"id":"CC811B604DD883AE","name":"德福花園 (KT657)","lat":"22.322088","long":"114.214272"},{"id":"8570495BD7C63C02","name":"九龍灣站 (KT671)","lat":"22.324805","long":"114.214033"},{"id":"0A87C29A2B460C96","name":"啟業邨 (KT683)","lat":"22.330394","long":"114.209803"},{"id":"ED5554C57CF0061C","name":"麗晶花園 (WT692)","lat":"22.332530","long":"114.206872"},{"id":"4D9419874306D82F","name":"采頤花園 (WT695)","lat":"22.334909","long":"114.201967"},{"id":"D625B0997C3DBCFE","name":"譽．港灣 (WT698)","lat":"22.332000","long":"114.196917"},{"id":"E9468D2AE13C3F39","name":"九龍城轉車站-富豪東方酒店","lat":"22.327473","long":"114.191106"},{"id":"3B8776600A4384D1","name":"亞皆老街球場 (KC605)","lat":"22.326656","long":"114.188899"},{"id":"D7EDDEA5A942843B","name":"九龍城警署 (KC607)","lat":"22.324574","long":"114.185031"},{"id":"2F3C9727D9186DAB","name":"雅麗居 (KC609)","lat":"22.323194","long":"114.182168"},{"id":"8023E1026EA356F7","name":"九龍醫院 (KC611)","lat":"22.321728","long":"114.179086"},{"id":"8C44D48B9BAAB774","name":"怡安閣 (KC612)","lat":"22.320458","long":"114.176111"},{"id":"300D1812E3A085C3","name":"太平道 (KC615)","lat":"22.319953","long":"114.173591"},{"id":"3DE979ACCBF8988B","name":"旺角站 (MK623)","lat":"22.319464","long":"114.170905"},{"id":"5CA7841E84D52C8A","name":"旺角街市, 地區康健中心 (MK627)","lat":"22.318768","long":"114.166977"},{"id":"22138E6C8051FDBD","name":"銘基書院 (MK631)","lat":"22.318555","long":"114.164859"},{"id":"405DE12B9200AD9F","name":"奧運站 (MK130)","lat":"22.318140","long":"114.161440"},{"id":"145515B1D2C60CAF","name":"海富苑 柏景灣 (MK120)","lat":"22.316269","long":"114.163931"},{"id":"173B9ED2BF5D995C","name":"旺角(柏景灣)總站 (MK916)","lat":"22.315891","long":"114.163366"}],"routeId":"16","description":"特別班次"},{"company":"kmb","route":"16","routeType":"1","dir":"I","orig":"旺角(柏景灣)","dest":"藍田(廣田邨)","stopList":[{"id":"173B9ED2BF5D995C","name":"旺角(柏景灣)總站 (MK916)","lat":"22.315891","long":"114.163366"},{"id":"51288CE4C842111E","name":"奧運站 (MK920)","lat":"22.318468","long":"114.160788"},{"id":"B76B249D3D253008","name":"富貴街 (MK200)","lat":"22.318679","long":"114.161867"},{"id":"A7F35DC09E1A1528","name":"櫸樹街 (MK140)","lat":"22.319354","long":"114.162802"},{"id":"0F4DB224F8A8FF9C","name":"福全街 (MK145)","lat":"22.320536","long":"114.165325"},{"id":"D060669C0A3DD8D1","name":"西洋菜南街 旺角站 (MK343)","lat":"22.320065","long":"114.169913"},{"id":"D01D18C6EB79F84B","name":"嘉道理道 (KC375)","lat":"22.320407","long":"114.174387"},{"id":"A72D15160CC3AF31","name":"亞皆老街中電 (KC377)","lat":"22.320532","long":"114.175816"},{"id":"8D5C58075D3C1003","name":"九龍醫院 (KC380)","lat":"22.322801","long":"114.180560"},{"id":"B0DDF2CD704116C8","name":"醫院管理局 (KC381)","lat":"22.323790","long":"114.182797"},{"id":"6C1DEF32B8CB92C4","name":"香港眼科醫院 (KC382)","lat":"22.324908","long":"114.184866"},{"id":"161B32AD4C6996AD","name":"播道醫院 (KC384)","lat":"22.326104","long":"114.187300"},{"id":"6965D1D655C2DD5F","name":"亞皆老街球場 (KC385)","lat":"22.327009","long":"114.188955"},{"id":"EBE826ABDCE44F0C","name":"九龍城轉車站-富豪東方酒店","lat":"22.329172","long":"114.192566"},{"id":"0C063E408709A8D3","name":"景泰街 (WT299)","lat":"22.334190","long":"114.199070"},{"id":"811D4A91C1134CEA","name":"彩虹邨 (WT304)","lat":"22.335336","long":"114.204301"},{"id":"100E6F60BAC1BDEB","name":"坪石邨 (WT307)","lat":"22.333185","long":"114.207227"},{"id":"BA03816A38B9DA7F","name":"啟業邨 (KT315)","lat":"22.330268","long":"114.210894"},{"id":"4BD5CE5106BB0697","name":"九龍灣站(東九文化中心) (KT317)","lat":"22.325601","long":"114.214336"},{"id":"6465DE9EE57F6C94","name":"牛頭角下邨 (KT323)","lat":"22.321984","long":"114.214628"},{"id":"3E73B73B12E25DCF","name":"觀塘道休憩處 (KT330)","lat":"22.318039","long":"114.215032"},{"id":"38B86AC474D1060D","name":"創紀之城 (KT341)","lat":"22.314442","long":"114.221302"},{"id":"0B8C52E4C34E3B64","name":"觀塘轉車站-觀塘市中心 (KT348)","lat":"22.313264","long":"114.224346"},{"id":"2A5B424322D35B0A","name":"觀塘游泳池 (KT362)","lat":"22.310297","long":"114.229742"},{"id":"ED8812E232F6958A","name":"觀塘警署 (LT190)","lat":"22.310633","long":"114.231173"},{"id":"13A8D09F9E444BF3","name":"興田 (LT501)","lat":"22.312437","long":"114.238859"},{"id":"3144CE950CE29C80","name":"藍田公園 (LT510)","lat":"22.310965","long":"114.238451"},{"id":"543FD8B6C65D1C4C","name":"德樂樓 (LT511)","lat":"22.309193","long":"114.239257"},{"id":"316BB2C947568585","name":"德隆樓 (LT512)","lat":"22.306816","long":"114.239260"},{"id":"3E862B92873F5811","name":"廣靖樓 (LT513)","lat":"22.304406","long":"114.238410"},{"id":"57A0D4D6D4D57497","name":"廣田商場 (LT514)","lat":"22.302869","long":"114.239247"},{"id":"92AA28BBE48D6B2E","name":"藍田(廣田邨)總站 (LT924)","lat":"22.302425","long":"114.241092"}],"routeId":"16","description":"正常班次"},{"company":"gmb","route":"16","routeType":1,"orig":"扎山道(彩雲邨)","dest":"坪石邨(循環線)","stopList":[{"id":20012350,"name":"牛池灣街彩雲邨豐澤樓對面","lat":"22.334732","long":"114.218265"},{"id":20000566,"name":"清水灣道, 彩雲商場\t","lat":"22.333474","long":"114.214790"},{"id":20012351,"name":"清水灣道坪石邨紅石樓外","lat":"22.333880","long":"114.208649"},{"id":20000568,"name":"清水灣道, 彩雲商場\t","lat":"22.333745","long":"114.215042"},{"id":20012352,"name":"牛池灣街彩雲邨玉宇樓對面","lat":"22.334988","long":"114.216014"},{"id":20020196,"name":" 牛池灣街基督教勵行會對面","lat":"22.334975","long":"114.217148"},{"id":20012353,"name":"牛池灣街彩雲邨豐澤樓對面","lat":"22.334797","long":"114.218228"}],"routeId":2004629,"description":"正常班次"},{"company":"gmb","route":"16","routeType":1,"orig":"寶琳","dest":"布袋澳","stopList":[{"id":20001149,"name":"寶琳公共運輸交匯處","lat":"22.323398","long":"114.257931"},{"id":20014683,"name":"寶琳北路, 景林邨景棉樓對面","lat":"22.322111","long":"114.261492"},{"id":20001162,"name":"重華路, 東港城第6座對面","lat":"22.317100","long":"114.265750"},{"id":20001163,"name":"培成路, 保良局馮晴紀念小學外","lat":"22.315376","long":"114.263799"},{"id":20001140,"name":"寶寧路, 將軍澳醫院外","lat":"22.317631","long":"114.269051"},{"id":20012485,"name":"坑口道, 近雅景別墅","lat":"22.321634","long":"114.268960"},{"id":20014716,"name":"清水灣道,近清雅苑","lat":"22.322509","long":"114.269449"},{"id":20014717,"name":"清水灣道, 金碧苑(第一期)外","lat":"22.320284","long":"114.272004"},{"id":20014718,"name":"清水灣道, 近孟公屋路","lat":"22.317436","long":"114.274587"},{"id":20014719,"name":"清水灣道, 近孟公屋","lat":"22.315688","long":"114.277914"},{"id":20014720,"name":"清水灣道, 近五塊田","lat":"22.316158","long":"114.282121"},{"id":20014721,"name":"清水灣道, 近檳榔灣","lat":"22.312229","long":"114.283439"},{"id":20014722,"name":"清水灣道, 近上洋","lat":"22.310168","long":"114.284498"},{"id":20014723,"name":"清水灣道, 近香港三育書院","lat":"22.307695","long":"114.285223"},{"id":20014724,"name":"清水灣道, 近下洋","lat":"22.304660","long":"114.285175"},{"id":20014725,"name":"清水灣道, 近兩塊田","lat":"22.301771","long":"114.286237"},{"id":20014726,"name":"清水灣道, 近下洋新村","lat":"22.299163","long":"114.288504"},{"id":20014727,"name":"清水灣道, 近相思灣","lat":"22.298010","long":"114.289767"},{"id":20014728,"name":"清水灣道, 近大坳門","lat":"22.296359","long":"114.291482"},{"id":20014729,"name":"大坳門路, 近清水灣花園","lat":"22.294992","long":"114.290706"},{"id":20014730,"name":"大坳門路, 近清水灣第一灘","lat":"22.291665","long":"114.289647"},{"id":20014731,"name":"清水灣第二灣泳灘","lat":"22.286949","long":"114.287132"},{"id":20014732,"name":"布袋澳村路, 近曉岸","lat":"22.277698","long":"114.290889"},{"id":20014733,"name":"布袋澳村路, 近大廟坳","lat":"22.272793","long":"114.291500"},{"id":20014734,"name":"布袋澳村道, 近布袋澳","lat":"22.274285","long":"114.295614"}],"routeId":2006641,"description":"正常班次"},{"company":"gmb","route":"16","routeType":2,"orig":"布袋澳","dest":"寶琳","stopList":[{"id":20014734,"name":"布袋澳村道, 近布袋澳","lat":"22.274285","long":"114.295614"},{"id":20014749,"name":"布袋澳村路, 近大廟坳","lat":"22.272739","long":"114.291463"},{"id":20014750,"name":"布袋澳村路, 近曉岸","lat":"22.277555","long":"114.290945"},{"id":20014751,"name":"清水灣第二灣泳灘","lat":"22.286958","long":"114.286725"},{"id":20014752,"name":"大坳門路, 近清水灣第一灘","lat":"22.292090","long":"114.289470"},{"id":20014753,"name":"大坳門路, 近清水灣花園","lat":"22.295445","long":"114.290883"},{"id":20014754,"name":"大坳門路, 近大環頭路","lat":"22.295923","long":"114.291277"},{"id":20014755,"name":"清水灣道, 近相思灣路","lat":"22.298234","long":"114.289352"},{"id":20014756,"name":"清水灣道, 近兩塊田","lat":"22.301848","long":"114.286080"},{"id":20014757,"name":"清水灣道, 近下洋路","lat":"22.304053","long":"114.285188"},{"id":20014758,"name":"清水灣道, 近上洋","lat":"22.309780","long":"114.284547"},{"id":20014759,"name":"清水灣道, 近檳榔灣","lat":"22.313033","long":"114.282906"},{"id":20014760,"name":"清水灣道, 近釣魚翁郊遊徑","lat":"22.316282","long":"114.281935"},{"id":20014761,"name":"清水灣道, 近圍心村","lat":"22.315191","long":"114.277206"},{"id":20014762,"name":"清水灣道, 近孟公屋路","lat":"22.317724","long":"114.274175"},{"id":20014763,"name":"清水灣道, 近銀線灣廣場","lat":"22.320727","long":"114.271083"},{"id":20014764,"name":"清水灣道, 近清雅苑","lat":"22.322274","long":"114.269478"},{"id":20014765,"name":"坑口道, 近雅景別墅","lat":"22.321688","long":"114.269079"},{"id":20001172,"name":"寶寧路, 將軍澳醫院對面","lat":"22.317469","long":"114.268857"},{"id":20001162,"name":"重華路, 東港城第6座對面","lat":"22.317100","long":"114.265750"},{"id":20001163,"name":"培成路, 保良局馮晴紀念小學外","lat":"22.315376","long":"114.263799"},{"id":20001164,"name":"寶寧路, 厚德邨外","lat":"22.319169","long":"114.264073"},{"id":20014673,"name":"寶琳北路, 景林邨景棉樓外","lat":"22.321941","long":"114.261328"},{"id":20001149,"name":"寶琳公共運輸交匯處","lat":"22.323398","long":"114.257931"}],"routeId":2006641,"description":"正常班次"},{"company":"gmb","route":"16","routeType":1,"orig":"坑口(重華路)","dest":"大坳門","stopList":[{"id":20001162,"name":"重華路, 東港城第6座對面","lat":"22.317100","long":"114.265750"},{"id":20001163,"name":"培成路, 保良局馮晴紀念小學外","lat":"22.315376","long":"114.263799"},{"id":20001140,"name":"寶寧路, 將軍澳醫院外","lat":"22.317631","long":"114.269051"},{"id":20012485,"name":"坑口道, 近雅景別墅","lat":"22.321634","long":"114.268960"},{"id":20014716,"name":"清水灣道,近清雅苑","lat":"22.322509","long":"114.269449"},{"id":20014717,"name":"清水灣道, 金碧苑(第一期)外","lat":"22.320284","long":"114.272004"},{"id":20014718,"name":"清水灣道, 近孟公屋路","lat":"22.317436","long":"114.274587"},{"id":20014719,"name":"清水灣道, 近孟公屋","lat":"22.315688","long":"114.277914"},{"id":20014720,"name":"清水灣道, 近五塊田","lat":"22.316158","long":"114.282121"},{"id":20014721,"name":"清水灣道, 近檳榔灣","lat":"22.312229","long":"114.283439"},{"id":20014722,"name":"清水灣道, 近上洋","lat":"22.310168","long":"114.284498"},{"id":20014723,"name":"清水灣道, 近香港三育書院","lat":"22.307695","long":"114.285223"},{"id":20014724,"name":"清水灣道, 近下洋","lat":"22.304660","long":"114.285175"},{"id":20014725,"name":"清水灣道, 近兩塊田","lat":"22.301771","long":"114.286237"},{"id":20014726,"name":"清水灣道, 近下洋新村","lat":"22.299163","long":"114.288504"},{"id":20014727,"name":"清水灣道, 近相思灣","lat":"22.298010","long":"114.289767"},{"id":20014728,"name":"清水灣道, 近大坳門","lat":"22.296359","long":"114.291482"}],"routeId":2006672,"description":"特別班次"},{"company":"gmb","route":"16","routeType":2,"orig":"大坳門","dest":"坑口(重華路)","stopList":[{"id":20014728,"name":"清水灣道, 近大坳門","lat":"22.296359","long":"114.291482"},{"id":20014755,"name":"清水灣道, 近相思灣路","lat":"22.298234","long":"114.289352"},{"id":20014756,"name":"清水灣道, 近兩塊田","lat":"22.301848","long":"114.286080"},{"id":20014757,"name":"清水灣道, 近下洋路","lat":"22.304053","long":"114.285188"},{"id":20014758,"name":"清水灣道, 近上洋","lat":"22.309780","long":"114.284547"},{"id":20014759,"name":"清水灣道, 近檳榔灣","lat":"22.313033","long":"114.282906"},{"id":20014760,"name":"清水灣道, 近釣魚翁郊遊徑","lat":"22.316282","long":"114.281935"},{"id":20014761,"name":"清水灣道, 近圍心村","lat":"22.315191","long":"114.277206"},{"id":20014762,"name":"清水灣道, 近孟公屋路","lat":"22.317724","long":"114.274175"},{"id":20014763,"name":"清水灣道, 近銀線灣廣場","lat":"22.320727","long":"114.271083"},{"id":20014764,"name":"清水灣道, 近清雅苑","lat":"22.322274","long":"114.269478"},{"id":20014765,"name":"坑口道, 近雅景別墅","lat":"22.321688","long":"114.269079"},{"id":20001172,"name":"寶寧路, 將軍澳醫院對面","lat":"22.317469","long":"114.268857"},{"id":20001162,"name":"重華路, 東港城第6座對面","lat":"22.317100","long":"114.265750"}],"routeId":2006672,"description":"特別班次"}]