[{"company":"kmb","route":"16M","routeType":"1","dir":"O","orig":"觀塘(裕民坊)","dest":"藍田(康華苑)(循環線)","stopList":[{"id":"0BA94B06D53CEB12","name":"觀塘(裕民坊)總站","lat":"22.314833","long":"114.224871"},{"id":"0B8C52E4C34E3B64","name":"觀塘轉車站 - 觀塘市中心 (T5)","lat":"22.313264","long":"114.224346"},{"id":"2A5B424322D35B0A","name":"觀塘游泳池 (R1)","lat":"22.310297","long":"114.229742"},{"id":"ED8812E232F6958A","name":"觀塘警署 (Q1)","lat":"22.310633","long":"114.231173"},{"id":"13A8D09F9E444BF3","name":"興田","lat":"22.312437","long":"114.238859"},{"id":"DA29C9192B8D12DC","name":"康逸苑","lat":"22.310454","long":"114.235354"},{"id":"9D676B8892807F9D","name":"藍田(北)","lat":"22.309550","long":"114.237168"},{"id":"6491C7B3E4DAD76D","name":"啟旺樓","lat":"22.309732","long":"114.234902"},{"id":"1107CC28F2631CCB","name":"啟田商場","lat":"22.308382","long":"114.234675"},{"id":"3EF537320681EE89","name":"基孝中學","lat":"22.305787","long":"114.235572"},{"id":"2EF9764BE18FC290","name":"藍田站","lat":"22.305354","long":"114.234128"},{"id":"5B04604E989BBDF0","name":"觀塘法院 (F1)","lat":"22.310012","long":"114.229524"},{"id":"70F41B968EA8E456","name":"觀塘站 (E2)","lat":"22.311280","long":"114.227470"},{"id":"45C2286729E1475B","name":"裕民坊","lat":"22.313405","long":"114.225071"},{"id":"8B8DDE8FC3A125B8","name":"觀塘(裕民坊)總站","lat":"22.314833","long":"114.224871"}],"routeId":"16M","description":"正常班次"},{"company":"gmb","route":"16M","routeType":1,"orig":"柴灣站","dest":"舂坎角","stopList":[{"id":20000102,"name":"港鐵柴灣站巴士總站","lat":22.265241242808457,"long":114.2372319066943},{"id":20000394,"name":"環翠道東","lat":22.262117059014184,"long":114.23608572866875},{"id":20002622,"name":"歌連臣角道","lat":22.258604744403144,"long":114.23438644063266},{"id":20002623,"name":"大潭峽","lat":22.257115417853896,"long":114.23228057013061},{"id":20003089,"name":"石澳道","lat":22.256818454601802,"long":114.22911771646763},{"id":20003439,"name":"大潭道, 大潭水塘大霸北面","lat":22.24621878746544,"long":114.22126573938557},{"id":20003438,"name":"大潭道, 近大潭水塘道","lat":22.23980695397853,"long":114.22145772658918},{"id":20003437,"name":"大潭道, 紅山半島外","lat":22.235525977147653,"long":114.22300839981897},{"id":20002413,"name":"大潭道","lat":22.22849247109166,"long":114.2177779588889},{"id":20000099,"name":"赤柱灘道大潭村外","lat":22.219697652629254,"long":114.2132265305339},{"id":20000246,"name":"佳美道, 赤柱廣場","lat":22.22009428214013,"long":114.20946047819598},{"id":20000247,"name":"環角道, 龍欣苑龍駿閣外","lat":22.222188414165704,"long":114.20598194614286},{"id":20009504,"name":"環角道，馬坑邨觀馬樓對出","lat":22.220497560297808,"long":114.20678079128267},{"id":20000101,"name":"舂磡角道, 海暉花園外","lat":22.216141164838984,"long":114.20512707417402}],"routeId":2002289,"description":"正常班次"},{"company":"gmb","route":"16M","routeType":2,"orig":"舂坎角","dest":"柴灣站","stopList":[{"id":20000101,"name":"舂磡角道, 海暉花園外","lat":22.216141164838984,"long":114.20512707417402},{"id":20009505,"name":"環角道，馬坑邨觀馬樓","lat":22.220408171703784,"long":114.20665740966798},{"id":20009506,"name":"環角道, 龍欣苑龍駿閣對出","lat":22.22229525215026,"long":114.20531630516052},{"id":20000246,"name":"赤柱廣場（馬坑）","lat":22.22009428214013,"long":114.20946047819598},{"id":20000099,"name":"赤柱灘道大潭村外","lat":22.219697652629254,"long":114.2132265305339},{"id":20003129,"name":"赤柱村道","lat":22.22404139362878,"long":114.21334404433364},{"id":20003065,"name":"大潭道","lat":22.228600861362377,"long":114.21769069302738},{"id":20003441,"name":"大潭道, 紅山半島對面","lat":22.235607319256548,"long":114.2227756219954},{"id":20003442,"name":"大潭道, 近大潭水塘道","lat":22.240095967647203,"long":114.22134141218028},{"id":20004002,"name":"大潭道, 大潭水塘大霸北面","lat":22.246435547459082,"long":114.22117849937611},{"id":20003351,"name":"大潭峽","lat":22.25764968540803,"long":114.22782769857106},{"id":20003467,"name":"山翠苑","lat":22.269378794094358,"long":114.23301309016384},{"id":20003464,"name":"柴灣道, 循道衛理聯合教會興華村服務中心對面","lat":22.26812331487225,"long":114.2336432465133},{"id":20000102,"name":"港鐵柴灣站巴士總站","lat":22.265241242808457,"long":114.2372319066943}],"routeId":2002289,"description":"正常班次"}]