[{"company":"kmb","route":"16M","routeType":"1","dir":"O","orig":"觀塘(裕民坊)","dest":"藍田(康華苑)(循環線)","stopList":[{"id":"0BA94B06D53CEB12","name":"觀塘(裕民坊)總站 (KT921)","lat":"22.314833","long":"114.224871"},{"id":"0B8C52E4C34E3B64","name":"觀塘轉車站-觀塘市中心 (KT348)","lat":"22.313264","long":"114.224346"},{"id":"2A5B424322D35B0A","name":"觀塘游泳池 (KT362)","lat":"22.310297","long":"114.229742"},{"id":"ED8812E232F6958A","name":"觀塘警署 (LT190)","lat":"22.310633","long":"114.231173"},{"id":"13A8D09F9E444BF3","name":"興田 (LT501)","lat":"22.312437","long":"114.238859"},{"id":"DA29C9192B8D12DC","name":"康逸苑 (LT502)","lat":"22.310454","long":"114.235354"},{"id":"9D676B8892807F9D","name":"藍田(北) (LT941)","lat":"22.309550","long":"114.237168"},{"id":"6491C7B3E4DAD76D","name":"啟旺樓 (LT520)","lat":"22.309732","long":"114.234902"},{"id":"1107CC28F2631CCB","name":"啟田商場 (LT532)","lat":"22.308382","long":"114.234675"},{"id":"3EF537320681EE89","name":"基孝中學 (LT534)","lat":"22.305787","long":"114.235572"},{"id":"6C6B36F7550907CE","name":"藍田站 (LT608)","lat":"22.305444","long":"114.234043"},{"id":"5B04604E989BBDF0","name":"觀塘法院 (KT612)","lat":"22.310012","long":"114.229524"},{"id":"70F41B968EA8E456","name":"觀塘站 (KT621)","lat":"22.311280","long":"114.227470"},{"id":"45C2286729E1475B","name":"裕民坊 (KT556)","lat":"22.313405","long":"114.225071"},{"id":"8B8DDE8FC3A125B8","name":"觀塘(裕民坊)總站 (KT920)","lat":"22.314833","long":"114.224871"}],"routeId":"16M","description":"正常班次"},{"company":"gmb","route":"16M","routeType":1,"orig":"柴灣站","dest":"舂坎角","stopList":[{"id":20000102,"name":"港鐵柴灣站巴士總站","lat":"22.265241","long":"114.237232"},{"id":20000394,"name":"環翠道東","lat":"22.262117","long":"114.236086"},{"id":20002622,"name":"歌連臣角道","lat":"22.258605","long":"114.234386"},{"id":20002623,"name":"大潭峽","lat":"22.257115","long":"114.232281"},{"id":20003089,"name":"石澳道","lat":"22.256818","long":"114.229118"},{"id":20003439,"name":"大潭道, 大潭水塘大霸北面","lat":"22.246219","long":"114.221266"},{"id":20003438,"name":"大潭道, 近大潭水塘道","lat":"22.239807","long":"114.221458"},{"id":20003437,"name":"大潭道, 紅山半島外","lat":"22.235526","long":"114.223008"},{"id":20002413,"name":"大潭道, 美國會外","lat":"22.228492","long":"114.217778"},{"id":20000099,"name":"赤柱灘道大潭村外","lat":"22.219698","long":"114.213227"},{"id":20000246,"name":"佳美道, 赤柱廣場","lat":"22.220094","long":"114.209460"},{"id":20000247,"name":"環角道, 龍欣苑龍駿閣外","lat":"22.222188","long":"114.205982"},{"id":20009504,"name":"環角道，馬坑邨觀馬樓對出","lat":"22.220498","long":"114.206781"},{"id":20000101,"name":"舂磡角道, 南埼外","lat":"22.216141","long":"114.205127"}],"routeId":2002289,"description":"正常班次"},{"company":"gmb","route":"16M","routeType":2,"orig":"舂坎角","dest":"柴灣站","stopList":[{"id":20000101,"name":"舂磡角道, 南埼外","lat":"22.216141","long":"114.205127"},{"id":20009505,"name":"環角道, 馬坑邨觀馬樓對面","lat":"22.220408","long":"114.206657"},{"id":20009506,"name":"環角道, 龍欣苑龍駿閣對面","lat":"22.222295","long":"114.205316"},{"id":20000246,"name":"赤柱廣場（馬坑）","lat":"22.220094","long":"114.209460"},{"id":20000099,"name":"赤柱灘道大潭村外","lat":"22.219698","long":"114.213227"},{"id":20003129,"name":"赤柱村道","lat":"22.224041","long":"114.213344"},{"id":20003065,"name":"大潭道, 曼克頓花園外","lat":"22.228601","long":"114.217691"},{"id":20003441,"name":"大潭道, 紅山半島對面","lat":"22.235607","long":"114.222776"},{"id":20003442,"name":"大潭道, 近大潭水塘道","lat":"22.240096","long":"114.221341"},{"id":20004002,"name":"大潭道, 大潭水塘大霸北面","lat":"22.246436","long":"114.221178"},{"id":20003351,"name":"大潭峽","lat":"22.257650","long":"114.227828"},{"id":20003467,"name":"山翠苑","lat":"22.269379","long":"114.233013"},{"id":20003464,"name":"柴灣道, 循道衛理聯合教會興華村服務中心對面","lat":"22.268123","long":"114.233643"},{"id":20000102,"name":"港鐵柴灣站巴士總站","lat":"22.265241","long":"114.237232"}],"routeId":2002289,"description":"正常班次"}]