[{"company":"kmb","route":"16X","routeType":"1","dir":"O","orig":"藍田(廣田邨)","dest":"旺角(柏景灣)","stopList":[{"id":"92AA28BBE48D6B2E","name":"藍田(廣田邨)總站 (LT924)","lat":"22.302425","long":"114.241092"},{"id":"ECBD286CC9ED9549","name":"龍栢閣 (LT121)","lat":"22.303423","long":"114.238414"},{"id":"DEB36380E32DCD53","name":"康雅苑 (LT123)","lat":"22.304873","long":"114.238168"},{"id":"FA246A7F26F12EDD","name":"德康樓 (LT125)","lat":"22.307497","long":"114.239194"},{"id":"5ACB622335DF5AE7","name":"德敬樓 (LT127)","lat":"22.310818","long":"114.238251"},{"id":"B7082198F517B1E8","name":"興田 (LT161)","lat":"22.313062","long":"114.239436"},{"id":"4D9419874306D82F","name":"采頤花園 (WT695)","lat":"22.334909","long":"114.201967"},{"id":"D625B0997C3DBCFE","name":"譽．港灣 (WT698)","lat":"22.332000","long":"114.196917"},{"id":"D7EDDEA5A942843B","name":"九龍城警署 (KC607)","lat":"22.324574","long":"114.185031"},{"id":"2F3C9727D9186DAB","name":"雅麗居 (KC609)","lat":"22.323194","long":"114.182168"},{"id":"300D1812E3A085C3","name":"太平道 (KC615)","lat":"22.319953","long":"114.173591"},{"id":"3DE979ACCBF8988B","name":"旺角站 (MK623)","lat":"22.319464","long":"114.170905"},{"id":"5CA7841E84D52C8A","name":"旺角街市 (MK627)","lat":"22.318768","long":"114.166977"},{"id":"22138E6C8051FDBD","name":"銘基書院 (MK631)","lat":"22.318555","long":"114.164859"},{"id":"405DE12B9200AD9F","name":"奧運站 (MK130)","lat":"22.318140","long":"114.161440"},{"id":"145515B1D2C60CAF","name":"海富苑 柏景灣 (MK120)","lat":"22.316269","long":"114.163931"},{"id":"173B9ED2BF5D995C","name":"旺角(柏景灣)總站 (MK916)","lat":"22.315891","long":"114.163366"}],"routeId":"16X","description":"正常班次"},{"company":"kmb","route":"16X","routeType":"1","dir":"I","orig":"旺角(柏景灣)","dest":"藍田(廣田邨)","stopList":[{"id":"173B9ED2BF5D995C","name":"旺角(柏景灣)總站 (MK916)","lat":"22.315891","long":"114.163366"},{"id":"51288CE4C842111E","name":"奧運站 (MK920)","lat":"22.318468","long":"114.160788"},{"id":"B76B249D3D253008","name":"富貴街 (MK200)","lat":"22.318679","long":"114.161867"},{"id":"A7F35DC09E1A1528","name":"櫸樹街 (MK140)","lat":"22.319354","long":"114.162802"},{"id":"0F4DB224F8A8FF9C","name":"福全街 (MK145)","lat":"22.320536","long":"114.165325"},{"id":"D060669C0A3DD8D1","name":"西洋菜南街 旺角站 (MK343)","lat":"22.320065","long":"114.169913"},{"id":"D01D18C6EB79F84B","name":"嘉道理道 (KC375)","lat":"22.320407","long":"114.174387"},{"id":"B0DDF2CD704116C8","name":"醫院管理局 (KC381)","lat":"22.323790","long":"114.182797"},{"id":"6C1DEF32B8CB92C4","name":"香港眼科醫院 (KC382)","lat":"22.324908","long":"114.184866"},{"id":"B5AF3107F64607ED","name":"播道醫院 (KC383)","lat":"22.325891","long":"114.187110"},{"id":"EBE826ABDCE44F0C","name":"九龍城轉車站- 富豪東方酒店(A7)","lat":"22.329172","long":"114.192566"},{"id":"0C063E408709A8D3","name":"景泰街 (WT299)","lat":"22.334190","long":"114.199070"},{"id":"13A8D09F9E444BF3","name":"興田 (LT501)","lat":"22.312437","long":"114.238859"},{"id":"3144CE950CE29C80","name":"藍田公園 (LT510)","lat":"22.310965","long":"114.238451"},{"id":"543FD8B6C65D1C4C","name":"德樂樓 (LT511)","lat":"22.309193","long":"114.239257"},{"id":"316BB2C947568585","name":"德隆樓 (LT512)","lat":"22.306816","long":"114.239260"},{"id":"3E862B92873F5811","name":"廣靖樓 (LT513)","lat":"22.304406","long":"114.238410"},{"id":"57A0D4D6D4D57497","name":"廣田商場 (LT514)","lat":"22.302869","long":"114.239247"},{"id":"92AA28BBE48D6B2E","name":"藍田(廣田邨)總站 (LT924)","lat":"22.302425","long":"114.241092"}],"routeId":"16X","description":"正常班次"},{"company":"gmb","route":"16X","routeType":1,"orig":"柴灣站","dest":"赤柱灘道","stopList":[{"id":20000102,"name":"港鐵柴灣站巴士總站","lat":22.265241242808457,"long":114.2372319066943},{"id":20000394,"name":"環翠道, 福翠樓外","lat":22.262117059014184,"long":114.23608572866875},{"id":20002622,"name":"西灣國殤紀念墳場","lat":22.258604744403144,"long":114.23438644063266},{"id":20002623,"name":"大潭峽","lat":22.257115417853896,"long":114.23228057013061},{"id":20003089,"name":"石澳道","lat":22.256818454601802,"long":114.22911771646763},{"id":20003439,"name":"大潭道, 大潭水塘大霸北面","lat":22.24621878746544,"long":114.22126573938557},{"id":20003438,"name":"大潭道, 近大潭水塘道","lat":22.23980695397853,"long":114.22145772658918},{"id":20003437,"name":"大潭道, 紅山半島外","lat":22.235525977147653,"long":114.22300839981897},{"id":20002413,"name":"大潭道, 美國會外","lat":22.22849247109166,"long":114.2177779588889},{"id":20000099,"name":"赤柱灘道大潭村外","lat":22.219697652629254,"long":114.2132265305339}],"routeId":2002291,"description":"短程班次"},{"company":"gmb","route":"16X","routeType":2,"orig":"赤柱灘道","dest":"柴灣站","stopList":[{"id":20000099,"name":"赤柱灘道大潭村外","lat":22.219697652629254,"long":114.2132265305339},{"id":20003129,"name":"赤柱村道","lat":22.22404139362878,"long":114.21334404433364},{"id":20003065,"name":"大潭道, 曼克頓花園外","lat":22.228600861362377,"long":114.21769069302738},{"id":20003441,"name":"大潭道, 紅山半島對面","lat":22.235607319256548,"long":114.2227756219954},{"id":20003442,"name":"大潭道, 近大潭水塘道","lat":22.240095967647203,"long":114.22134141218028},{"id":20004002,"name":"大潭道, 大潭水塘大霸北面","lat":22.246435547459082,"long":114.22117849937611},{"id":20003351,"name":"大潭峽","lat":22.25764968540803,"long":114.22782769857106},{"id":20003467,"name":"大潭道, 山翠苑對面","lat":22.269378794094358,"long":114.23301309016384},{"id":20003464,"name":"柴灣道, 循道衛理聯合教會興華村服務中心對面","lat":22.26812331487225,"long":114.2336432465133},{"id":20000102,"name":"港鐵柴灣站巴士總站","lat":22.265241242808457,"long":114.2372319066943}],"routeId":2002291,"description":"短程班次"}]