[{"company":"kmb","route":"182X","routeType":"1","dir":"O","orig":"中環(港澳碼頭)","dest":"愉翠苑","stopList":[{"id":"59013D693D2493FE","name":"中環(港澳碼頭)","lat":"22.288344","long":"114.150464"},{"id":"C78818C8285315B3","name":"林士街","lat":"22.286117","long":"114.153702"},{"id":"5298A15B8CCAEF42","name":"德忌利士街","lat":"22.283274","long":"114.156906"},{"id":"A9069A17B1474D76","name":"皇后像廣場","lat":"22.280854","long":"114.159427"},{"id":"3007D34FB91FB27E","name":"金鐘站","lat":"22.278270","long":"114.165080"},{"id":"1AB934EFE0E1470A","name":"軍器廠街","lat":"22.277881","long":"114.169013"},{"id":"048A87496B30B946","name":"柯布連道","lat":"22.277682","long":"114.172615"},{"id":"FD9F24DFA3090351","name":"莊士敦道","lat":"22.277097","long":"114.174925"},{"id":"64FBF17E3209D217","name":"克街","lat":"22.277088","long":"114.176836"},{"id":"4A626ACD36F8ED7A","name":"堅拿道西","lat":"22.277431","long":"114.180935"},{"id":"B8E2647E9C5019C9","name":"世界花園","lat":"22.366222","long":"114.180516"},{"id":"AAECA769A84E2372","name":"大圍轉車站 - 新翠邨 (C2)","lat":"22.370131","long":"114.179670"},{"id":"A66159E033DDEA04","name":"大圍轉車站 - 大圍站 (F1)","lat":"22.372606","long":"114.180304"},{"id":"C92E80A5D7E0E8EC","name":"車公廟","lat":"22.374668","long":"114.184164"},{"id":"07ADFF84F3502690","name":"秦石邨","lat":"22.374569","long":"114.186827"},{"id":"B9EE83CA8ABB578B","name":"乙明邨街","lat":"22.376165","long":"114.191545"},{"id":"B3E11B99D4E4F4AE","name":"博康巴士總站","lat":"22.377442","long":"114.195847"},{"id":"8EE5AC5D519C140E","name":"城泉樓","lat":"22.372763","long":"114.196688"},{"id":"944A9ADFCA286511","name":"水泉澳總站","lat":"22.374466","long":"114.197641"},{"id":"808CA5FECCC6646D","name":"多石街","lat":"22.377451","long":"114.201727"},{"id":"EF15FBC5E8A02ADA","name":"愉翠苑巴士總站","lat":"22.382005","long":"114.205328"}],"routeId":"182X","description":"正常班次"},{"company":"ctb","route":"182X","routeType":null,"dir":"O","orig":"中環 (港澳碼頭)","dest":"沙田 (愉翠苑)","stopList":[{"id":"001027","name":"中環 (港澳碼頭)","lat":"22.288274152091","long":"114.15042248053"},{"id":"001044","name":"林士街, 德輔道中","lat":"22.286050072091","long":"114.15372775053"},{"id":"001047","name":"德忌利士街, 德輔道中","lat":"22.283301982091","long":"114.15683404053"},{"id":"001051","name":"皇后像廣場, 德輔道中","lat":"22.280748762091","long":"114.15964401053"},{"id":"001137","name":"金鐘站 - 統一中心, 金鐘道","lat":"22.278348592091","long":"114.16493918053"},{"id":"002427","name":"軍器廠街, 軒尼詩道","lat":"22.277848662091","long":"114.16894462053"},{"id":"002431","name":"柯布連道, 軒尼詩道","lat":"22.277694092091","long":"114.17312989053"},{"id":"002413","name":"大有廣場, 菲林明道","lat":"22.276992282091","long":"114.17491050053"},{"id":"002539","name":"克街, 灣仔道","lat":"22.277181682091","long":"114.17717573053"},{"id":"002405","name":"堅拿道西","lat":"22.277412402091","long":"114.18097147053"},{"id":"001924","name":"世界花園, 紅梅谷路","lat":"22.366204882091","long":"114.18058072053"},{"id":"001925","name":"新翠邨, 紅梅谷路","lat":"22.370341312091","long":"114.17955538053"},{"id":"001908","name":"大圍站, 車公廟路","lat":"22.372602942091","long":"114.18037944053"},{"id":"001909","name":"車公廟, 車公廟路","lat":"22.374610892091","long":"114.18401355053"},{"id":"001910","name":"秦石邨, 車公廟路","lat":"22.374475262091","long":"114.18663344053"},{"id":"001928","name":"乙明邨,  乙明邨街","lat":"22.376165782091","long":"114.19165496053"},{"id":"003442","name":"博康邨, 逸泰街","lat":"22.376978192091","long":"114.19516872053"},{"id":"003447","name":"水泉澳邨城泉樓, 博泉街","lat":"22.372683192091","long":"114.19665598053"},{"id":"003391","name":"水泉澳邨","lat":"22.374454022091","long":"114.19741724053"},{"id":"003613","name":"多石街","lat":"22.377453312091","long":"114.20154900053"},{"id":"002052","name":"愉翠苑","lat":"22.382175142091","long":"114.20517003053"}],"routeId":"182X","description":"正常班次"}]