[{"company":"gmb","route":"18M","routeType":1,"orig":"柴灣站","dest":"歌連臣角(懲教所)","stopList":[{"id":20000103,"name":"港鐵柴灣站巴士總站","lat":"22.264889","long":"114.237144"},{"id":20003431,"name":"環翠道, 澤翠樓外","lat":"22.262469","long":"114.236639"},{"id":20009700,"name":"歌連臣角道,近連城道","lat":"22.259495","long":"114.238631"},{"id":20003432,"name":"歌連臣角道,  柴灣華人永遠墳場第一靈灰閣","lat":"22.260653","long":"114.240150"},{"id":20003433,"name":"歌連臣角道,  柴灣華人永遠墳場第二靈灰閣","lat":"22.260162","long":"114.246670"},{"id":20000104,"name":"歌連臣角懲教所","lat":"22.251246","long":"114.253563"}],"routeId":2002317,"description":"正常班次 "},{"company":"gmb","route":"18M","routeType":2,"orig":"歌連臣角(懲教所)","dest":"柴灣站","stopList":[{"id":20000104,"name":"歌連臣角懲教所","lat":"22.251246","long":"114.253563"},{"id":20003434,"name":"歌連臣角道,  柴灣華人永遠墳場第二靈灰閣","lat":"22.260541","long":"114.246718"},{"id":20003435,"name":"歌連臣角道,  柴灣華人永遠墳場第一靈灰閣","lat":"22.260788","long":"114.240664"},{"id":20003436,"name":"環翠道, 澤翠樓對面","lat":"22.262713","long":"114.236707"},{"id":20000103,"name":"港鐵柴灣站巴士總站","lat":"22.264889","long":"114.237144"}],"routeId":2002317,"description":"正常班次 "},{"company":"gmb","route":"18M","routeType":1,"orig":"黃大仙公共小型巴士(專綫)服務總站","dest":"慈雲山(北)","stopList":[{"id":20019006,"name":"黃大仙公共小型巴士(專線)服務總站","lat":"22.342972","long":"114.195181"},{"id":20000580,"name":"雅竹街, 竹園南邨雅園樓外","lat":"22.344378","long":"114.194494"},{"id":20000581,"name":"沙田坳道, 鑽石山廣蔭老人院對面","lat":"22.346193","long":"114.195853"},{"id":20000582,"name":"慈雲山道, 沙田坳邨和田樓外","lat":"22.349363","long":"114.195058"}],"routeId":2002085,"description":"正常班次"},{"company":"gmb","route":"18M","routeType":2,"orig":"慈雲山(北)","dest":"黃大仙公共小型巴士(專綫)服務總站","stopList":[{"id":20000582,"name":"慈雲山道, 沙田坳邨和田樓外","lat":"22.349363","long":"114.195058"},{"id":20000583,"name":"沙田坳道, 東華三院黃大仙醫院外","lat":"22.347042","long":"114.195892"},{"id":20000584,"name":"沙田坳道, 鑽石山廣蔭老人院外","lat":"22.346021","long":"114.196008"},{"id":20000585,"name":"雅竹街, 竹園南邨趣園樓外","lat":"22.344242","long":"114.194445"},{"id":20019006,"name":"黃大仙公共小型巴士(專線)服務總站","lat":"22.342972","long":"114.195181"}],"routeId":2002085,"description":"正常班次"}]