[{"company":"ctb","route":"19P","routeType":null,"dir":"O","orig":"筲箕灣","dest":"跑馬地 (上)","stopList":[{"id":"001207","name":"筲箕灣","lat":"22.278421122091","long":"114.22833128053"},{"id":"001301","name":"新成街, 筲箕灣道","lat":"22.278724872091","long":"114.22622512053"},{"id":"001302","name":"海晏街, 筲箕灣道","lat":"22.280716692091","long":"114.22345551053"},{"id":"001304","name":"太祥街, 筲箕灣道","lat":"22.283579282091","long":"114.22061919053"},{"id":"001288","name":"康怡廣場, 康山道","lat":"22.284499762091","long":"114.21671745053"},{"id":"001271","name":"寶峰園, 英皇道","lat":"22.284594642091","long":"114.21416959053"},{"id":"001272","name":"鰂魚涌街, 英皇道","lat":"22.284722942091","long":"114.21210328053"},{"id":"001273","name":"太古坊, 英皇道","lat":"22.286667942091","long":"114.21039739053"},{"id":"001274","name":"民新街, 英皇道","lat":"22.289926312091","long":"114.20930325053"},{"id":"001275","name":"模範邨, 英皇道","lat":"22.291544482091","long":"114.20766679053"},{"id":"001276","name":"健康村, 英皇道","lat":"22.291912702091","long":"114.20634072053"},{"id":"001277","name":"健威花園, 英皇道","lat":"22.291810122091","long":"114.20389006053"},{"id":"001278","name":"港運城, 英皇道","lat":"22.291505782091","long":"114.20241339053"},{"id":"001280","name":"新都城大廈, 英皇道","lat":"22.290876932091","long":"114.19937984053"},{"id":"001364","name":"長康街, 英皇道","lat":"22.290176642091","long":"114.19594569053"},{"id":"001283","name":"炮台山站, 英皇道","lat":"22.288146742091","long":"114.19355472053"},{"id":"001286","name":"清風街, 英皇道","lat":"22.284713662091","long":"114.19291666053"},{"id":"001333","name":"皇仁書院, 銅鑼灣道","lat":"22.280980392091","long":"114.19206074053"},{"id":"001334","name":"中華游樂會, 銅鑼灣道","lat":"22.279131322091","long":"114.19176929053"},{"id":"002465","name":"香港中央圖書館, 摩頓台","lat":"22.279536862091","long":"114.18897018053"},{"id":"002457","name":"加路連山道, 禮頓道","lat":"22.277432082091","long":"114.18577553053"},{"id":"002567","name":"禮頓中心, 禮頓道","lat":"22.277364802091","long":"114.18298954053"},{"id":"002547","name":"體育道, 黃泥涌道","lat":"22.276258492091","long":"114.18256067053"},{"id":"002548","name":"樂活道, 黃泥涌道","lat":"22.274365592091","long":"114.18345343053"},{"id":"002549","name":"雅谷大廈, 黃泥涌道","lat":"22.272085332091","long":"114.18455363053"},{"id":"002550","name":"跑馬地 (下)","lat":"22.270337792091","long":"114.18483108053"},{"id":"002490","name":"奕蔭街, 成和道","lat":"22.269795072091","long":"114.18484684053"},{"id":"002491","name":"昇平樓, 成和道","lat":"22.267818852091","long":"114.18685370053"},{"id":"002957","name":"箕璉坊, 藍塘道","lat":"22.265161372091","long":"114.18879506053"},{"id":"002958","name":"金碧別墅, 藍塘道","lat":"22.264094382091","long":"114.19000349053"},{"id":"002959","name":"千葉居, 藍塘道","lat":"22.263176222091","long":"114.18919728053"},{"id":"002972","name":"跑馬地 (上), 大坑道","lat":"22.263240892091","long":"114.18588277053"}],"routeId":"19P","description":"正常班次"}]