[{"company":"ctb","route":"19P","routeType":null,"dir":"O","orig":"筲箕灣","dest":"跑馬地 (上)","stopList":[{"id":"001207","name":"筲箕灣","lat":"22.278421","long":"114.228331"},{"id":"001301","name":"新成街, 筲箕灣道","lat":"22.278725","long":"114.226225"},{"id":"001302","name":"海晏街, 筲箕灣道","lat":"22.280717","long":"114.223456"},{"id":"001304","name":"太祥街, 筲箕灣道","lat":"22.283579","long":"114.220619"},{"id":"001288","name":"康怡廣場, 康山道","lat":"22.284500","long":"114.216717"},{"id":"001271","name":"寶峰園, 英皇道","lat":"22.284595","long":"114.214170"},{"id":"001272","name":"鰂魚涌街, 英皇道","lat":"22.284723","long":"114.212103"},{"id":"001273","name":"太古坊, 英皇道","lat":"22.286668","long":"114.210397"},{"id":"001274","name":"民新街, 英皇道","lat":"22.289926","long":"114.209303"},{"id":"001275","name":"模範邨, 英皇道","lat":"22.291544","long":"114.207667"},{"id":"001276","name":"健康村, 英皇道","lat":"22.291913","long":"114.206341"},{"id":"001277","name":"健威花園, 英皇道","lat":"22.291810","long":"114.203890"},{"id":"001278","name":"港運城, 英皇道","lat":"22.291506","long":"114.202413"},{"id":"001280","name":"新都城大廈, 英皇道","lat":"22.290877","long":"114.199380"},{"id":"001364","name":"長康街, 英皇道","lat":"22.290177","long":"114.195946"},{"id":"001283","name":"炮台山站, 英皇道","lat":"22.288147","long":"114.193555"},{"id":"001286","name":"清風街, 英皇道","lat":"22.284714","long":"114.192917"},{"id":"001333","name":"皇仁書院, 銅鑼灣道","lat":"22.280980","long":"114.192061"},{"id":"001334","name":"中華游樂會, 銅鑼灣道","lat":"22.279131","long":"114.191769"},{"id":"002465","name":"香港中央圖書館, 摩頓台","lat":"22.279537","long":"114.188970"},{"id":"002457","name":"加路連山道, 禮頓道","lat":"22.277432","long":"114.185776"},{"id":"002567","name":"禮頓中心, 禮頓道","lat":"22.277365","long":"114.182990"},{"id":"002547","name":"體育道, 黃泥涌道","lat":"22.276258","long":"114.182561"},{"id":"002548","name":"樂活道, 黃泥涌道","lat":"22.274366","long":"114.183453"},{"id":"002549","name":"雅谷大廈, 黃泥涌道","lat":"22.272085","long":"114.184554"},{"id":"002550","name":"跑馬地 (下)","lat":"22.270338","long":"114.184831"},{"id":"002490","name":"奕蔭街, 成和道","lat":"22.269795","long":"114.184847"},{"id":"002491","name":"昇平樓, 成和道","lat":"22.267819","long":"114.186854"},{"id":"002957","name":"箕璉坊, 藍塘道","lat":"22.265161","long":"114.188795"},{"id":"002958","name":"金碧別墅, 藍塘道","lat":"22.264094","long":"114.190003"},{"id":"002959","name":"千葉居, 藍塘道","lat":"22.263176","long":"114.189197"},{"id":"002972","name":"跑馬地 (上), 大坑道","lat":"22.263241","long":"114.185883"}],"routeId":"19P","description":"正常班次"}]