[{"company":"kmb","route":"203S","routeType":"1","dir":"O","orig":"澤安","dest":"尖沙咀東(麼地道)","stopList":[{"id":"53CB550BC9E1B80C","name":"澤安邨巴士總站 (SS908)","lat":"22.340478","long":"114.164577"},{"id":"9E16397100F502B9","name":"則仁中心 (SS115)","lat":"22.339973","long":"114.166933"},{"id":"23CF721FCA83F54B","name":"又一城 (SS920)","lat":"22.336788","long":"114.174811"},{"id":"937CA381A981989F","name":"香港生產力促進局 (SS553)","lat":"22.335870","long":"114.175617"},{"id":"0C8D3ED04A656619","name":"又一村花園 (SS155)","lat":"22.333109","long":"114.175576"},{"id":"FD215BB86EDC1354","name":"雀橋街 (SS156)","lat":"22.331104","long":"114.175303"},{"id":"C4DC1D050CDF793D","name":"花墟公園 (SS157)","lat":"22.329160","long":"114.174649"},{"id":"A6DF150EE61DC8B3","name":"勵德街 (KC370)","lat":"22.326059","long":"114.176404"},{"id":"65B934D14EA190F1","name":"協和小學, MOKO (MK750)","lat":"22.324613","long":"114.172570"},{"id":"F7CAA2D4FF9D61F7","name":"太子站, 旺角花墟 (MK751)","lat":"22.324126","long":"114.169855"},{"id":"C2685779C6B11E87","name":"旺角站,旺角中心 (MK511a)","lat":"22.319868","long":"114.169295"},{"id":"A9203545EC3AD6EE","name":"旺角山東街 (MK519)","lat":"22.317352","long":"114.169846"},{"id":"36AABE317D2F7A0B","name":"油麻地碧街 (YT539)","lat":"22.313592","long":"114.170657"},{"id":"5EEA801CA265E5C1","name":"油麻地永星里 (YT542)","lat":"22.311527","long":"114.171044"},{"id":"77BFE3A169866C7D","name":"油麻地西貢街 (YT550)","lat":"22.307302","long":"114.171577"},{"id":"A37F8CF766FCF9F3","name":"尖沙咀德成街 (YT556)","lat":"22.304279","long":"114.171799"},{"id":"1DEB855D55528B03","name":"金馬倫道,清真寺 (YT560)","lat":"22.298979","long":"114.172114"},{"id":"11A1269F9B78F269","name":"尖沙咀轉車站 - 中間道 (YT562)","lat":"22.295877","long":"114.172442"},{"id":"5D75A800F823B45D","name":"尖東站 K11 MUSEA (YT216)","lat":"22.295152","long":"114.174392"},{"id":"9E376227A51AB6BE","name":"尖沙咀東（麼地道） (YT925)","lat":"22.296771","long":"114.175868"}],"routeId":"203S","description":"正常班次"}]