[{"company":"kmb","route":"208","routeType":"1","dir":"O","orig":"廣播道","dest":"尖沙咀東","stopList":[{"id":"B2FCC11A86792139","name":"廣播道巴士總站 (KC401)","lat":"22.341825","long":"114.180393"},{"id":"4CE0325AE0DC6957","name":"星輝豪庭 (KC402)","lat":"22.343224","long":"114.182173"},{"id":"B4D3F2936EB79DF7","name":"范信達道 (KC403)","lat":"22.341648","long":"114.183080"},{"id":"B97DD1419E4BB86E","name":"馬可尼道 (KC404)","lat":"22.340737","long":"114.182670"},{"id":"210CF8389F782535","name":"香港浸會大學 (KC225)","lat":"22.339108","long":"114.182487"},{"id":"2F390B21000CF215","name":"聯福道 (KC540)","lat":"22.338704","long":"114.181753"},{"id":"A15EC70C910B44CD","name":"天保民學校 (KC541)","lat":"22.335694","long":"114.181520"},{"id":"2E0AB36307ECA231","name":"對衡道 (KC430)","lat":"22.333266","long":"114.181820"},{"id":"6E3DDCA31C3CC1FA","name":"東寶庭道 (KC431)","lat":"22.331723","long":"114.181946"},{"id":"A4A4296E3ECFA98C","name":"喇沙書院 (KC432)","lat":"22.329650","long":"114.182034"},{"id":"362808DBFCB54055","name":"界限街 (KC433)","lat":"22.327474","long":"114.182031"},{"id":"312CD2A987AA2773","name":"伯爵街 (KC740)","lat":"22.325975","long":"114.180423"},{"id":"98FCC750B322B706","name":"九龍醫院 (KC669)","lat":"22.323064","long":"114.178288"},{"id":"BC294083A50B89DB","name":"萬基大廈 (KC671)","lat":"22.320361","long":"114.176894"},{"id":"38CBB6C76211934F","name":"何文田街 (KC673)","lat":"22.317804","long":"114.175186"},{"id":"F63C76EC97E38A91","name":"廣華醫院 (YT680)","lat":"22.314770","long":"114.172864"},{"id":"777ED0B1F3CF10DD","name":"油麻地消防局 (YT681)","lat":"22.313308","long":"114.171775"},{"id":"EDF107F1315D6805","name":"油麻地永星里 (S34) (YT543)","lat":"22.311386","long":"114.171092"},{"id":"77BFE3A169866C7D","name":"油麻地西貢街 (S41) (YT550)","lat":"22.307302","long":"114.171577"},{"id":"EAE9158BE729E917","name":"金巴利道 S50 美麗華廣場","lat":"22.301046","long":"114.172057"},{"id":"D2217D7746597D10","name":"尖沙咀轉車站 - 中間道 (S54)","lat":"22.295794","long":"114.172446"},{"id":"576538E1395C8508","name":"尖東站 K11 MUSEA (YT215)","lat":"22.295226","long":"114.174647"},{"id":"1864222D8939BD69","name":"永安廣場 星光大道 (YT218)","lat":"22.296522","long":"114.176660"},{"id":"65194DB76048113F","name":"尖沙咀東總站 (YT930)","lat":"22.301898","long":"114.178460"}],"routeId":"208","description":"正常班次"},{"company":"kmb","route":"208","routeType":"1","dir":"I","orig":"尖沙咀東","dest":"廣播道","stopList":[{"id":"65194DB76048113F","name":"尖沙咀東總站 (YT930)","lat":"22.301898","long":"114.178460"},{"id":"FE2815CBCD21C57C","name":"香港歷史博物館 (YT615)","lat":"22.302694","long":"114.177430"},{"id":"F2508598F5A43655","name":"香港科學館 (YT621)","lat":"22.301061","long":"114.176514"},{"id":"3313287185163530","name":"尖沙咀麼地道 (YT623)","lat":"22.298540","long":"114.175858"},{"id":"9CAF2FDA35EEF9E2","name":"尖東站 K11 MUSEA (YT632)","lat":"22.294850","long":"114.174588"},{"id":"AB057A63C24E990E","name":"尖沙咀轉車站 - 中間道 (N3)","lat":"22.296050","long":"114.172172"},{"id":"B0028A481BF4ACC7","name":"九龍清真寺 (N8) (YT107)","lat":"22.298739","long":"114.171943"},{"id":"5419928D472EAD8D","name":"栢麗購物大道 (N13) (YT112)","lat":"22.301864","long":"114.171726"},{"id":"2F281B3C90B46763","name":"油麻地南京街 (N23) (YT122)","lat":"22.306217","long":"114.171448"},{"id":"088B858E4B54D8AC","name":"油麻地文明里 (N41) (YT140)","lat":"22.311337","long":"114.170814"},{"id":"F56B1C6169FFC940","name":"青年會 (YT320)","lat":"22.313550","long":"114.171580"},{"id":"4A2B9089021412CD","name":"廣華醫院 (YT322)","lat":"22.315236","long":"114.172834"},{"id":"F5ACAE2B0ACBC9AE","name":"勝利道 (KC332)","lat":"22.317874","long":"114.174841"},{"id":"E907FA24426A9FD6","name":"九龍維景酒店 (KC334)","lat":"22.319026","long":"114.175669"},{"id":"7D06FF559C2414AF","name":"聖佐治大廈 (KC337)","lat":"22.323516","long":"114.178017"},{"id":"E4B6BF6D835723A0","name":"伯爵街 (KC525)","lat":"22.326435","long":"114.180472"},{"id":"7CC71E7933DD9625","name":"喇沙書院 (KC530)","lat":"22.328512","long":"114.181843"},{"id":"D34CCDD12A1BC57F","name":"蘭開夏道 (KC531)","lat":"22.329812","long":"114.181880"},{"id":"5841F981BB45CBEE","name":"對衡道 (KC532)","lat":"22.331827","long":"114.181682"},{"id":"E442D94E9165461E","name":"禧福道 (KC533)","lat":"22.333586","long":"114.181804"},{"id":"A96BE8855D16BCE0","name":"天保民學校 (KC410)","lat":"22.334500","long":"114.181266"},{"id":"F3753E60F86B0068","name":"香港浸會大學 (KC411)","lat":"22.337512","long":"114.181588"},{"id":"BAC16D95B9C8D31C","name":"香港電台電視大廈 (KC400)","lat":"22.340395","long":"114.181327"},{"id":"B2FCC11A86792139","name":"廣播道巴士總站 (KC401)","lat":"22.341825","long":"114.180393"}],"routeId":"208","description":"正常班次"}]