[{"company":"gmb","route":"20X","routeType":1,"orig":"大埔墟站專線小巴總站","dest":"雅麗氏何妙齡那打素醫院","stopList":[{"id":20001193,"name":"大埔墟站專線小巴總站","lat":"22.443814","long":"114.170424"},{"id":20001244,"name":"南運路, 大埔超級城","lat":"22.453025","long":"114.172328"},{"id":20008249,"name":"頌雅路, 天主教聖母聖心小學外","lat":"22.456968","long":"114.172041"},{"id":20001198,"name":"全安路, 近雅麗氏何妙齡那打素醫院","lat":"22.459870","long":"114.174290"}],"routeId":2001392,"description":"額外快速班次"},{"company":"gmb","route":"20X","routeType":2,"orig":"雅麗氏何妙齡那打素醫院","dest":"大埔墟站專線小巴總站","stopList":[{"id":20001198,"name":"全安路, 近雅麗氏何妙齡那打素醫院","lat":"22.459870","long":"114.174290"},{"id":20001199,"name":"頌雅路, 天主教聖母聖心小學對面","lat":"22.456881","long":"114.172328"},{"id":20001220,"name":"南運路, 新興花園","lat":"22.452871","long":"114.172600"},{"id":20001193,"name":"大埔墟站專線小巴總站","lat":"22.443814","long":"114.170424"}],"routeId":2001392,"description":"額外快速班次"},{"company":"gmb","route":"20X","routeType":1,"orig":"斑蝶樓","dest":"大埔墟站專線小巴總站","stopList":[{"id":20012875,"name":"彩蝶街，近斑蝶樓","lat":"22.461580","long":"114.173498"},{"id":20001199,"name":"頌雅路, 天主教聖母聖心小學對面","lat":"22.456881","long":"114.172328"},{"id":20001220,"name":"南運路, 新興花園","lat":"22.452871","long":"114.172600"},{"id":20001193,"name":"大埔墟站專線小巴總站","lat":"22.443814","long":"114.170424"}],"routeId":2005221,"description":"特別班次"}]