[{"company":"kmb","route":"213B","routeType":"1","dir":"O","orig":"安泰","dest":"觀塘定富街","stopList":[{"id":"716E5DBD24DCE28B","name":"安泰總站 (AN900)","lat":"22.326944","long":"114.230431"},{"id":"51657C54B75A5304","name":"愛達樓 (AN643)","lat":"22.323350","long":"114.231662"},{"id":"B930999AA5F7E997","name":"安達邨 (AN647)","lat":"22.320067","long":"114.234642"},{"id":"B5CB3F0D26BBBD03","name":"觀塘同仁街 (KT538)","lat":"22.313363","long":"114.226412"},{"id":"FDFA7692A141612F","name":"觀塘轉車站 - 創紀之城 (KT634)","lat":"22.313721","long":"114.222607"},{"id":"BBDFF2D05E37EE61","name":"觀塘定富街 (KT652)","lat":"22.316772","long":"114.215491"}],"routeId":"213B","description":"正常班次"}]