[{"company":"kmb","route":"219X","routeType":"1","dir":"O","orig":"麗港城","dest":"尖沙咀(循環線)","stopList":[{"id":"272E83ECF9FF074D","name":"麗港城總站 (LT970)","lat":"22.307261","long":"114.228948"},{"id":"AA552AEC56A11EE4","name":"麗港中心 (LT545)","lat":"22.305334","long":"114.227752"},{"id":"FDB6E3CC223991D1","name":"觀塘偉樂街 (KT570)","lat":"22.305268","long":"114.225305"},{"id":"7A95C545D0393126","name":"啟隧轉車站-啟福道(L1) (KT590)","lat":"22.323065","long":"114.203197"},{"id":"558599642E78BB9B","name":"香港理工大學 (YT620)","lat":"22.303475","long":"114.177976"},{"id":"BEEBDDB542A7E709","name":"香港科學館 (YT622)","lat":"22.301475","long":"114.176613"},{"id":"48184733EFE9D3E3","name":"尖沙咀麼地道 (YT624)","lat":"22.298487","long":"114.175834"},{"id":"243A28F74F73A045","name":"尖東站 K11 MUSEA (YT630)","lat":"22.294779","long":"114.174389"},{"id":"1F2E60EDB4254D30","name":"尖沙咀轉車站 - 中間道 (YT101)","lat":"22.295816","long":"114.172187"},{"id":"D066F149BE3A1D28","name":"九龍清真寺 (YT106)","lat":"22.298695","long":"114.171951"},{"id":"1B9CA570385CC6F2","name":"尖沙咀警署 (YT113)","lat":"22.302619","long":"114.171661"},{"id":"E5E7111594073DE2","name":"南京街,佐敦站 (YT123)","lat":"22.306300","long":"114.171428"},{"id":"B0668BFF6178BA0B","name":"勞資審裁處 (YT331)","lat":"22.308049","long":"114.172768"},{"id":"AA97FFC49AE957A5","name":"紅磡山谷道 (HH175)","lat":"22.309361","long":"114.183871"},{"id":"BE27F066CF40DF7D","name":"啟隧轉車站-啟福道(K1) (KT100)","lat":"22.322242","long":"114.204425"},{"id":"41E95E283D770EF7","name":"觀塘偉樂街 (KT204)","lat":"22.305598","long":"114.225310"},{"id":"60EFE49C54F0CF11","name":"麗港中心 (LT401)","lat":"22.305632","long":"114.227632"},{"id":"CFD146683A7FFC62","name":"麗港城商場 (LT402)","lat":"22.306608","long":"114.228240"},{"id":"272E83ECF9FF074D","name":"麗港城總站 (LT970)","lat":"22.307261","long":"114.228948"}],"routeId":"219X","description":"正常班次"},{"company":"kmb","route":"219X","routeType":"4","dir":"O","orig":"高嶺道","dest":"尖沙咀(循環線)","stopList":[{"id":"88B010581BF4B96C","name":"高嶺道(下) (LT540)","lat":"22.304540","long":"114.229440"},{"id":"0AE211A2BDB45C37","name":"高嶺道(上) (LT541)","lat":"22.303569","long":"114.229800"},{"id":"272E83ECF9FF074D","name":"麗港城總站 (LT970)","lat":"22.307261","long":"114.228948"},{"id":"AA552AEC56A11EE4","name":"麗港中心 (LT545)","lat":"22.305334","long":"114.227752"},{"id":"FDB6E3CC223991D1","name":"觀塘偉樂街 (KT570)","lat":"22.305268","long":"114.225305"},{"id":"7A95C545D0393126","name":"啟隧轉車站-啟福道(L1) (KT590)","lat":"22.323065","long":"114.203197"},{"id":"558599642E78BB9B","name":"香港理工大學 (YT620)","lat":"22.303475","long":"114.177976"},{"id":"BEEBDDB542A7E709","name":"香港科學館 (YT622)","lat":"22.301475","long":"114.176613"},{"id":"48184733EFE9D3E3","name":"尖沙咀麼地道 (YT624)","lat":"22.298487","long":"114.175834"},{"id":"243A28F74F73A045","name":"尖東站 K11 MUSEA (YT630)","lat":"22.294779","long":"114.174389"},{"id":"1F2E60EDB4254D30","name":"尖沙咀轉車站 - 中間道 (YT101)","lat":"22.295816","long":"114.172187"},{"id":"D066F149BE3A1D28","name":"九龍清真寺 (YT106)","lat":"22.298695","long":"114.171951"},{"id":"1B9CA570385CC6F2","name":"尖沙咀警署 (YT113)","lat":"22.302619","long":"114.171661"},{"id":"E5E7111594073DE2","name":"南京街,佐敦站 (YT123)","lat":"22.306300","long":"114.171428"},{"id":"B0668BFF6178BA0B","name":"勞資審裁處 (YT331)","lat":"22.308049","long":"114.172768"},{"id":"AA97FFC49AE957A5","name":"紅磡山谷道 (HH175)","lat":"22.309361","long":"114.183871"},{"id":"BE27F066CF40DF7D","name":"啟隧轉車站-啟福道(K1) (KT100)","lat":"22.322242","long":"114.204425"},{"id":"41E95E283D770EF7","name":"觀塘偉樂街 (KT204)","lat":"22.305598","long":"114.225310"},{"id":"60EFE49C54F0CF11","name":"麗港中心 (LT401)","lat":"22.305632","long":"114.227632"},{"id":"CFD146683A7FFC62","name":"麗港城商場 (LT402)","lat":"22.306608","long":"114.228240"},{"id":"272E83ECF9FF074D","name":"麗港城總站 (LT970)","lat":"22.307261","long":"114.228948"},{"id":"88B010581BF4B96C","name":"高嶺道(下) (LT540)","lat":"22.304540","long":"114.229440"},{"id":"0AE211A2BDB45C37","name":"高嶺道(上) (LT541)","lat":"22.303569","long":"114.229800"}],"routeId":"219X","description":"特別班次"}]