[{"company":"gmb","route":"21A","routeType":1,"orig":"銅鑼灣（蘭芳道）","dest":"勵德邨 (循環線)","stopList":[{"id":20000093,"name":"蘭芳道, 近利園一期","lat":22.27863571575401,"long":114.18439429153928},{"id":20000311,"name":"邊寧頓街利園二期外","lat":22.278536296215762,"long":114.18599530536028},{"id":20000121,"name":"大坑道9號","lat":22.27713596118435,"long":114.19338893802777},{"id":20000124,"name":"勵德邨","lat":22.2785466515385,"long":114.19422952696551},{"id":20000123,"name":"怡景道及大坑道之間勵德邨道","lat":22.277623496028585,"long":114.19452425618063},{"id":20000122,"name":"大坑道, 近帝后臺","lat":22.27704566168682,"long":114.19332100609125},{"id":20000093,"name":"蘭芳道, 近利園一期","lat":22.27863571575401,"long":114.18439429153928}],"routeId":2000967,"description":"正常班次"},{"company":"gmb","route":"21A","routeType":1,"orig":"大埔頭","dest":"大埔墟","stopList":[{"id":20002568,"name":"大埔頭路, 近大埔頭徑","lat":22.45399002319139,"long":114.1594257003365},{"id":20008446,"name":"汀太路, 大埔游泳池外","lat":22.454691669375393,"long":114.16405320167543},{"id":20002570,"name":"安慈路, 海寶花園外","lat":22.452979217790077,"long":114.16644023027347},{"id":20002571,"name":"寶鄉街, 近寶鄉橋","lat":22.450116618812288,"long":114.16729536737542},{"id":20001200,"name":"南盛街小巴站","lat":22.448066607927835,"long":114.16575083880498}],"routeId":2001278,"description":"正常班次"},{"company":"gmb","route":"21A","routeType":2,"orig":"大埔墟","dest":"大埔頭","stopList":[{"id":20001200,"name":"南盛街小巴站","lat":22.448066607927835,"long":114.16575083880498},{"id":20001242,"name":"寶鄉街, 近寶鄉橋","lat":22.449899872901806,"long":114.16704279152783},{"id":20001196,"name":"安慈路, 八號花園外","lat":22.452789599374416,"long":114.16677056214932},{"id":20002524,"name":"大埔太和路, 近太和邨","lat":22.4521030162197,"long":114.16311770419665},{"id":20008430,"name":"大埔頭路, 太湖花園主要入口外","lat":22.454457270003655,"long":114.16105985641481},{"id":20002568,"name":"大埔頭徑, 太湖花園第二期","lat":22.45399002319139,"long":114.1594257003365}],"routeId":2001278,"description":"正常班次"}]