[{"company":"gmb","route":"21A","routeType":1,"orig":"銅鑼灣（蘭芳道）","dest":"勵德邨 (循環線)","stopList":[{"id":20000093,"name":"蘭芳道, 近利園一期","lat":"22.278636","long":"114.184394"},{"id":20000311,"name":"邊寧頓街利園二期外","lat":"22.278536","long":"114.185995"},{"id":20000121,"name":"大坑道9號","lat":"22.277136","long":"114.193389"},{"id":20000124,"name":"勵德邨","lat":"22.278547","long":"114.194230"},{"id":20000123,"name":"怡景道及大坑道之間勵德邨道","lat":"22.277623","long":"114.194524"},{"id":20000122,"name":"大坑道, 近帝后臺","lat":"22.277046","long":"114.193321"},{"id":20000093,"name":"蘭芳道, 近利園一期","lat":"22.278636","long":"114.184394"}],"routeId":2000967,"description":"正常班次"},{"company":"gmb","route":"21A","routeType":1,"orig":"大埔頭","dest":"大埔墟","stopList":[{"id":20002568,"name":"大埔頭路, 近大埔頭徑","lat":"22.453990","long":"114.159426"},{"id":20008446,"name":"汀太路, 大埔游泳池外","lat":"22.454692","long":"114.164053"},{"id":20002570,"name":"安慈路, 海寶花園外","lat":"22.452979","long":"114.166440"},{"id":20002571,"name":"寶鄉街, 近寶鄉橋","lat":"22.450117","long":"114.167295"},{"id":20001200,"name":"南盛街小巴站","lat":"22.448067","long":"114.165751"}],"routeId":2001278,"description":"正常班次"},{"company":"gmb","route":"21A","routeType":2,"orig":"大埔墟","dest":"大埔頭","stopList":[{"id":20001200,"name":"南盛街小巴站","lat":"22.448067","long":"114.165751"},{"id":20001242,"name":"寶鄉街, 近寶鄉橋","lat":"22.449900","long":"114.167043"},{"id":20001196,"name":"安慈路, 八號花園外","lat":"22.452790","long":"114.166771"},{"id":20002524,"name":"大埔太和路, 近太和邨","lat":"22.452103","long":"114.163118"},{"id":20008430,"name":"大埔頭路, 太湖花園主要入口外","lat":"22.454457","long":"114.161060"},{"id":20002568,"name":"大埔頭徑, 太湖花園第二期","lat":"22.453990","long":"114.159426"}],"routeId":2001278,"description":"正常班次"}]