[{"company":"ctb","route":"22","routeType":null,"dir":"I","orig":"九龍塘 (又一城)","dest":"啟德郵輪碼頭","stopList":[{"id":"003065","name":"又一城","lat":"22.336638782091","long":"114.17521292053"},{"id":"001462","name":"義德道, 歌和老街","lat":"22.340096902091","long":"114.17862550053"},{"id":"001622","name":"聯合道, 窩打老道","lat":"22.337980182091","long":"114.17926076053"},{"id":"001623","name":"九龍塘站, 窩打老道","lat":"22.335714472091","long":"114.17908178053"},{"id":"001624","name":"龍濤花園, 窩打老道","lat":"22.331146882091","long":"114.17880952053"},{"id":"003539","name":"九龍塘會, 窩打老道","lat":"22.329700542091","long":"114.17872416053"},{"id":"003018","name":"喇沙小學, 界限街","lat":"22.327114502091","long":"114.18105590053"},{"id":"003531","name":"碧華花園, 界限街","lat":"22.327184282091","long":"114.18268195053"},{"id":"003019","name":"聖德肋撒醫院, 界限街","lat":"22.327312562091","long":"114.18559238053"},{"id":"003532","name":"侯王道, 太子道西","lat":"22.327689372091","long":"114.18886001053"},{"id":"001572","name":"富豪東方酒店, 太子道東","lat":"22.328494832091","long":"114.19184067053"},{"id":"001573","name":"譽港灣, 太子道東","lat":"22.332716012091","long":"114.19630742053"},{"id":"002976","name":"景泰街, 太子道東","lat":"22.334041842091","long":"114.19883754053"},{"id":"003506","name":"工業貿易大樓, 協調道","lat":"22.332065062091","long":"114.19804771053"},{"id":"003795","name":"東九龍總區警察總部, 協調道","lat":"22.334509052091","long":"114.20188119053"},{"id":"003370","name":"啟德 (啟晴邨)","lat":"22.331936732091","long":"114.20380015053"},{"id":"001610","name":"麗晶花園第 8 座, 宏照道","lat":"22.331369192091","long":"114.20583246053"},{"id":"001611","name":"啟業邨, 宏照道","lat":"22.328732482091","long":"114.20838013053"},{"id":"001612","name":"九龍灣運動場, 宏照道","lat":"22.326745562091","long":"114.20857502053"},{"id":"001773","name":"臨華街, 宏照道","lat":"22.323544232091","long":"114.20888965053"},{"id":"001657","name":"常怡道","lat":"22.320843992091","long":"114.20772571053"},{"id":"003534","name":"香港兒童醫院, 承昌道","lat":"22.315805962091","long":"114.20950454053"},{"id":"003535","name":"承豐道","lat":"22.311841072091","long":"114.20791141053"},{"id":"003519","name":"啟德郵輪碼頭","lat":"22.306345962091","long":"114.21319488053"}],"routeId":"22","description":"正常班次"},{"company":"ctb","route":"22","routeType":null,"dir":"O","orig":"啟德郵輪碼頭","dest":"九龍塘 (又一城)","stopList":[{"id":"003519","name":"啟德郵輪碼頭","lat":"22.306345962091","long":"114.21319488053"},{"id":"003790","name":"承景街, 承豐道","lat":"22.309903852091","long":"114.20979377053"},{"id":"003520","name":"承豐道","lat":"22.311739462091","long":"114.20778315053"},{"id":"003521","name":"香港兒童醫院, 承昌道","lat":"22.315758722091","long":"114.20987968053"},{"id":"001649","name":"常悅道, 宏照道","lat":"22.321241952091","long":"114.20897841053"},{"id":"001607","name":"臨華街, 宏照道","lat":"22.322591022091","long":"114.20883070053"},{"id":"001608","name":"九龍灣運動場, 宏照道","lat":"22.326599152091","long":"114.20842271053"},{"id":"001645","name":"麗晶花園第 18 座, 宏照道","lat":"22.329777772091","long":"114.20810420053"},{"id":"001609","name":"麗晶花園第 13 座, 宏照道","lat":"22.330826612091","long":"114.20684023053"},{"id":"003505","name":"沐虹街, 承啟道","lat":"22.332201092091","long":"114.20465053053"},{"id":"003808","name":"東九龍總區警察總部, 協調道","lat":"22.334238952091","long":"114.20190745053"},{"id":"001576","name":"譽港灣, 太子道東","lat":"22.332077002091","long":"114.19680000053"},{"id":"001577","name":"富豪東方酒店, 太子道東","lat":"22.327146622091","long":"114.19053280053"},{"id":"003522","name":"侯王道, 太子道西","lat":"22.327374722091","long":"114.18856947053"},{"id":"003012","name":"喇沙利道, 太子道西","lat":"22.326509252091","long":"114.18310233053"},{"id":"003523","name":"喇沙書院, 喇沙利道","lat":"22.328488192091","long":"114.18189744053"},{"id":"003525","name":"牛津道, 蘭開夏道","lat":"22.330194652091","long":"114.18143064053"},{"id":"001619","name":"基督中心堂, 窩打老道","lat":"22.331951342091","long":"114.17864036053"},{"id":"001620","name":"九龍塘官立小學, 窩打老道","lat":"22.335892832091","long":"114.17886262053"},{"id":"003526","name":"多實街","lat":"22.338919462091","long":"114.17762036053"},{"id":"001457","name":"根德道, 歌和老街","lat":"22.340030252091","long":"114.17664627053"},{"id":"003065","name":"又一城","lat":"22.336638782091","long":"114.17521292053"}],"routeId":"22","description":"正常班次"},{"company":"gmb","route":"22","routeType":1,"orig":"薄扶林花園","dest":"中環(交易廣場)","stopList":[{"id":20000126,"name":"利牧徑, 薄扶林花園","lat":22.258330106017983,"long":114.13699043541531},{"id":20004559,"name":"薄扶林道, 中華廚藝學院","lat":22.260587563948974,"long":114.13615543264898},{"id":20004560,"name":"薄扶林道, 薄扶林水塘道","lat":22.262628273770275,"long":114.13529136081232},{"id":20004561,"name":"薄扶林道, 心光學校","lat":22.26670939817173,"long":114.13252499275248},{"id":20004114,"name":"薄扶林道, 瑪麗醫院對面","lat":22.26887626266223,"long":114.1307584596194},{"id":20007066,"name":"薄扶林道, 啟明寺","lat":22.27408669164741,"long":114.1298737953988},{"id":20000174,"name":"薄扶林道, 蒲飛路","lat":22.28177237798253,"long":114.13204478397786},{"id":20000012,"name":"薄扶林道, 寶翠園外","lat":22.28422912554159,"long":114.13357716043275},{"id":20000013,"name":"薄扶林道山道天橋以西巴士停車處西端","lat":22.284409922780867,"long":114.13427576039697},{"id":20000015,"name":"般咸道53號","lat":22.284863122475013,"long":114.14120398028473},{"id":20000303,"name":"般咸道, 正街","lat":22.284574344021205,"long":114.1421355953706},{"id":20000016,"name":"般咸道, 近西營盤站 C 出口","lat":22.28438494942358,"long":114.14331947504087},{"id":20007067,"name":"般咸道, 錦翠園","lat":22.28427677144148,"long":114.1442510407865},{"id":20007068,"name":"般咸道, 豫苑","lat":22.28491806206332,"long":114.14483310734694},{"id":20004105,"name":"般咸道, 寶威閣","lat":22.28482794965116,"long":114.14583259653664},{"id":20000173,"name":"般咸道, 醫院道","lat":22.283681351890667,"long":114.14740481635177},{"id":20000017,"name":"堅道, 樓梯街","lat":22.28315782406536,"long":114.14881192823321},{"id":20000018,"name":"堅道, 城皇街","lat":22.282823933671065,"long":114.15025780753024},{"id":20000019,"name":"堅道, 卑利街","lat":22.28167726873407,"long":114.15167471509346},{"id":20007069,"name":"奧比利街, 近荷李活道22號","lat":22.2819304376951,"long":114.1537705998877},{"id":20007409,"name":"荷利活道, 歐氏大廈外","lat":22.281984668022904,"long":114.15410050604507},{"id":20007070,"name":"荷利活道, 郵政局外","lat":22.28159645881878,"long":114.15488654070343},{"id":20004552,"name":"雲咸街41號","lat":22.28065728051622,"long":114.1549449069831},{"id":20004553,"name":"雲咸街藝穗會","lat":22.280241986564217,"long":114.15581826532681},{"id":20004571,"name":"皇后大道中, 新世界大廈","lat":22.28060341826396,"long":114.1574774736885},{"id":20000296,"name":"畢打街環球大廈外","lat":22.282382508380113,"long":114.15794299264157},{"id":20000295,"name":"康樂廣場, 交易廣場外","lat":22.28342111544006,"long":114.15868031787875},{"id":20006979,"name":"中環(交易廣場)","lat":22.28371910234814,"long":114.15846680234036}],"routeId":2000997,"description":"特別班次(不經雅緻洋房)"},{"company":"gmb","route":"22","routeType":2,"orig":"中環(交易廣場)","dest":"薄扶林花園","stopList":[{"id":20006979,"name":"中環(交易廣場)","lat":22.28371910234814,"long":114.15846680234036},{"id":20000026,"name":"紅棉路, 香港壁球中心外","lat":22.277623631260738,"long":114.16041791782935},{"id":20004563,"name":"堅尼地道, 堅麗閣","lat":22.27651253293988,"long":114.15742952144512},{"id":20004545,"name":"堅道, 明愛中心","lat":22.279365794255927,"long":114.15417855487924},{"id":20004544,"name":"堅道, 些利街","lat":22.28102714181995,"long":114.152189107206},{"id":20004106,"name":"堅道, 城皇街","lat":22.282634325151534,"long":114.15047131878104},{"id":20004542,"name":"般咸道, 豫苑","lat":22.28483682451437,"long":114.14502719743331},{"id":20004541,"name":"般咸道, 東邊街","lat":22.28425853058693,"long":114.14336802286734},{"id":20002406,"name":"般咸道, 正街","lat":22.284447917255612,"long":114.14214533011662},{"id":20002407,"name":"薄扶林道, 香港大學東閘","lat":22.28384216285019,"long":114.13900154194079},{"id":20000008,"name":"薄扶林道, 香港大學西閘","lat":22.283453250310362,"long":114.13652725814067},{"id":20000009,"name":"薄扶林道, 寶翠園對面","lat":22.28405757453576,"long":114.13369365550388},{"id":20000010,"name":"薄扶林道, 蒲飛路巴士總站","lat":22.28207053520232,"long":114.1325783753736},{"id":20004546,"name":"薄扶林道, 薄扶林遊樂場","lat":22.278322429443353,"long":114.13116289772238},{"id":20004547,"name":"薄扶林道, 瑪麗醫院","lat":22.272217623499056,"long":114.13083498728763},{"id":20004564,"name":"薄扶林道, 心光學校","lat":22.26672751754278,"long":114.13273843830595},{"id":20004565,"name":"薄扶林道, 薄扶林水塘道","lat":22.262682507189314,"long":114.13548538583562},{"id":20000367,"name":"薄扶林道, 薄扶林村","lat":22.26065990347667,"long":114.1365337863174},{"id":20000126,"name":"利牧徑, 薄扶林花園","lat":22.258330106017983,"long":114.13699043541531}],"routeId":2000997,"description":"特別班次(不經雅緻洋房)"},{"company":"gmb","route":"22","routeType":1,"orig":"薄扶林花園","dest":"中環(交易廣場)","stopList":[{"id":20000126,"name":"利牧徑, 薄扶林花園","lat":22.258330106017983,"long":114.13699043541531},{"id":20010030,"name":"置富道第14座外","lat":22.2584279417083,"long":114.13879215717317},{"id":20000127,"name":"置富道第10座外","lat":22.257409608568945,"long":114.13964895841272},{"id":20004558,"name":"雅緻洋房","lat":22.255106842756415,"long":114.13988240311089},{"id":20004559,"name":"薄扶林道, 中華廚藝學院","lat":22.260587563948974,"long":114.13615543264898},{"id":20004560,"name":"薄扶林道, 薄扶林水塘道","lat":22.262628273770275,"long":114.13529136081232},{"id":20004561,"name":"薄扶林道, 心光學校","lat":22.26670939817173,"long":114.13252499275248},{"id":20004114,"name":"薄扶林道, 瑪麗醫院對面","lat":22.26887626266223,"long":114.1307584596194},{"id":20007066,"name":"薄扶林道, 啟明寺","lat":22.27408669164741,"long":114.1298737953988},{"id":20000174,"name":"薄扶林道, 蒲飛路","lat":22.28177237798253,"long":114.13204478397786},{"id":20000012,"name":"薄扶林道, 寶翠園外","lat":22.28422912554159,"long":114.13357716043275},{"id":20000013,"name":"薄扶林道山道天橋以西巴士停車處西端","lat":22.284409922780867,"long":114.13427576039697},{"id":20000015,"name":"般咸道53號","lat":22.284863122475013,"long":114.14120398028473},{"id":20000303,"name":"般咸道, 正街","lat":22.284574344021205,"long":114.1421355953706},{"id":20000016,"name":"般咸道, 近西營盤站 C 出口","lat":22.28438494942358,"long":114.14331947504087},{"id":20007067,"name":"般咸道, 錦翠園","lat":22.28427677144148,"long":114.1442510407865},{"id":20007068,"name":"般咸道, 豫苑","lat":22.28491806206332,"long":114.14483310734694},{"id":20004105,"name":"般咸道, 寶威閣","lat":22.28482794965116,"long":114.14583259653664},{"id":20000173,"name":"般咸道, 醫院道","lat":22.283681351890667,"long":114.14740481635177},{"id":20000017,"name":"堅道, 樓梯街","lat":22.28315782406536,"long":114.14881192823321},{"id":20000018,"name":"堅道, 城皇街","lat":22.282823933671065,"long":114.15025780753024},{"id":20000019,"name":"堅道, 卑利街","lat":22.28167726873407,"long":114.15167471509346},{"id":20007069,"name":"奧比利街, 近荷李活道22號","lat":22.2819304376951,"long":114.1537705998877},{"id":20007409,"name":"荷利活道, 歐氏大廈外","lat":22.281984668022904,"long":114.15410050604507},{"id":20007070,"name":"荷利活道, 郵政局外","lat":22.28159645881878,"long":114.15488654070343},{"id":20004552,"name":"雲咸街41號","lat":22.28065728051622,"long":114.1549449069831},{"id":20004553,"name":"雲咸街藝穗會","lat":22.280241986564217,"long":114.15581826532681},{"id":20004571,"name":"皇后大道中, 新世界大廈","lat":22.28060341826396,"long":114.1574774736885},{"id":20000296,"name":"畢打街環球大廈外","lat":22.282382508380113,"long":114.15794299264157},{"id":20000295,"name":"康樂廣場, 交易廣場外","lat":22.28342111544006,"long":114.15868031787875},{"id":20006979,"name":"中環(交易廣場)","lat":22.28371910234814,"long":114.15846680234036}],"routeId":2003045,"description":"正常班次"},{"company":"gmb","route":"22","routeType":2,"orig":"中環(交易廣場)","dest":"薄扶林花園","stopList":[{"id":20006979,"name":"中環(交易廣場)","lat":22.28371910234814,"long":114.15846680234036},{"id":20000026,"name":"紅棉路, 香港壁球中心外","lat":22.277623631260738,"long":114.16041791782935},{"id":20004545,"name":"堅道, 明愛中心","lat":22.279365794255927,"long":114.15417855487924},{"id":20004544,"name":"堅道, 些利街","lat":22.28102714181995,"long":114.152189107206},{"id":20004106,"name":"堅道, 城皇街","lat":22.282634325151534,"long":114.15047131878104},{"id":20004542,"name":"般咸道, 豫苑","lat":22.28483682451437,"long":114.14502719743331},{"id":20004541,"name":"般咸道, 東邊街","lat":22.28425853058693,"long":114.14336802286734},{"id":20002406,"name":"般咸道, 正街","lat":22.284447917255612,"long":114.14214533011662},{"id":20002407,"name":"薄扶林道, 香港大學東閘","lat":22.28384216285019,"long":114.13900154194079},{"id":20000008,"name":"薄扶林道, 香港大學西閘","lat":22.283453250310362,"long":114.13652725814067},{"id":20000009,"name":"薄扶林道, 寶翠園對面","lat":22.28405757453576,"long":114.13369365550388},{"id":20000010,"name":"薄扶林道, 蒲飛路巴士總站","lat":22.28207053520232,"long":114.1325783753736},{"id":20004546,"name":"薄扶林道, 薄扶林遊樂場","lat":22.278322429443353,"long":114.13116289772238},{"id":20004547,"name":"薄扶林道, 瑪麗醫院","lat":22.272217623499056,"long":114.13083498728763},{"id":20004564,"name":"薄扶林道, 心光學校","lat":22.26672751754278,"long":114.13273843830595},{"id":20004565,"name":"薄扶林道, 薄扶林水塘道","lat":22.262682507189314,"long":114.13548538583562},{"id":20000367,"name":"薄扶林道, 薄扶林村","lat":22.26065990347667,"long":114.1365337863174},{"id":20004566,"name":"雅緻洋房","lat":22.255224206022778,"long":114.1397271477165},{"id":20000130,"name":"置富道第9座外","lat":22.25734637394146,"long":114.13956165995393},{"id":20010034,"name":"置富道第15座外","lat":22.258413047645522,"long":114.13856148719789},{"id":20000126,"name":"利牧徑, 薄扶林花園","lat":22.258330106017983,"long":114.13699043541531}],"routeId":2003045,"description":"正常班次"}]