[{"company":"ctb","route":"22","routeType":null,"dir":"I","orig":"九龍塘 (又一城)","dest":"啟德郵輪碼頭","stopList":[{"id":"003065","name":"又一城","lat":"22.336639","long":"114.175213"},{"id":"001462","name":"義德道, 歌和老街","lat":"22.340097","long":"114.178626"},{"id":"001622","name":"聯合道, 窩打老道","lat":"22.337980","long":"114.179261"},{"id":"001623","name":"九龍塘站, 窩打老道","lat":"22.335714","long":"114.179082"},{"id":"001624","name":"龍濤花園, 窩打老道","lat":"22.331147","long":"114.178810"},{"id":"003539","name":"九龍塘會, 窩打老道","lat":"22.329701","long":"114.178724"},{"id":"003018","name":"喇沙小學, 界限街","lat":"22.327115","long":"114.181056"},{"id":"003531","name":"碧華花園, 界限街","lat":"22.327184","long":"114.182682"},{"id":"003019","name":"聖德肋撒醫院, 界限街","lat":"22.327313","long":"114.185592"},{"id":"003532","name":"侯王道, 太子道西","lat":"22.327689","long":"114.188860"},{"id":"001572","name":"富豪東方酒店, 太子道東","lat":"22.328495","long":"114.191841"},{"id":"001573","name":"譽港灣, 太子道東","lat":"22.332716","long":"114.196307"},{"id":"002976","name":"景泰街, 太子道東","lat":"22.334042","long":"114.198838"},{"id":"003709","name":"稅務中心, 協調道","lat":"22.332661","long":"114.199168"},{"id":"003795","name":"東九龍總區警察總部, 協調道","lat":"22.334509","long":"114.201881"},{"id":"003370","name":"啟晴邨","lat":"22.331937","long":"114.203800"},{"id":"001610","name":"麗晶花園第 8 座, 宏照道","lat":"22.331369","long":"114.205832"},{"id":"001611","name":"啟業邨, 宏照道","lat":"22.328732","long":"114.208380"},{"id":"001612","name":"九龍灣運動場, 宏照道","lat":"22.326746","long":"114.208575"},{"id":"001773","name":"臨華街, 宏照道","lat":"22.323544","long":"114.208890"},{"id":"001657","name":"MegaBox, 常怡道","lat":"22.320844","long":"114.207726"},{"id":"003534","name":"香港兒童醫院, 承昌道","lat":"22.315806","long":"114.209505"},{"lat":"NaN","long":"NaN"},{"id":"003535","name":"Miami Quay, 承豐道","lat":"22.311841","long":"114.207911"},{"id":"003907","name":"承景街, 承豐道","lat":"22.309002","long":"114.211095"},{"id":"003519","name":"啟德郵輪碼頭","lat":"22.306346","long":"114.213195"}],"routeId":"22","description":"正常班次"},{"company":"ctb","route":"22","routeType":null,"dir":"O","orig":"啟德郵輪碼頭","dest":"九龍塘 (又一城)","stopList":[{"id":"003519","name":"啟德郵輪碼頭","lat":"22.306346","long":"114.213195"},{"id":"003790","name":"承景街, 承豐道","lat":"22.309730","long":"114.209989"},{"id":"003520","name":"天璽．海, 承豐道","lat":"22.311892","long":"114.207582"},{"id":"003891","name":"啟德橋道","lat":"22.315110","long":"114.205850"},{"id":"003521","name":"香港兒童醫院, 承昌道","lat":"22.315759","long":"114.209880"},{"id":"001649","name":"MegaBox, 宏照道","lat":"22.321242","long":"114.208978"},{"id":"001607","name":"臨華街, 宏照道","lat":"22.322591","long":"114.208831"},{"id":"001608","name":"九龍灣運動場, 宏照道","lat":"22.326599","long":"114.208423"},{"id":"001645","name":"麗晶花園第 18 座, 宏照道","lat":"22.329778","long":"114.208104"},{"id":"001609","name":"麗晶花園第 13 座, 宏照道","lat":"22.330827","long":"114.206840"},{"id":"003505","name":"沐虹街, 承啟道","lat":"22.332201","long":"114.204651"},{"id":"003808","name":"東九龍總區警察總部, 協調道","lat":"22.334239","long":"114.201907"},{"id":"001576","name":"譽港灣, 太子道東","lat":"22.332221","long":"114.196990"},{"id":"001577","name":"富豪東方酒店, 太子道東","lat":"22.327147","long":"114.190533"},{"id":"003522","name":"侯王道, 太子道西","lat":"22.327375","long":"114.188569"},{"id":"003012","name":"喇沙利道, 太子道西","lat":"22.326509","long":"114.183102"},{"id":"003523","name":"喇沙書院, 喇沙利道","lat":"22.328488","long":"114.181897"},{"id":"003525","name":"牛津道, 蘭開夏道","lat":"22.330195","long":"114.181431"},{"id":"001619","name":"基督中心堂, 窩打老道","lat":"22.331951","long":"114.178640"},{"id":"001620","name":"九龍塘官立小學, 窩打老道","lat":"22.335893","long":"114.178863"},{"id":"003526","name":"多實街","lat":"22.338919","long":"114.177620"},{"id":"001457","name":"根德道, 歌和老街","lat":"22.340030","long":"114.176646"},{"id":"003065","name":"又一城","lat":"22.336639","long":"114.175213"}],"routeId":"22","description":"正常班次"},{"company":"gmb","route":"22","routeType":1,"orig":"薄扶林花園","dest":"中環(交易廣場)","stopList":[{"id":20000126,"name":"利牧徑, 薄扶林花園","lat":"22.258330","long":"114.136990"},{"id":20004559,"name":"薄扶林道, 中華廚藝學院","lat":"22.260588","long":"114.136155"},{"id":20004560,"name":"薄扶林道, 薄扶林水塘道","lat":"22.262628","long":"114.135291"},{"id":20004561,"name":"薄扶林道, 心光學校","lat":"22.266709","long":"114.132525"},{"id":20004114,"name":"薄扶林道, 瑪麗醫院對面","lat":"22.268876","long":"114.130758"},{"id":20007066,"name":"薄扶林道, 啟明寺","lat":"22.274087","long":"114.129874"},{"id":20000174,"name":"薄扶林道, 蒲飛路","lat":"22.281772","long":"114.132045"},{"id":20000013,"name":"薄扶林道山道天橋以西巴士停車處西端","lat":"22.284410","long":"114.134276"},{"id":20000012,"name":"薄扶林道, 寶翠園外","lat":"22.284229","long":"114.133577"},{"id":20000015,"name":"般咸道53號","lat":"22.284863","long":"114.141204"},{"id":20000303,"name":"般咸道, 正街","lat":"22.284574","long":"114.142136"},{"id":20000016,"name":"般咸道, 近西營盤站 C 出口","lat":"22.284385","long":"114.143319"},{"id":20007067,"name":"般咸道, 錦翠園","lat":"22.284277","long":"114.144251"},{"id":20007068,"name":"般咸道, 豫苑","lat":"22.284918","long":"114.144833"},{"id":20004105,"name":"般咸道, 寶威閣","lat":"22.284828","long":"114.145833"},{"id":20000173,"name":"般咸道, 醫院道","lat":"22.283681","long":"114.147405"},{"id":20000017,"name":"堅道, 樓梯街","lat":"22.283158","long":"114.148812"},{"id":20000018,"name":"堅道, 城皇街","lat":"22.282824","long":"114.150258"},{"id":20000019,"name":"堅道, 卑利街","lat":"22.281677","long":"114.151675"},{"id":20007069,"name":"奧比利街, 近荷李活道22號","lat":"22.281930","long":"114.153771"},{"id":20007409,"name":"荷利活道, 歐氏大廈外","lat":"22.281985","long":"114.154101"},{"id":20007070,"name":"荷利活道, 郵政局外","lat":"22.281596","long":"114.154887"},{"id":20004552,"name":"雲咸街41號","lat":"22.280657","long":"114.154945"},{"id":20004553,"name":"雲咸街藝穗會","lat":"22.280242","long":"114.155818"},{"id":20004571,"name":"皇后大道中, 新世界大廈","lat":"22.280603","long":"114.157477"},{"id":20000296,"name":"畢打街環球大廈外","lat":"22.282383","long":"114.157943"},{"id":20000295,"name":"康樂廣場, 交易廣場外","lat":"22.283229","long":"114.158587"},{"id":20006979,"name":"中環(交易廣場)","lat":"22.283719","long":"114.158467"}],"routeId":2000997,"description":"特別班次(不經雅緻洋房)"},{"company":"gmb","route":"22","routeType":2,"orig":"中環(交易廣場)","dest":"薄扶林花園","stopList":[{"id":20006979,"name":"中環(交易廣場)","lat":"22.283719","long":"114.158467"},{"id":20000026,"name":"紅棉路, 香港壁球中心外","lat":"22.277624","long":"114.160418"},{"id":20004563,"name":"堅尼地道, 堅麗閣","lat":"22.276513","long":"114.157430"},{"id":20004545,"name":"堅道, 明愛中心","lat":"22.279366","long":"114.154179"},{"id":20004544,"name":"堅道, 些利街","lat":"22.281027","long":"114.152189"},{"id":20004106,"name":"堅道, 城皇街","lat":"22.282634","long":"114.150471"},{"id":20004542,"name":"般咸道, 豫苑","lat":"22.284837","long":"114.145027"},{"id":20004541,"name":"般咸道, 東邊街","lat":"22.284259","long":"114.143368"},{"id":20002406,"name":"般咸道, 正街","lat":"22.284448","long":"114.142145"},{"id":20002407,"name":"薄扶林道, 香港大學東閘","lat":"22.283842","long":"114.139002"},{"id":20000008,"name":"薄扶林道, 香港大學西閘","lat":"22.283453","long":"114.136527"},{"id":20000009,"name":"薄扶林道, 寶翠園對面","lat":"22.284058","long":"114.133694"},{"id":20000010,"name":"薄扶林道, 蒲飛路巴士總站","lat":"22.282071","long":"114.132578"},{"id":20004546,"name":"薄扶林道, 薄扶林遊樂場","lat":"22.278322","long":"114.131163"},{"id":20004547,"name":"薄扶林道, 瑪麗醫院","lat":"22.269696","long":"114.130574"},{"id":20004564,"name":"薄扶林道, 心光學校","lat":"22.266728","long":"114.132738"},{"id":20004565,"name":"薄扶林道, 薄扶林水塘道","lat":"22.262683","long":"114.135485"},{"id":20000367,"name":"薄扶林道, 薄扶林村","lat":"22.260660","long":"114.136534"},{"id":20000126,"name":"利牧徑, 薄扶林花園","lat":"22.258330","long":"114.136990"}],"routeId":2000997,"description":"特別班次(不經雅緻洋房)"},{"company":"gmb","route":"22","routeType":1,"orig":"薄扶林花園","dest":"中環(交易廣場)","stopList":[{"id":20000126,"name":"利牧徑, 薄扶林花園","lat":"22.258330","long":"114.136990"},{"id":20010030,"name":"置富道第14座外","lat":"22.258428","long":"114.138792"},{"id":20000127,"name":"置富道第10座外","lat":"22.257410","long":"114.139649"},{"id":20004558,"name":"雅緻洋房","lat":"22.255107","long":"114.139882"},{"id":20004559,"name":"薄扶林道, 中華廚藝學院","lat":"22.260588","long":"114.136155"},{"id":20004560,"name":"薄扶林道, 薄扶林水塘道","lat":"22.262628","long":"114.135291"},{"id":20004561,"name":"薄扶林道, 心光學校","lat":"22.266709","long":"114.132525"},{"id":20004114,"name":"薄扶林道, 瑪麗醫院對面","lat":"22.268876","long":"114.130758"},{"id":20007066,"name":"薄扶林道, 啟明寺","lat":"22.274087","long":"114.129874"},{"id":20000174,"name":"薄扶林道, 蒲飛路","lat":"22.281772","long":"114.132045"},{"id":20000013,"name":"薄扶林道山道天橋以西巴士停車處西端","lat":"22.284410","long":"114.134276"},{"id":20000012,"name":"薄扶林道, 寶翠園外","lat":"22.284229","long":"114.133577"},{"id":20000015,"name":"般咸道53號","lat":"22.284863","long":"114.141204"},{"id":20000303,"name":"般咸道, 正街","lat":"22.284574","long":"114.142136"},{"id":20000016,"name":"般咸道, 近西營盤站 C 出口","lat":"22.284385","long":"114.143319"},{"id":20007067,"name":"般咸道, 錦翠園","lat":"22.284277","long":"114.144251"},{"id":20007068,"name":"般咸道, 豫苑","lat":"22.284918","long":"114.144833"},{"id":20004105,"name":"般咸道, 寶威閣","lat":"22.284828","long":"114.145833"},{"id":20000173,"name":"般咸道, 醫院道","lat":"22.283681","long":"114.147405"},{"id":20000017,"name":"堅道, 樓梯街","lat":"22.283158","long":"114.148812"},{"id":20000018,"name":"堅道, 城皇街","lat":"22.282824","long":"114.150258"},{"id":20000019,"name":"堅道, 卑利街","lat":"22.281677","long":"114.151675"},{"id":20007069,"name":"奧比利街, 近荷李活道22號","lat":"22.281930","long":"114.153771"},{"id":20007409,"name":"荷利活道, 歐氏大廈外","lat":"22.281985","long":"114.154101"},{"id":20007070,"name":"荷利活道, 郵政局外","lat":"22.281596","long":"114.154887"},{"id":20004552,"name":"雲咸街41號","lat":"22.280657","long":"114.154945"},{"id":20004553,"name":"雲咸街藝穗會","lat":"22.280242","long":"114.155818"},{"id":20004571,"name":"皇后大道中, 新世界大廈","lat":"22.280603","long":"114.157477"},{"id":20000296,"name":"畢打街環球大廈外","lat":"22.282383","long":"114.157943"},{"id":20000295,"name":"康樂廣場, 交易廣場外","lat":"22.283229","long":"114.158587"},{"id":20006979,"name":"中環(交易廣場)","lat":"22.283719","long":"114.158467"}],"routeId":2003045,"description":"正常班次"},{"company":"gmb","route":"22","routeType":2,"orig":"中環(交易廣場)","dest":"薄扶林花園","stopList":[{"id":20006979,"name":"中環(交易廣場)","lat":"22.283719","long":"114.158467"},{"id":20000026,"name":"紅棉路, 香港壁球中心外","lat":"22.277624","long":"114.160418"},{"id":20004545,"name":"堅道, 明愛中心","lat":"22.279366","long":"114.154179"},{"id":20004544,"name":"堅道, 些利街","lat":"22.281027","long":"114.152189"},{"id":20004106,"name":"堅道, 城皇街","lat":"22.282634","long":"114.150471"},{"id":20004542,"name":"般咸道, 豫苑","lat":"22.284837","long":"114.145027"},{"id":20004541,"name":"般咸道, 東邊街","lat":"22.284259","long":"114.143368"},{"id":20002406,"name":"般咸道, 正街","lat":"22.284448","long":"114.142145"},{"id":20002407,"name":"薄扶林道, 香港大學東閘","lat":"22.283842","long":"114.139002"},{"id":20000008,"name":"薄扶林道, 香港大學西閘","lat":"22.283453","long":"114.136527"},{"id":20000009,"name":"薄扶林道, 寶翠園對面","lat":"22.284058","long":"114.133694"},{"id":20000010,"name":"薄扶林道, 蒲飛路巴士總站","lat":"22.282071","long":"114.132578"},{"id":20004546,"name":"薄扶林道, 薄扶林遊樂場","lat":"22.278322","long":"114.131163"},{"id":20004547,"name":"薄扶林道, 瑪麗醫院","lat":"22.269696","long":"114.130574"},{"id":20004564,"name":"薄扶林道, 心光學校","lat":"22.266728","long":"114.132738"},{"id":20004565,"name":"薄扶林道, 薄扶林水塘道","lat":"22.262683","long":"114.135485"},{"id":20000367,"name":"薄扶林道, 薄扶林村","lat":"22.260660","long":"114.136534"},{"id":20004566,"name":"雅緻洋房","lat":"22.255224","long":"114.139727"},{"id":20000130,"name":"置富道第9座外","lat":"22.257346","long":"114.139562"},{"id":20010034,"name":"置富道第15座外","lat":"22.258413","long":"114.138561"},{"id":20000126,"name":"利牧徑, 薄扶林花園","lat":"22.258330","long":"114.136990"}],"routeId":2003045,"description":"正常班次"}]