[{"company":"kmb","route":"23","routeType":"1","dir":"O","orig":"觀塘碼頭","dest":"順利(循環線)","stopList":[{"id":"D1DCF0AEFDDA4EF0","name":"觀塘碼頭 (KT936)","lat":"22.307655","long":"114.221659"},{"id":"9900A2A1E1FC8260","name":"敬業街 (KT220)","lat":"22.308547","long":"114.226094"},{"id":"C8FD960431F7210C","name":"成業街休憩公園 (KT448)","lat":"22.309357","long":"114.228494"},{"id":"B314CF2831F9C5F1","name":"和樂邨 (KT258)","lat":"22.317052","long":"114.226492"},{"id":"3093477EA64DDA89","name":"祥和苑 (KT261)","lat":"22.319461","long":"114.227281"},{"id":"E61F9EA5AEE1EFE0","name":"聯合醫院 (KT262)","lat":"22.322257","long":"114.225928"},{"id":"0511A6AC2CBC9A21","name":"寧波第二中學 (KT170)","lat":"22.324359","long":"114.228816"},{"id":"6E113B962058A553","name":"順天總站 (KT852)","lat":"22.326367","long":"114.226727"},{"id":"62F953A6FC5652BE","name":"順安邨 (KT175)","lat":"22.328777","long":"114.227035"},{"id":"10A6BEC26CE598E8","name":"利業樓 (KT181)","lat":"22.331725","long":"114.225961"},{"id":"8571BCC3A3E4006E","name":"利恒樓 (KT182)","lat":"22.333006","long":"114.224248"},{"id":"927CE95D5C98C195","name":"順利消防局 (KT184)","lat":"22.331694","long":"114.222567"},{"id":"F1B974EDD8C15DBC","name":"安頌樓 (KT165)","lat":"22.328922","long":"114.225641"},{"id":"DD5B5646768C5F09","name":"聯合醫院 (KT531)","lat":"22.322105","long":"114.226132"},{"id":"7ABD55FC15C048F0","name":"秀雅道遊樂場 (KT532)","lat":"22.321051","long":"114.226779"},{"id":"073C44CE5FF431BC","name":"和樂邨 (KT535)","lat":"22.317237","long":"114.226791"},{"id":"B5CB3F0D26BBBD03","name":"觀塘同仁街 (KT538)","lat":"22.313363","long":"114.226412"},{"id":"71E3EB7E709522C7","name":"觀塘開源道 (KT211)","lat":"22.309769","long":"114.223892"},{"id":"D1DCF0AEFDDA4EF0","name":"觀塘碼頭 (KT936)","lat":"22.307655","long":"114.221659"}],"routeId":"23","description":"正常班次"},{"company":"kmb","route":"23","routeType":"2","dir":"O","orig":"順天","dest":"觀塘碼頭","stopList":[{"id":"6E113B962058A553","name":"順天總站 (KT852)","lat":"22.326367","long":"114.226727"},{"id":"62F953A6FC5652BE","name":"順安邨 (KT175)","lat":"22.328777","long":"114.227035"},{"id":"10A6BEC26CE598E8","name":"利業樓 (KT181)","lat":"22.331725","long":"114.225961"},{"id":"8571BCC3A3E4006E","name":"利恒樓 (KT182)","lat":"22.333006","long":"114.224248"},{"id":"927CE95D5C98C195","name":"順利消防局 (KT184)","lat":"22.331694","long":"114.222567"},{"id":"F1B974EDD8C15DBC","name":"安頌樓 (KT165)","lat":"22.328922","long":"114.225641"},{"id":"DD5B5646768C5F09","name":"聯合醫院 (KT531)","lat":"22.322105","long":"114.226132"},{"id":"7ABD55FC15C048F0","name":"秀雅道遊樂場 (KT532)","lat":"22.321051","long":"114.226779"},{"id":"073C44CE5FF431BC","name":"和樂邨 (KT535)","lat":"22.317237","long":"114.226791"},{"id":"B5CB3F0D26BBBD03","name":"觀塘同仁街 (KT538)","lat":"22.313363","long":"114.226412"},{"id":"71E3EB7E709522C7","name":"觀塘開源道 (KT211)","lat":"22.309769","long":"114.223892"},{"id":"D1DCF0AEFDDA4EF0","name":"觀塘碼頭 (KT936)","lat":"22.307655","long":"114.221659"}],"routeId":"23","description":"特別班次"},{"company":"ctb","route":"23","routeType":null,"dir":"I","orig":"蒲飛路","dest":"北角碼頭","stopList":[{"id":"001115","name":"蒲飛路","lat":"22.281621","long":"114.132251"},{"id":"001111","name":"蒲飛路, 薄扶林道","lat":"22.282023","long":"114.132233"},{"id":"001112","name":"何東夫人堂, 薄扶林道","lat":"22.283611","long":"114.132960"},{"id":"001188","name":"香港潮商學校, 薄扶林道","lat":"22.283598","long":"114.136061"},{"id":"001006","name":"英皇書院, 般咸道","lat":"22.284272","long":"114.139754"},{"id":"001007","name":"寧養台, 般咸道","lat":"22.284804","long":"114.141177"},{"id":"001092","name":"聖士提反女子中學, 柏道","lat":"22.283869","long":"114.143510"},{"id":"001091","name":"豫苑, 柏道","lat":"22.284372","long":"114.144694"},{"id":"001146","name":"英華女學校, 羅便臣道","lat":"22.282572","long":"114.146710"},{"id":"001147","name":"蔚巒閣, 羅便臣道","lat":"22.282146","long":"114.147581"},{"id":"001148","name":"西摩道, 羅便臣道","lat":"22.280495","long":"114.150574"},{"id":"001149","name":"高主教書院, 羅便臣道","lat":"22.278541","long":"114.153243"},{"id":"001150","name":"花園台, 羅便臣道","lat":"22.276011","long":"114.154893"},{"id":"001072","name":"香港動植物公園, 花園道","lat":"22.277527","long":"114.157720"},{"id":"001073","name":"聖約翰座堂, 花園道","lat":"22.278374","long":"114.159781"},{"id":"003845","name":"金鐘 - 金鐘廊, 金鐘道","lat":"22.278485","long":"114.164478"},{"id":"002430","name":"盧押道, 軒尼詩道","lat":"22.277681","long":"114.170998"},{"id":"002431","name":"柯布連道, 軒尼詩道","lat":"22.277694","long":"114.173130"},{"id":"002434","name":"史釗域道, 軒尼詩道","lat":"22.278010","long":"114.176171"},{"id":"002435","name":"杜老誌道, 軒尼詩道","lat":"22.278721","long":"114.179097"},{"id":"002438","name":"銅鑼灣 - 崇光百貨, 軒尼詩道","lat":"22.280208","long":"114.184178"},{"id":"001213","name":"維多利亞公園, 高士威道","lat":"22.281133","long":"114.190066"},{"id":"001259","name":"銀幕街, 英皇道","lat":"22.283616","long":"114.192460"},{"id":"001260","name":"七海商業中心, 英皇道","lat":"22.287743","long":"114.192966"},{"id":"001261","name":"電廠街, 英皇道","lat":"22.290057","long":"114.195058"},{"id":"001262","name":"糖水道, 英皇道","lat":"22.290808","long":"114.198106"},{"id":"001310","name":"馬寶道, 書局街","lat":"22.291616","long":"114.200125"},{"id":"001249","name":"北角碼頭","lat":"22.293288","long":"114.201498"}],"routeId":"23","description":"正常班次"},{"company":"ctb","route":"23","routeType":null,"dir":"O","orig":"北角碼頭","dest":"蒲飛路","stopList":[{"id":"001249","name":"北角碼頭","lat":"22.293288","long":"114.201498"},{"id":"001279","name":"琴行街, 英皇道","lat":"22.291204","long":"114.200959"},{"id":"001280","name":"新都城大廈, 英皇道","lat":"22.290877","long":"114.199380"},{"id":"001364","name":"長康街, 英皇道","lat":"22.290177","long":"114.195946"},{"id":"001283","name":"炮台山站, 英皇道","lat":"22.288147","long":"114.193555"},{"id":"001286","name":"清風街, 英皇道","lat":"22.284714","long":"114.192917"},{"id":"001214","name":"皇仁書院, 高士威道","lat":"22.281287","long":"114.190652"},{"id":"002406","name":"摩頓台, 高士威道","lat":"22.279766","long":"114.188466"},{"id":"002439","name":"銅鑼灣 - 希慎廣場, 軒尼詩道","lat":"22.280000","long":"114.183359"},{"id":"002440","name":"堅拿道東, 軒尼詩道","lat":"22.279482","long":"114.181797"},{"id":"002442","name":"北海中心, 軒尼詩道","lat":"22.278328","long":"114.178455"},{"id":"002444","name":"軒尼詩道官立小學, 軒尼詩道","lat":"22.277745","long":"114.175435"},{"id":"002446","name":"修頓球場, 軒尼詩道","lat":"22.277433","long":"114.171879"},{"id":"002449","name":"晏頓街, 軒尼詩道","lat":"22.277666","long":"114.168839"},{"id":"001140","name":"金鐘 - 太古廣場, 金鐘道","lat":"22.278071","long":"114.164867"},{"id":"001041","name":"香港公園, 紅棉路","lat":"22.277665","long":"114.160445"},{"id":"001078","name":"堅麗閣, 堅尼地道","lat":"22.276482","long":"114.157487"},{"id":"001018","name":"明愛中心, 堅道","lat":"22.279435","long":"114.154205"},{"id":"001019","name":"孫中山紀念館, 堅道","lat":"22.281336","long":"114.151907"},{"id":"001020","name":"樓梯街, 堅道","lat":"22.282821","long":"114.149495"},{"id":"001021","name":"西摩道, 堅道","lat":"22.283160","long":"114.147864"},{"id":"001011","name":"豫苑, 般咸道","lat":"22.284879","long":"114.145157"},{"id":"001013","name":"東邊街, 般咸道","lat":"22.284210","long":"114.144338"},{"id":"001014","name":"正街, 般咸道","lat":"22.284395","long":"114.142305"},{"id":"001012","name":"香港大學東閘, 般咸道","lat":"22.283960","long":"114.138703"},{"id":"001116","name":"香港大學西閘, 薄扶林道","lat":"22.283588","long":"114.135699"},{"id":"001117","name":"何東夫人堂, 薄扶林道","lat":"22.283819","long":"114.133418"},{"id":"001115","name":"蒲飛路","lat":"22.281621","long":"114.132251"}],"routeId":"23","description":"正常班次"},{"company":"nlb","route":"23","routeType":null,"dir":null,"orig":"東涌達東路巴士總站","dest":"昂坪","stopList":[{"id":"317","name":"東涌達東路巴士總站","lat":"22.290580","long":"113.939352","street":"達東路","fare":"20.4","fareHoliday":"37.0"},{"id":"81","name":"裕東苑","lat":"22.286077","long":"113.941603","street":"順東路","fare":"20.4","fareHoliday":"37.0"},{"id":"94","name":"東涌鄉事委員會","lat":"22.278936","long":"113.938795","street":"東涌道","fare":"20.4","fareHoliday":"37.0"},{"id":"279","name":"上嶺皮","lat":"22.278792","long":"113.937148","street":"東涌道","fare":"20.4","fareHoliday":"37.0"},{"id":"280","name":"下嶺皮","lat":"22.278512","long":"113.935423","street":"東涌道","fare":"20.4","fareHoliday":"37.0"},{"id":"282","name":"黃家圍","lat":"22.277038","long":"113.933975","street":"東涌道","fare":"20.4","fareHoliday":"37.0"},{"id":"283","name":"龍井頭","lat":"22.275707","long":"113.933707","street":"東涌道","fare":"20.4","fareHoliday":"37.0"},{"id":"284","name":"石門甲道","lat":"22.270470","long":"113.934465","street":"東涌道","fare":"20.4","fareHoliday":"37.0"},{"id":"286","name":"十八區墳場","lat":"22.265678","long":"113.936740","street":"東涌道","fare":"20.4","fareHoliday":"37.0"},{"id":"287","name":"東涌坳管理站","lat":"22.264104","long":"113.937552","street":"東涌道","fare":"20.4","fareHoliday":"37.0"},{"id":"288","name":"伯公坳","lat":"22.248939","long":"113.942597","street":"東涌道","fare":"20.4","fareHoliday":"37.0"},{"id":"273","name":"長沙引水道","lat":"22.240007","long":"113.957339","street":"東涌道","fare":"20.4","fareHoliday":"37.0"},{"id":"83","name":"散石灣迴旋處","lat":"22.236544","long":"113.962550","street":"嶼南道","fare":"20.4","fareHoliday":"37.0"},{"id":"19","name":"長沙上村","lat":"22.235238","long":"113.961739","street":"嶼南道","fare":"13.3","fareHoliday":"25.3"},{"id":"20","name":"長沙警署","lat":"22.233772","long":"113.960211","street":"嶼南道","fare":"13.3","fareHoliday":"25.3"},{"id":"21","name":"長沙下村","lat":"22.234787","long":"113.957232","street":"嶼南道","fare":"13.3","fareHoliday":"25.3"},{"id":"22","name":"長沙消防局","lat":"22.236632","long":"113.954349","street":"嶼南道","fare":"13.3","fareHoliday":"25.3"},{"id":"23","name":"麗濱別墅","lat":"22.236217","long":"113.951916","street":"嶼南道","fare":"13.3","fareHoliday":"25.3"},{"id":"24","name":"蝶崗","lat":"22.234540","long":"113.948841","street":"嶼南道","fare":"13.3","fareHoliday":"25.3"},{"id":"25","name":"長沙大橋","lat":"22.233389","long":"113.946977","street":"嶼南道","fare":"13.3","fareHoliday":"25.3"},{"id":"26","name":"上長沙泳灘","lat":"22.230877","long":"113.941525","street":"嶼南道","fare":"13.3","fareHoliday":"25.3"},{"id":"27","name":"塘福海灘","lat":"22.228509","long":"113.935339","street":"嶼南道","fare":"13.3","fareHoliday":"25.3"},{"id":"28","name":"塘福村","lat":"22.227565","long":"113.932706","street":"嶼南道","fare":"13.3","fareHoliday":"25.3"},{"id":"31","name":"麻埔坪道口","lat":"22.226018","long":"113.929495","street":"嶼南道","fare":"13.3","fareHoliday":"25.3"},{"id":"178","name":"南大嶼山海底電纜站","lat":"22.225272","long":"113.928661","street":"嶼南道","fare":"13.3","fareHoliday":"25.3"},{"id":"33","name":"上橫壟","lat":"22.223348","long":"113.920624","street":"嶼南道","fare":"13.3","fareHoliday":"25.3"},{"id":"34","name":"下橫壟","lat":"22.222305","long":"113.919741","street":"嶼南道","fare":"13.3","fareHoliday":"25.3"},{"id":"35","name":"水口村(東)","lat":"22.221565","long":"113.916059","street":"嶼南道","fare":"13.3","fareHoliday":"25.3"},{"id":"36","name":"水口村","lat":"22.220989","long":"113.914318","street":"嶼南道","fare":"13.3","fareHoliday":"25.3"},{"id":"37","name":"四眼馬","lat":"22.221913","long":"113.910370","street":"嶼南道","fare":"13.3","fareHoliday":"25.3"},{"id":"38","name":"水口直升機場","lat":"22.223532","long":"113.908063","street":"嶼南道","fare":"13.3","fareHoliday":"25.3"},{"id":"39","name":"石壁警崗","lat":"22.225862","long":"113.897720","street":"嶼南道","fare":"8.0","fareHoliday":"19.2"},{"id":"41","name":"沙咀","lat":"22.228328","long":"113.890600","street":"姜山道","fare":"8.0","fareHoliday":"19.2"},{"id":"42","name":"石壁坳引水道通道","lat":"22.239451","long":"113.893697","street":"姜山道","fare":"8.0","fareHoliday":"19.2"},{"id":"269","name":"深屈道口","lat":"22.245207","long":"113.892089","street":"姜山道","fare":"5.6","fareHoliday":"12.6"},{"id":"59","name":"山海亭","lat":"22.249477","long":"113.893053","street":"深屈道","fare":"5.6","fareHoliday":"12.6"},{"id":"60","name":"昂坪市集","lat":"22.255461","long":"113.903981","street":"昂坪道","fare":"5.6","fareHoliday":"12.6"},{"id":"62","name":"昂坪","lat":"22.255612","long":"113.902862","street":"寶昂路","fare":"0.0","fareHoliday":"0.0"}],"routeId":"21","description":"正常班次"},{"company":"nlb","route":"23","routeType":null,"dir":null,"orig":"昂坪","dest":"東涌達東路巴士總站","stopList":[{"id":"270","name":"昂坪","lat":"22.255612","long":"113.902862","street":"寶昂路","fare":"20.4","fareHoliday":"37.0"},{"id":"271","name":"山海亭","lat":"22.249313","long":"113.892840","street":"深屈道","fare":"20.4","fareHoliday":"37.0"},{"id":"43","name":"深屈道口","lat":"22.245038","long":"113.892237","street":"姜山道","fare":"13.3","fareHoliday":"25.3"},{"id":"234","name":"石壁坳引水道通道","lat":"22.239179","long":"113.893975","street":"姜山道","fare":"10.9","fareHoliday":"20.5"},{"id":"235","name":"沙咀","lat":"22.228503","long":"113.891105","street":"姜山道","fare":"10.9","fareHoliday":"20.5"},{"id":"236","name":"石壁警崗","lat":"22.226119","long":"113.898134","street":"嶼南道","fare":"10.9","fareHoliday":"20.5"},{"id":"237","name":"水口直升機場","lat":"22.223703","long":"113.908325","street":"嶼南道","fare":"7.3","fareHoliday":"17.0"},{"id":"238","name":"四眼馬","lat":"22.222054","long":"113.910632","street":"嶼南道","fare":"7.3","fareHoliday":"17.0"},{"id":"239","name":"水口村","lat":"22.221101","long":"113.914173","street":"嶼南道","fare":"7.3","fareHoliday":"17.0"},{"id":"240","name":"水口村(東)","lat":"22.221841","long":"113.915763","street":"嶼南道","fare":"7.3","fareHoliday":"17.0"},{"id":"241","name":"下橫壟","lat":"22.222050","long":"113.919234","street":"嶼南道","fare":"7.3","fareHoliday":"17.0"},{"id":"242","name":"上橫壟","lat":"22.224358","long":"113.921077","street":"嶼南道","fare":"7.3","fareHoliday":"17.0"},{"id":"243","name":"南大嶼山海底電纜站","lat":"22.225883","long":"113.927180","street":"嶼南道","fare":"7.3","fareHoliday":"17.0"},{"id":"244","name":"麻埔坪道口","lat":"22.226583","long":"113.930077","street":"嶼南道","fare":"7.3","fareHoliday":"17.0"},{"id":"245","name":"塘福村","lat":"22.227763","long":"113.932397","street":"嶼南道","fare":"7.3","fareHoliday":"17.0"},{"id":"246","name":"塘福海灘","lat":"22.228941","long":"113.935944","street":"嶼南道","fare":"7.3","fareHoliday":"17.0"},{"id":"247","name":"上長沙泳灘","lat":"22.231329","long":"113.941766","street":"嶼南道","fare":"7.3","fareHoliday":"17.0"},{"id":"248","name":"長沙大橋","lat":"22.233979","long":"113.947366","street":"嶼南道","fare":"7.3","fareHoliday":"17.0"},{"id":"249","name":"蝶崗","lat":"22.235062","long":"113.949298","street":"嶼南道","fare":"7.3","fareHoliday":"17.0"},{"id":"250","name":"麗濱別墅","lat":"22.236472","long":"113.951424","street":"嶼南道","fare":"7.3","fareHoliday":"17.0"},{"id":"251","name":"長沙消防局","lat":"22.236803","long":"113.955434","street":"嶼南道","fare":"7.3","fareHoliday":"17.0"},{"id":"252","name":"長沙下村","lat":"22.234965","long":"113.957170","street":"嶼南道","fare":"7.3","fareHoliday":"17.0"},{"id":"253","name":"長沙警署","lat":"22.233964","long":"113.960174","street":"嶼南道","fare":"7.3","fareHoliday":"17.0"},{"id":"254","name":"長沙上村","lat":"22.235330","long":"113.961547","street":"嶼南道","fare":"7.3","fareHoliday":"17.0"},{"id":"255","name":"散石灣迴旋處","lat":"22.236727","long":"113.962424","street":"嶼南道","fare":"7.3","fareHoliday":"17.0"},{"id":"179","name":"東涌道","lat":"22.237918","long":"113.962920","street":"嶼南道","fare":"7.3","fareHoliday":"17.0"},{"id":"64","name":"長沙引水道","lat":"22.239814","long":"113.957216","street":"東涌道","fare":"7.3","fareHoliday":"17.0"},{"id":"65","name":"伯公坳","lat":"22.248054","long":"113.943139","street":"東涌道","fare":"7.3","fareHoliday":"17.0"},{"id":"66","name":"東涌坳管理站","lat":"22.264006","long":"113.937155","street":"東涌道","fare":"7.3","fareHoliday":"17.0"},{"id":"67","name":"十八區墳場","lat":"22.265466","long":"113.936463","street":"東涌道","fare":"7.3","fareHoliday":"17.0"},{"id":"68","name":"石門甲道","lat":"22.269918","long":"113.934243","street":"東涌道","fare":"2.8","fareHoliday":"6.5"},{"id":"69","name":"龍井頭","lat":"22.275975","long":"113.933377","street":"東涌道","fare":"2.8","fareHoliday":"6.5"},{"id":"70","name":"黃家圍","lat":"22.277162","long":"113.933812","street":"東涌道","fare":"2.8","fareHoliday":"6.5"},{"id":"71","name":"下嶺皮","lat":"22.278731","long":"113.935475","street":"東涌道","fare":"2.8","fareHoliday":"6.5"},{"id":"72","name":"上嶺皮","lat":"22.278912","long":"113.936856","street":"東涌道","fare":"2.8","fareHoliday":"6.5"},{"id":"73","name":"東涌鄉事委員會","lat":"22.279138","long":"113.939299","street":"東涌道","fare":"2.8","fareHoliday":"6.5"},{"id":"74","name":"馬灣新村","lat":"22.279865","long":"113.940243","street":"松仁路","fare":"2.8","fareHoliday":"6.5"},{"id":"77","name":"東涌消防局","lat":"22.286030","long":"113.941057","street":"順東路","fare":"2.8","fareHoliday":"6.5"},{"id":"78","name":"東涌纜車站","lat":"22.289301","long":"113.938733","street":"達東路","fare":"2.8","fareHoliday":"6.5"},{"id":"318","name":"東涌達東路巴士總站","lat":"22.290580","long":"113.939352","street":"達東路","fare":"0.0","fareHoliday":"0.0"}],"routeId":"22","description":"正常班次"},{"company":"gmb","route":"23","routeType":1,"orig":"堅尼地城站","dest":"薄扶林(循環線)","stopList":[{"id":20009733,"name":"堅尼地城站","lat":"22.281360","long":"114.128932"},{"id":20000089,"name":"士美菲路12R","lat":"22.280435","long":"114.129260"},{"id":20003476,"name":"蒲飛路, 翰林軒","lat":"22.281438","long":"114.129871"},{"id":20004546,"name":"薄扶林道, 薄扶林遊樂場","lat":"22.278322","long":"114.131163"},{"id":20004547,"name":"瑪麗醫院","lat":"22.269696","long":"114.130574"},{"id":20004564,"name":"薄扶林道, 心光學校","lat":"22.266728","long":"114.132738"},{"id":20004565,"name":"薄扶林道, 薄扶林水塘道","lat":"22.262683","long":"114.135485"},{"id":20000367,"name":"薄扶林道, 薄扶林村","lat":"22.260660","long":"114.136534"},{"id":20000127,"name":"置富道第10座外","lat":"22.257410","long":"114.139649"},{"id":20004558,"name":"雅緻洋房","lat":"22.255107","long":"114.139882"},{"id":20004588,"name":"華富道, 華富商場","lat":"22.250862","long":"114.137109"},{"id":20004589,"name":"華富道, 華清樓","lat":"22.251900","long":"114.136032"},{"id":20000175,"name":"華富道, 培英中學外","lat":"22.253589","long":"114.135575"},{"id":20000177,"name":"華富(北)巴士總站","lat":"22.254058","long":"114.136507"},{"id":20004566,"name":"雅緻洋房","lat":"22.255224","long":"114.139727"},{"id":20000130,"name":"置富道第9座外","lat":"22.257346","long":"114.139562"},{"id":20004559,"name":"薄扶林道, 中華廚藝學院","lat":"22.260588","long":"114.136155"},{"id":20004560,"name":"薄扶林道141號","lat":"22.262628","long":"114.135291"},{"id":20004561,"name":"薄扶林道, 心光學校","lat":"22.266709","long":"114.132525"},{"id":20004114,"name":"瑪麗醫院","lat":"22.268876","long":"114.130758"},{"id":20007066,"name":"薄扶林道, 啟明寺","lat":"22.274087","long":"114.129874"},{"id":20002403,"name":"薄扶林道, 摩星嶺道","lat":"22.277645","long":"114.130659"},{"id":20004590,"name":"蒲飛路, 翰林軒","lat":"22.281284","long":"114.129959"},{"id":20003279,"name":"科士街遊樂場","lat":"22.281383","long":"114.127970"},{"id":20004591,"name":"爹核士街","lat":"22.281798","long":"114.126873"},{"id":20016927,"name":"卑路乍街144-148號","lat":"22.282203","long":"114.126828"},{"id":20009733,"name":"堅尼地城站","lat":"22.281360","long":"114.128932"}],"routeId":2003042,"description":"正常班次"},{"company":"gmb","route":"23","routeType":1,"orig":"觀塘 (雲漢街)","dest":"裕民坊公共運輸交匯處","stopList":[{"id":20016432,"name":"雲漢街, 近南寧大樓","lat":"22.317380","long":"114.225318"},{"id":20016433,"name":"瑞和街, 近南安大樓","lat":"22.315425","long":"114.224697"},{"id":20014072,"name":"裕民坊公共運輸交匯處","lat":"22.314676","long":"114.225224"}],"routeId":2008322,"description":"正常班次"},{"company":"gmb","route":"23","routeType":2,"orig":"裕民坊公共運輸交匯處","dest":"觀塘 (雲漢街)","stopList":[{"id":20014072,"name":"裕民坊公共運輸交匯處","lat":"22.314676","long":"114.225224"},{"id":20016434,"name":"協和街, 近協和大廈","lat":"22.316357","long":"114.226217"},{"id":20016435,"name":"雲漢街, 近雲漢邨漢松樓","lat":"22.317488","long":"114.224060"},{"id":20016432,"name":"雲漢街, 近南寧大樓","lat":"22.317380","long":"114.225318"}],"routeId":2008322,"description":"正常班次"}]