[{"company":"kmb","route":"230R","routeType":"1","dir":"O","orig":"九龍站","dest":"馬灣(珀欣路)","stopList":[{"id":"68A0FA3CC69206CC","name":"九龍站巴士總站 (YT946)","lat":"22.305015","long":"114.162893"},{"id":"31072508CEF942C6","name":"西隧轉車站 - 雅翔道 (YT301)","lat":"22.303565","long":"114.159802"},{"id":"B7A8F179CD71B22E","name":"廣東道,新港中心 (YT206)","lat":"22.297488","long":"114.168979"},{"id":"F57E1173086C7A51","name":"廣東道,北京道 (YT207)","lat":"22.295621","long":"114.169362"},{"id":"576538E1395C8508","name":"尖東站 K11 MUSEA (YT215)","lat":"22.295226","long":"114.174647"},{"id":"E3A083E4F64D93CD","name":"九龍公園徑 (YT640)","lat":"22.295997","long":"114.170136"},{"id":"2EEB9CB69FB6A58D","name":"中港城 戲曲中心 (YT645)","lat":"22.300341","long":"114.168095"},{"id":"450A96AF1DA8E41C","name":"柯士甸站 (YT647)","lat":"22.303707","long":"114.167718"},{"id":"83B921ED81BE55A9","name":"富昌邨 (SS663)","lat":"22.327310","long":"114.154421"},{"id":"E37FAF099C26C878","name":"馬灣(珀欣路) (TW620)","lat":"22.348203","long":"114.060729"}],"routeId":"230R","description":"正常班次"},{"company":"kmb","route":"230R","routeType":"1","dir":"I","orig":"馬灣(珀欣路)","dest":"九龍站","stopList":[{"id":"E37FAF099C26C878","name":"馬灣(珀欣路) (TW620)","lat":"22.348203","long":"114.060729"},{"id":"25215C60B06337AF","name":"富昌邨 (SS290)","lat":"22.328403","long":"114.153699"},{"id":"FB9FA7AAA17E9E9D","name":"西隧轉車站 - 雅翔道 (YT300)","lat":"22.304410","long":"114.160239"},{"id":"5F60283656DF3016","name":"廣東道,新港中心 (YT205)","lat":"22.297488","long":"114.168979"},{"id":"8CDF75A5EEE3CB2E","name":"廣東道,北京道 (YT207)","lat":"22.295621","long":"114.169362"},{"id":"D987075FC237CE75","name":"尖東站 K11 MUSEA (YT215)","lat":"22.295226","long":"114.174647"},{"id":"B74273D52D064437","name":"九龍公園徑 (YT640)","lat":"22.295997","long":"114.170136"},{"id":"87FEBC2B4436FC44","name":"中港城 戲曲中心 (YT645)","lat":"22.300341","long":"114.168095"},{"id":"5DD1FFB79F17FC22","name":"柯士甸站 (YT647)","lat":"22.303707","long":"114.167718"},{"id":"68A0FA3CC69206CC","name":"九龍站巴士總站 (YT946)","lat":"22.305015","long":"114.162893"}],"routeId":"230R","description":"正常班次"}]