[{"company":"kmb","route":"230R","routeType":"1","dir":"O","orig":"九龍站","dest":"馬灣(珀欣路)","stopList":[{"id":"68A0FA3CC69206CC","name":"九龍站巴士總站 (YT946)","lat":"22.305015","long":"114.162893"},{"id":"31072508CEF942C6","name":"西隧轉車站 - 雅翔道 (C1)","lat":"22.303565","long":"114.159802"},{"id":"83B921ED81BE55A9","name":"富昌邨 (SS663)","lat":"22.327310","long":"114.154421"},{"id":"E37FAF099C26C878","name":"馬灣(珀欣路)","lat":"22.348203","long":"114.060729"}],"routeId":"230R","description":"正常班次"},{"company":"kmb","route":"230R","routeType":"1","dir":"I","orig":"馬灣(珀欣路)","dest":"九龍站","stopList":[{"id":"E37FAF099C26C878","name":"馬灣(珀欣路)","lat":"22.348203","long":"114.060729"},{"id":"25215C60B06337AF","name":"富昌邨 (SS290)","lat":"22.328403","long":"114.153699"},{"id":"FB9FA7AAA17E9E9D","name":"西隧轉車站 - 雅翔道 (D1)","lat":"22.304410","long":"114.160239"},{"id":"68A0FA3CC69206CC","name":"九龍站巴士總站 (YT946)","lat":"22.305015","long":"114.162893"}],"routeId":"230R","description":"正常班次"}]