[{"company":"kmb","route":"230X","routeType":"1","dir":"O","orig":"荃灣(荃威花園)","dest":"黃埔花園","stopList":[{"id":"B97161BE6BCBD04D","name":"荃威花園總站 (TW930)","lat":"22.377306","long":"114.103928"},{"id":"38C7D227DA221E77","name":"荃景圍街市 (TW441)","lat":"22.378249","long":"114.104608"},{"id":"1FBE6A92A88835D3","name":"荃灣中心 (TW446)","lat":"22.378496","long":"114.108818"},{"id":"C5C940CF1281B923","name":"美環街 (TW449)","lat":"22.376370","long":"114.110711"},{"id":"B2C63864D1C98F56","name":"大涌道福來邨 (TW323)","lat":"22.374014","long":"114.111383"},{"id":"033CB7A21D6DC60C","name":"祈德尊新邨 (TW326)","lat":"22.371342","long":"114.109806"},{"id":"972145F4BB2B535F","name":"美孚轉車站 (SS461)","lat":"22.337460","long":"114.140547"},{"id":"6C1C752975B8A257","name":"旺角鴉蘭街 (MK650)","lat":"22.323361","long":"114.167408"},{"id":"80E2DB8AC142F626","name":"旺角站,旺角中心 (MK510)","lat":"22.320081","long":"114.169306"},{"id":"E93113C9CA615B0C","name":"旺角豉油街 (MK520)","lat":"22.316772","long":"114.170023"},{"id":"D48E82AC2961C581","name":"油麻地文明里 (YT540)","lat":"22.312356","long":"114.170893"},{"id":"508D99EBC9AB3A9B","name":"油麻地長樂街 (YT551)","lat":"22.306887","long":"114.171625"},{"id":"A37F8CF766FCF9F3","name":"尖沙咀德成街 (YT556)","lat":"22.304279","long":"114.171799"},{"id":"EAE9158BE729E917","name":"金巴利道 美麗華廣場 (YT559)","lat":"22.301046","long":"114.172057"},{"id":"45F2E2A508556D6E","name":"尖沙咀轉車站 - 中間道 (YT564)","lat":"22.295211","long":"114.172484"},{"id":"576538E1395C8508","name":"尖東站 K11 MUSEA (YT215)","lat":"22.295226","long":"114.174647"},{"id":"1864222D8939BD69","name":"永安廣場 星光大道 (YT218)","lat":"22.296522","long":"114.176660"},{"id":"97377AA89B45CD34","name":"觀音街 (HH340)","lat":"22.307555","long":"114.185684"},{"id":"438AFA4E9E76C953","name":"德民街 (HH346)","lat":"22.305880","long":"114.188304"},{"id":"DE5FEC673BB54DC5","name":"黃埔花園總站 (HH921)","lat":"22.304924","long":"114.190783"}],"routeId":"230X","description":"正常班次"}]