[{"company":"kmb","route":"234C","routeType":"1","dir":"O","orig":"深井","dest":"觀塘(翠屏北邨)","stopList":[{"id":"83C4F756489484B5","name":"深井村 (TW343)","lat":"22.367229","long":"114.059089"},{"id":"ED9E5ACF98190E5C","name":"海韻花園 (TW346)","lat":"22.367721","long":"114.061674"},{"id":"D7D5410F2F97D682","name":"深井深慈街 (TW348)","lat":"22.367276","long":"114.062922"},{"id":"DA87D4887F5FAF62","name":"海美灣 (TW349)","lat":"22.364475","long":"114.069412"},{"id":"81F1ECC7278CDC18","name":"麗都灣 (TW352)","lat":"22.367866","long":"114.074360"},{"id":"2D36E1CF8C4FF699","name":"汀九 (TW353)","lat":"22.370444","long":"114.079344"},{"id":"8316A5C8798768AF","name":"南山游泳會 (TW356)","lat":"22.368788","long":"114.083875"},{"id":"96D0ED04D761DBE4","name":"金麗苑 (TW358)","lat":"22.367866","long":"114.091415"},{"id":"B069D9C12F89AAFA","name":"油柑頭 (TW360)","lat":"22.368222","long":"114.092191"},{"id":"E5763322877BB340","name":"翠景臺 (TW361)","lat":"22.368511","long":"114.096612"},{"id":"48769F0B9F6E6C1B","name":"灣景花園 (TW363)","lat":"22.369262","long":"114.099514"},{"id":"93F4EA3D82B33BEF","name":"麗城花園第三期 (TW365)","lat":"22.371767","long":"114.101011"},{"id":"B8B04CD1E568B8F6","name":"麗城花園第一期 (TW367)","lat":"22.373334","long":"114.103062"},{"id":"95797E4D2901A516","name":"荃景圍天橋 (TW370)","lat":"22.375683","long":"114.106911"},{"id":"F9475B6C5F5B9C21","name":"石圍角邨石蓮樓 (TW400)","lat":"22.374675","long":"114.122651"},{"id":"B18C8718C0B7904F","name":"石圍角邨石菊樓 (TW402)","lat":"22.376118","long":"114.124570"},{"id":"D1A1DF2BDC842EE5","name":"東普陀 (TW405)","lat":"22.378716","long":"114.126958"},{"id":"33A7AB58611A0F6D","name":"三棟屋村 (TW410)","lat":"22.379813","long":"114.129474"},{"id":"0A1DAEAFFDFF0B66","name":"可風中學 (TW310)","lat":"22.380443","long":"114.135135"},{"id":"3A2924B2461D053B","name":"梨木樹邨 (TW313)","lat":"22.377275","long":"114.136891"},{"id":"066AA1A504714A20","name":"和宜合道運動場 (TW316)","lat":"22.374018","long":"114.136465"},{"id":"E615D61C588B8F9D","name":"葵涌石英徑 (KW409)","lat":"22.364472","long":"114.135869"},{"id":"34FBE7E973FE5EF5","name":"華員邨 (KW412)","lat":"22.351973","long":"114.133190"},{"id":"F5A44B89EFBC0B4F","name":"畢架山花園 (SS190)","lat":"22.341687","long":"114.167069"},{"id":"99EF4CA10B3E1F17","name":"豐力樓 (SS192)","lat":"22.343140","long":"114.172841"},{"id":"BC7C325EE59235E4","name":"九龍灣站(東九文化中心) (KT322)","lat":"22.324048","long":"114.214410"},{"id":"E5E15C5F7F0344AB","name":"牛頭角下邨 (KT327)","lat":"22.321460","long":"114.214662"},{"id":"598F766175BE3EF3","name":"觀塘道休憩處 (KT329)","lat":"22.318159","long":"114.215070"},{"id":"CF579AAA2A4E506C","name":"牛頭角站 (V3) (KT336)","lat":"22.315213","long":"114.219514"},{"id":"F2127FD781019971","name":"觀塘轉車站 - 觀塘市中心 (T2)","lat":"22.313042","long":"114.224931"},{"id":"CED060CB0E89E2B3","name":"觀塘游泳池 (KT270)","lat":"22.311955","long":"114.229226"},{"id":"71B7CB659DF54E28","name":"觀塘(翠屏北邨)總站 (KT271)","lat":"22.314078","long":"114.229462"}],"routeId":"234C","description":"正常班次"},{"company":"kmb","route":"234C","routeType":"1","dir":"I","orig":"觀塘(翠屏北邨","dest":"深井","stopList":[{"id":"71B7CB659DF54E28","name":"觀塘(翠屏北邨)總站 (KT271)","lat":"22.314078","long":"114.229462"},{"id":"3558FA1D8DCF1F12","name":"觀塘游泳池 (KT563)","lat":"22.311663","long":"114.229373"},{"id":"3CA81FA2944B754D","name":"觀塘駿業里 (C6) (KT628)","lat":"22.312885","long":"114.224542"},{"id":"671775E6AF279B42","name":"觀塘轉車站 - 創紀之城 (B2)","lat":"22.314310","long":"114.220732"},{"id":"4B17C55C032D3A37","name":"觀塘定富街 (KT650)","lat":"22.316726","long":"114.215543"},{"id":"266A4CDA19461A42","name":"牛頭角下邨 (KT656)","lat":"22.320432","long":"114.214418"},{"id":"E4DC4C1162E302AE","name":"德福花園 (KT666)","lat":"22.322596","long":"114.214239"},{"id":"26A996F589C84844","name":"九龍灣站 (KT675)","lat":"22.325428","long":"114.213973"},{"id":"29A62A8FE112766B","name":"豐力樓 (SS730)","lat":"22.342585","long":"114.172991"},{"id":"9751EE79B103C9B8","name":"畢架山花園 (SS732)","lat":"22.341649","long":"114.166733"},{"id":"EBF4EB34B96BC242","name":"華員邨 (KW122)","lat":"22.351321","long":"114.132856"},{"id":"9161A6E5DCECCF39","name":"葵涌屏麗徑 (KW124)","lat":"22.365890","long":"114.134913"},{"id":"257A6E19DD7F156C","name":"和宜合道運動場 (TW490)","lat":"22.373954","long":"114.136349"},{"id":"28A57C043C111604","name":"石圍角新村 (TW493)","lat":"22.375875","long":"114.136250"},{"id":"F82CDE4D15A43CA3","name":"梨木樹邨 (TW495)","lat":"22.378515","long":"114.137270"},{"id":"DEDD6247441C8C05","name":"可風中學 (TW496)","lat":"22.380167","long":"114.135129"},{"id":"3B54D43994CAC165","name":"三棟屋村 (TW510)","lat":"22.379816","long":"114.129569"},{"id":"D9655458715EBBF8","name":"海壩村 (TW515)","lat":"22.378954","long":"114.127632"},{"id":"EE3B40DBD54D6708","name":"石圍角邨石葵樓 (TW520)","lat":"22.375852","long":"114.124790"},{"id":"D5252DAD51812506","name":"石圍角邨石荷樓 (TW522)","lat":"22.374513","long":"114.122837"},{"id":"CE2E93A0D850F21F","name":"荃灣站 (TW320)","lat":"22.374157","long":"114.117969"},{"id":"033CB7A21D6DC60C","name":"祈德尊新邨 (TW326)","lat":"22.371342","long":"114.109806"},{"id":"9CD69A8A588B2F8D","name":"麗城花園第三期 (TW168)","lat":"22.371156","long":"114.102375"},{"id":"613A21BCEF50485D","name":"灣景花園 (TW170)","lat":"22.369482","long":"114.100274"},{"id":"122BF72E5DBAEFC0","name":"翠景臺 (TW172)","lat":"22.368271","long":"114.097510"},{"id":"C3009421E5B89EB0","name":"油柑頭 (TW175)","lat":"22.368158","long":"114.093487"},{"id":"222694615BD60A65","name":"近水灣 (TW177)","lat":"22.367554","long":"114.088408"},{"id":"E182FE2A3C62252F","name":"南山游泳會 (TW178)","lat":"22.368146","long":"114.084788"},{"id":"AEA60911096D770F","name":"汀九 (TW180)","lat":"22.370222","long":"114.079601"},{"id":"BC68B9C32B4267AB","name":"麗都灣 (TW183)","lat":"22.368283","long":"114.075610"},{"id":"62AA23787294A36E","name":"海美灣 (TW185)","lat":"22.364430","long":"114.069942"},{"id":"7550FEE23DA5615D","name":"深井深慈街 (TW187)","lat":"22.366847","long":"114.063327"},{"id":"B47C12A965D7B481","name":"碧堤半島 (TW188)","lat":"22.367546","long":"114.061441"},{"id":"5564CE644A0D7DBE","name":"深井村 (TW190)","lat":"22.366953","long":"114.059303"}],"routeId":"234C","description":"正常班次"}]