[{"company":"kmb","route":"234X","routeType":"1","dir":"O","orig":"尖沙咀東(麼地道)","dest":"荃灣(灣景花園)","stopList":[{"id":"1E5EADCD9F424F07","name":"尖沙咀東（麼地道）","lat":"22.296883","long":"114.175865"},{"id":"CB2BC86A32D7C830","name":"尖沙咀碼頭","lat":"22.293816","long":"114.168797"},{"id":"1F2E60EDB4254D30","name":"尖沙咀轉車站 - 中間道 (N2)","lat":"22.295816","long":"114.172187"},{"id":"EA4A3876639F21B4","name":"金巴利道 (N11)","lat":"22.300253","long":"114.171866"},{"id":"B0F64FFFBECE8AA4","name":"油麻地寶靈街 (N20)","lat":"22.304565","long":"114.171583"},{"id":"5EEFE2E2583B576B","name":"九龍中央郵政局 (N37)","lat":"22.309680","long":"114.171093"},{"id":"1E0C8A961881DE1D","name":"油麻地碧街 (N45)","lat":"22.313451","long":"114.170419"},{"id":"38F0C9768AA2AF93","name":"旺角山東街 (N57)","lat":"22.316936","long":"114.169721"},{"id":"30FEA8A7071EDE48","name":"旺角弼街 (N72)","lat":"22.321778","long":"114.168699"},{"id":"3CE4A2049409A6DD","name":"太子站 (N76)","lat":"22.325598","long":"114.167935"},{"id":"E6ED785726AED4AE","name":"深水埗楓樹街","lat":"22.327562","long":"114.166148"},{"id":"E9F3DC5D89154BB7","name":"深水埗北河街 (X5)","lat":"22.330100","long":"114.162879"},{"id":"1A85B99EDE6D01D8","name":"怡閣苑 (X17)","lat":"22.333414","long":"114.158573"},{"id":"04FC6E130D4953F4","name":"長沙灣遊樂場 (X26)","lat":"22.335618","long":"114.155787"},{"id":"D355B700FF30B3D7","name":"長沙灣興華街 (X28)","lat":"22.337744","long":"114.152954"},{"id":"1F51B830DD359962","name":"荔枝角站 (X41)","lat":"22.337193","long":"114.148229"},{"id":"91C7F46612ADD9EF","name":"美孚轉車站 (A2)","lat":"22.336723","long":"114.139795"},{"id":"9B664F8FD4E76E48","name":"祈德尊新邨","lat":"22.371580","long":"114.109574"},{"id":"20E8B4520A802912","name":"滿樂大廈","lat":"22.372073","long":"114.112494"},{"id":"4E224310C4B46C9A","name":"荃灣建明街","lat":"22.373608","long":"114.115574"},{"id":"3F545756160D7BEA","name":"福來邨永康樓","lat":"22.374433","long":"114.113771"},{"id":"BFA3460955AC820C","name":"荃景圍天橋","lat":"22.375396","long":"114.108571"},{"id":"5FB1FCAF80F3D97D","name":"荃灣柴灣角街","lat":"22.374766","long":"114.105738"},{"id":"FF4785270078B487","name":"麗城花園第三期","lat":"22.372105","long":"114.103000"},{"id":"9386CDB16D533E27","name":"灣景花園總站","lat":"22.370137","long":"114.099552"}],"routeId":"234X","description":"正常班次"},{"company":"kmb","route":"234X","routeType":"1","dir":"I","orig":"荃灣(灣景花園)","dest":"尖沙咀東(麼地道)","stopList":[{"id":"9386CDB16D533E27","name":"灣景花園總站","lat":"22.370137","long":"114.099552"},{"id":"B8B04CD1E568B8F6","name":"麗城花園第一期","lat":"22.373334","long":"114.103062"},{"id":"9E970734315233A2","name":"荃景圍天橋","lat":"22.375778","long":"114.107100"},{"id":"B2C63864D1C98F56","name":"大涌道福來邨","lat":"22.374014","long":"114.111383"},{"id":"033CB7A21D6DC60C","name":"祈德尊新邨","lat":"22.371342","long":"114.109806"},{"id":"972145F4BB2B535F","name":"美孚轉車站 (D1)","lat":"22.337460","long":"114.140547"},{"id":"A6013462EAC8AA50","name":"長沙灣光昌街 (Y4)","lat":"22.338442","long":"114.151193"},{"id":"DAE9E14BA67CEC80","name":"長沙灣興華街 (Y11)","lat":"22.337851","long":"114.153289"},{"id":"3A5C336CCB38A3FA","name":"元州邨 (Y15)","lat":"22.335758","long":"114.155971"},{"id":"7BA304A9D0662541","name":"深水埗九江街 (Y19)","lat":"22.332873","long":"114.159755"},{"id":"0F4D809AED62F6E9","name":"深水埗欽州街 (Y22)","lat":"22.331237","long":"114.161858"},{"id":"833DE523F16B97C3","name":"深水埗黃竹街 (Y29)","lat":"22.328895","long":"114.164877"},{"id":"A70DCB46EC98F43E","name":"太子站 (S4)","lat":"22.325459","long":"114.168234"},{"id":"68D0BC0C7164F763","name":"旺角站 (S12)","lat":"22.319868","long":"114.169295"},{"id":"8E3A5C15E42020BB","name":"旺角豉油街 (S23)","lat":"22.316078","long":"114.170175"},{"id":"EDF107F1315D6805","name":"油麻地永星里 (S34)","lat":"22.311386","long":"114.171092"},{"id":"77BFE3A169866C7D","name":"油麻地西貢街 (S41)","lat":"22.307302","long":"114.171577"},{"id":"CD7C28BDF71C00D7","name":"尖沙咀德成街 (S44)","lat":"22.304279","long":"114.171799"},{"id":"EAE9158BE729E917","name":"金巴利道 (S50)","lat":"22.301046","long":"114.172057"},{"id":"452AD79BA74CF8F3","name":"尖沙咀轉車站 - 中間道 (S52)","lat":"22.295948","long":"114.172439"},{"id":"1E5EADCD9F424F07","name":"尖沙咀東（麼地道）","lat":"22.296883","long":"114.175865"}],"routeId":"234X","description":"正常班次"}]