[{"company":"kmb","route":"237A","routeType":"1","dir":"O","orig":"葵盛(中)","dest":"尖沙咀東(麼地道)","stopList":[{"id":"06990DFEA90A3147","name":"葵盛中巴士總站","lat":"22.361036","long":"114.122389"},{"id":"2F82535CF1C5BF3A","name":"盧光輝紀念學校","lat":"22.363418","long":"114.122642"},{"id":"EA43CFAD630C4690","name":"高盛臺","lat":"22.365017","long":"114.123639"},{"id":"4242A06B3D8849D9","name":"葵盛邨盛安樓","lat":"22.365246","long":"114.125892"},{"id":"7CA9FF2CDD3C4EE1","name":"葵盛葵葉街","lat":"22.365187","long":"114.127629"},{"id":"6DAB37A3FC9475C3","name":"林護紀念中學","lat":"22.365373","long":"114.130073"},{"id":"78DB6C3B360F72FF","name":"葵涌邨總站","lat":"22.367142","long":"114.128681"},{"id":"0393E099E78BEB94","name":"葵康苑","lat":"22.363259","long":"114.130687"},{"id":"DA17B01A4A61A358","name":"葵芳邨","lat":"22.359821","long":"114.131178"},{"id":"F36F422FDC6B9D3F","name":"葵涌交滙處","lat":"22.339640","long":"114.132619"},{"id":"6C1C752975B8A257","name":"旺角鴉蘭街","lat":"22.323361","long":"114.167408"},{"id":"AB4C15B92D4199BB","name":"旺角奶路臣街 (S14)","lat":"22.318983","long":"114.169521"},{"id":"10754E414E9B86F4","name":"油麻地碧街 (S27)","lat":"22.314313","long":"114.170513"},{"id":"25B94D808EC232D8","name":"加士居道 (S38)","lat":"22.308921","long":"114.171408"},{"id":"A37F8CF766FCF9F3","name":"尖沙咀德成街 (S47)","lat":"22.304279","long":"114.171799"},{"id":"D6E03ECA84C07932","name":"金巴利道 (S49)","lat":"22.300942","long":"114.172087"},{"id":"45F2E2A508556D6E","name":"尖沙咀轉車站 - 中間道 (S55)","lat":"22.295211","long":"114.172484"},{"id":"576538E1395C8508","name":"尖東站","lat":"22.295226","long":"114.174647"},{"id":"68DF2B78CD2B9C76","name":"尖沙咀東（麼地道）","lat":"22.296935","long":"114.175988"}],"routeId":"237A","description":"正常班次"}]