[{"company":"ctb","route":"23B","routeType":null,"dir":"I","orig":"柏道／羅便臣道","dest":"寶馬山","stopList":[{"id":"001092","name":"聖士提反女子中學, 柏道","lat":"22.283869362091","long":"114.14350996053"},{"id":"001091","name":"豫苑, 柏道","lat":"22.284372122091","long":"114.14469393053"},{"id":"001146","name":"英華女學校, 羅便臣道","lat":"22.282571772091","long":"114.14670968053"},{"id":"003158","name":"蔚巒閣, 羅便臣道","lat":"22.281969702091","long":"114.14760704053"},{"id":"002732","name":"美麗閣, 衛城道","lat":"22.282103102091","long":"114.14878834053"},{"id":"002733","name":"活倫台, 衛城道","lat":"22.282168422091","long":"114.15075684053"},{"id":"001017","name":"明愛中心, 堅道","lat":"22.280152942091","long":"114.15391248053"},{"id":"001158","name":"香港禮賓府, 上亞厘畢道","lat":"22.278848112091","long":"114.15636631053"},{"id":"001073","name":"聖約翰座堂, 花園道","lat":"22.278373862091","long":"114.15978086053"},{},{"id":"002430","name":"盧押道, 軒尼詩道","lat":"22.277681222091","long":"114.17099800053"},{"id":"002434","name":"史釗域道, 軒尼詩道","lat":"22.278009642091","long":"114.17617122053"},{"id":"002435","name":"杜老誌道, 軒尼詩道","lat":"22.278720922091","long":"114.17909682053"},{"id":"002437","name":"灣仔消防局, 軒尼詩道","lat":"22.279686862091","long":"114.18178779053"},{"id":"002574","name":"百德新街, 怡和街","lat":"22.279778702091","long":"114.18607065053"},{"id":"002535","name":"聖保祿醫院, 銅鑼灣道","lat":"22.278919992091","long":"114.18806171053"},{"id":"002512","name":"豪園, 大坑道","lat":"22.278402192091","long":"114.19034583053"},{"id":"002513","name":"光明臺, 大坑道","lat":"22.277046402091","long":"114.19359621053"},{"id":"001289","name":"勵德邨德全樓, 勵德邨道","lat":"22.278859622091","long":"114.19353863053"},{"id":"001346","name":"怡景道","lat":"22.281825632091","long":"114.19399404053"},{"id":"001347","name":"北角官立小學雲景道, 怡景道","lat":"22.283838312091","long":"114.19504527053"},{"id":"001240","name":"海景台, 雲景道","lat":"22.285153832091","long":"114.19621281053"},{"id":"001241","name":"恆景園, 雲景道","lat":"22.287080422091","long":"114.19704530053"},{"id":"001242","name":"雲峰大廈, 雲景道","lat":"22.287161292091","long":"114.19894215053"},{"id":"001211","name":"賽西湖大廈, 寶馬山道","lat":"22.285458182091","long":"114.19968480053"},{"id":"001250","name":"寶馬山","lat":"22.283570742091","long":"114.19887561053"}],"routeId":"23B","description":"正常班次"},{"company":"ctb","route":"23B","routeType":null,"dir":"O","orig":"寶馬山","dest":"柏道／羅便臣道","stopList":[{"id":"001250","name":"寶馬山","lat":"22.283570742091","long":"114.19887561053"},{"id":"001208","name":"豐林閣, 寶馬山道","lat":"22.285277372091","long":"114.19954957053"},{"id":"001234","name":"桂華山中學, 雲景道","lat":"22.286998602091","long":"114.19907885053"},{"id":"001235","name":"富麗園, 雲景道","lat":"22.287249052091","long":"114.19740720053"},{"id":"001236","name":"萬德閣, 雲景道","lat":"22.286326312091","long":"114.19671765053"},{"id":"001237","name":"雲景台, 雲景道","lat":"22.284662802091","long":"114.19566175053"},{"id":"001348","name":"北角官立小學雲景道, 怡景道","lat":"22.283214592091","long":"114.19498699053"},{"id":"001349","name":"怡景道","lat":"22.281176602091","long":"114.19362006053"},{"id":"001290","name":"勵德邨勵潔樓, 勵德邨道","lat":"22.279175742091","long":"114.19357793053"},{"id":"001291","name":"勵德邨邨榮樓, 勵德邨道","lat":"22.278092282091","long":"114.19423311053"},{"id":"002533","name":"利群道, 大坑道","lat":"22.276757522091","long":"114.19422681053"},{"id":"002534","name":"豪園, 大坑道","lat":"22.277982862091","long":"114.19076599053"},{"id":"002465","name":"香港中央圖書館, 摩頓台","lat":"22.279536862091","long":"114.18897018053"},{"id":"002439","name":"希慎廣場, 軒尼詩道","lat":"22.279999772091","long":"114.18335916053"},{"id":"002440","name":"堅拿道東, 軒尼詩道","lat":"22.279528242091","long":"114.18192401053"},{"id":"002442","name":"北海中心, 軒尼詩道","lat":"22.278327962091","long":"114.17845458053"},{"id":"002444","name":"軒尼詩道官立小學, 軒尼詩道","lat":"22.277744552091","long":"114.17543474053"},{"id":"002446","name":"修頓球場, 軒尼詩道","lat":"22.277433042091","long":"114.17187855053"},{"id":"002449","name":"晏頓街, 軒尼詩道","lat":"22.277666072091","long":"114.16883945053"},{"id":"001140","name":"金鐘站 - 太古廣場, 金鐘道","lat":"22.278070732091","long":"114.16486695053"},{"id":"001041","name":"香港公園, 紅棉路","lat":"22.277664742091","long":"114.16044539053"},{"id":"001078","name":"堅麗閣, 堅尼地道","lat":"22.276481502091","long":"114.15748729053"},{"id":"001018","name":"明愛中心, 堅道","lat":"22.279434502091","long":"114.15420482053"},{"id":"001019","name":"孫中山紀念館, 堅道","lat":"22.281336102091","long":"114.15190655053"},{"id":"001020","name":"樓梯街, 堅道","lat":"22.282821442091","long":"114.14949489053"},{"id":"001021","name":"西摩道, 堅道","lat":"22.283159702091","long":"114.14786353053"},{"id":"001011","name":"豫苑, 般咸道","lat":"22.284879112091","long":"114.14515677053"},{"id":"001013","name":"東邊街, 般咸道","lat":"22.284209702091","long":"114.14433785053"},{"id":"001092","name":"聖士提反女子中學, 柏道","lat":"22.283869362091","long":"114.14350996053"},{"id":"001091","name":"豫苑, 柏道","lat":"22.284372122091","long":"114.14469393053"},{"id":"001146","name":"英華女學校, 羅便臣道","lat":"22.282571772091","long":"114.14670968053"},{"id":"001148","name":"西摩道, 羅便臣道","lat":"22.280494672091","long":"114.15057437053"},{"id":"001149","name":"高主教書院, 羅便臣道","lat":"22.278541232091","long":"114.15324279053"}],"routeId":"23B","description":"正常班次"},{"company":"gmb","route":"23B","routeType":1,"orig":"裕民坊公共運輸交匯處","dest":"茶果嶺","stopList":[{"id":20016899,"name":"裕民坊公共運輸交匯處","lat":22.314392642486943,"long":114.22509165138766},{"id":20016436,"name":"茶果嶺道, 近容鳳書紀念中心尤德夫人分科診療所","lat":22.30780184171192,"long":114.22851044057875},{"id":20016437,"name":"茜發道, 近麗港城第二期","lat":22.30573975487997,"long":114.22889884268328},{"id":20016438,"name":"茜發道, 近藍田站","lat":22.3072346935521,"long":114.23116893815427},{"id":20016439,"name":"茜發道, 近麗港城第三期","lat":22.305646058365426,"long":114.22877569662913},{"id":20016440,"name":"茶果嶺道, 近麗港中心商場","lat":22.30542358951887,"long":114.22772107652523},{"id":20016441,"name":"茶果嶺道, 近茶果嶺大廈","lat":22.303809564388178,"long":114.22713143495365},{"id":20016442,"name":"茶果嶺道, 近海珠樓","lat":22.30265716334317,"long":114.22716970468856},{"id":20016443,"name":"茶果嶺道, 近茶果嶺垃圾站","lat":22.300805299818858,"long":114.22819594677495},{"id":20016928,"name":"茶果嶺道, 近天后宮","lat":22.29948872485785,"long":114.22923082203012}],"routeId":2008355,"description":"正常班次"},{"company":"gmb","route":"23B","routeType":2,"orig":"茶果嶺","dest":"裕民坊公共運輸交匯處","stopList":[{"id":20016444,"name":"茶果嶺道, 近天后宮","lat":22.299273677607175,"long":114.22940582971934},{"id":20016466,"name":"茶果嶺道, 近茶果嶺鄉公所","lat":22.30019235641849,"long":114.2283344438301},{"id":20016467,"name":"茶果嶺道, 近建造業議會偉樂街訓練場","lat":22.30246135581846,"long":114.2269958327056},{"id":20015116,"name":"茶果嶺道, 近麗港中心商場","lat":22.305557539742292,"long":114.22768894426538},{"id":20016437,"name":"茜發道, 近麗港城第二期","lat":22.30573975487997,"long":114.22889884268328},{"id":20016438,"name":"茜發道, 近藍田站","lat":22.3072346935521,"long":114.23116893815427},{"id":20016439,"name":"茜發道, 近麗港城第三期","lat":22.305646058365426,"long":114.22877569662913},{"id":20015117,"name":"茶果嶺道, 近麗港城商場","lat":22.306650679755318,"long":114.22835121352912},{"id":20016899,"name":"裕民坊公共運輸交匯處","lat":22.314392642486943,"long":114.22509165138766}],"routeId":2008355,"description":"正常班次"}]