[{"company":"ctb","route":"23B","routeType":null,"dir":"I","orig":"柏道／羅便臣道","dest":"寶馬山","stopList":[{"id":"001092","name":"聖士提反女子中學, 柏道","lat":"22.283869","long":"114.143510"},{"id":"001091","name":"豫苑, 柏道","lat":"22.284372","long":"114.144694"},{"id":"001146","name":"英華女學校, 羅便臣道","lat":"22.282572","long":"114.146710"},{"id":"003158","name":"蔚巒閣, 羅便臣道","lat":"22.281970","long":"114.147607"},{"id":"002732","name":"美麗閣, 衛城道","lat":"22.282177","long":"114.149251"},{"id":"002733","name":"活倫台, 衛城道","lat":"22.282152","long":"114.150524"},{"id":"001017","name":"明愛中心, 堅道","lat":"22.280153","long":"114.153912"},{"id":"001158","name":"香港禮賓府, 上亞厘畢道","lat":"22.278848","long":"114.156366"},{"id":"001073","name":"聖約翰座堂, 花園道","lat":"22.278374","long":"114.159781"},{"id":"003845","name":"金鐘 - 金鐘廊, 金鐘道","lat":"22.278485","long":"114.164478"},{"id":"002430","name":"盧押道, 軒尼詩道","lat":"22.277681","long":"114.170998"},{"id":"002434","name":"史釗域道, 軒尼詩道","lat":"22.278010","long":"114.176171"},{"id":"002435","name":"杜老誌道, 軒尼詩道","lat":"22.278721","long":"114.179097"},{"id":"002437","name":"灣仔消防局, 軒尼詩道","lat":"22.279687","long":"114.181788"},{"id":"002574","name":"銅鑼灣 - 百德新街, 怡和街","lat":"22.279779","long":"114.186071"},{"id":"002535","name":"聖保祿醫院, 銅鑼灣道","lat":"22.278920","long":"114.188062"},{"id":"002512","name":"豪園, 大坑道","lat":"22.278402","long":"114.190346"},{"id":"002513","name":"光明臺, 大坑道","lat":"22.277046","long":"114.193596"},{"id":"001289","name":"勵德邨德全樓, 勵德邨道","lat":"22.278860","long":"114.193539"},{"id":"001346","name":"怡景道","lat":"22.281826","long":"114.193994"},{"id":"001347","name":"北角官立小學雲景道, 怡景道","lat":"22.283838","long":"114.195045"},{"id":"001240","name":"海景台, 雲景道","lat":"22.285154","long":"114.196213"},{"id":"001241","name":"恆景園, 雲景道","lat":"22.287080","long":"114.197045"},{"id":"001242","name":"雲峰大廈, 雲景道","lat":"22.287161","long":"114.198942"},{"id":"001211","name":"賽西湖大廈, 寶馬山道","lat":"22.285458","long":"114.199685"},{"id":"001250","name":"寶馬山","lat":"22.283571","long":"114.198876"}],"routeId":"23B","description":"正常班次"},{"company":"ctb","route":"23B","routeType":null,"dir":"O","orig":"寶馬山","dest":"柏道／羅便臣道","stopList":[{"id":"001250","name":"寶馬山","lat":"22.283571","long":"114.198876"},{"id":"001208","name":"豐林閣, 寶馬山道","lat":"22.285277","long":"114.199550"},{"id":"001234","name":"桂華山中學, 雲景道","lat":"22.286999","long":"114.199079"},{"id":"001235","name":"富麗園, 雲景道","lat":"22.287249","long":"114.197407"},{"id":"001236","name":"萬德閣, 雲景道","lat":"22.286326","long":"114.196718"},{"id":"001237","name":"雲景台, 雲景道","lat":"22.284663","long":"114.195662"},{"id":"001348","name":"北角官立小學雲景道, 怡景道","lat":"22.283215","long":"114.194987"},{"id":"001349","name":"怡景道","lat":"22.281177","long":"114.193620"},{"id":"001290","name":"勵德邨勵潔樓, 勵德邨道","lat":"22.279176","long":"114.193578"},{"id":"001291","name":"勵德邨邨榮樓, 勵德邨道","lat":"22.278092","long":"114.194233"},{"id":"002533","name":"利群道, 大坑道","lat":"22.276758","long":"114.194227"},{"id":"002534","name":"豪園, 大坑道","lat":"22.277983","long":"114.190766"},{"id":"002465","name":"香港中央圖書館, 摩頓台","lat":"22.279537","long":"114.188970"},{"id":"002439","name":"銅鑼灣 - 希慎廣場, 軒尼詩道","lat":"22.280000","long":"114.183359"},{"id":"002440","name":"堅拿道東, 軒尼詩道","lat":"22.279482","long":"114.181797"},{"id":"002442","name":"北海中心, 軒尼詩道","lat":"22.278328","long":"114.178455"},{"id":"002444","name":"軒尼詩道官立小學, 軒尼詩道","lat":"22.277745","long":"114.175435"},{"id":"002446","name":"修頓球場, 軒尼詩道","lat":"22.277433","long":"114.171879"},{"id":"002449","name":"晏頓街, 軒尼詩道","lat":"22.277666","long":"114.168839"},{"id":"001140","name":"金鐘 - 太古廣場, 金鐘道","lat":"22.278071","long":"114.164867"},{"id":"001041","name":"香港公園, 紅棉路","lat":"22.277665","long":"114.160445"},{"id":"001078","name":"堅麗閣, 堅尼地道","lat":"22.276482","long":"114.157487"},{"id":"001018","name":"明愛中心, 堅道","lat":"22.279435","long":"114.154205"},{"id":"001019","name":"孫中山紀念館, 堅道","lat":"22.281336","long":"114.151907"},{"id":"001020","name":"樓梯街, 堅道","lat":"22.282821","long":"114.149495"},{"id":"001021","name":"西摩道, 堅道","lat":"22.283160","long":"114.147864"},{"id":"001011","name":"豫苑, 般咸道","lat":"22.284879","long":"114.145157"},{"id":"001013","name":"東邊街, 般咸道","lat":"22.284210","long":"114.144338"},{"id":"001092","name":"聖士提反女子中學, 柏道","lat":"22.283869","long":"114.143510"},{"id":"001091","name":"豫苑, 柏道","lat":"22.284372","long":"114.144694"},{"id":"001146","name":"英華女學校, 羅便臣道","lat":"22.282572","long":"114.146710"},{"id":"001148","name":"西摩道, 羅便臣道","lat":"22.280495","long":"114.150574"},{"id":"001149","name":"高主教書院, 羅便臣道","lat":"22.278541","long":"114.153243"}],"routeId":"23B","description":"正常班次"},{"company":"gmb","route":"23B","routeType":1,"orig":"裕民坊公共運輸交匯處","dest":"茶果嶺","stopList":[{"id":20016899,"name":"裕民坊公共運輸交匯處","lat":"22.314393","long":"114.225092"},{"id":20016436,"name":"茶果嶺道, 近容鳳書紀念中心尤德夫人分科診療所","lat":"22.307802","long":"114.228510"},{"id":20016437,"name":"茜發道, 近麗港城第二期","lat":"22.305740","long":"114.228899"},{"id":20016438,"name":"茜發道, 近藍田站","lat":"22.307235","long":"114.231169"},{"id":20016439,"name":"茜發道, 近麗港城第三期","lat":"22.305646","long":"114.228776"},{"id":20016440,"name":"茶果嶺道, 近麗港中心商場","lat":"22.305424","long":"114.227721"},{"id":20016441,"name":"茶果嶺道, 近茶果嶺大廈","lat":"22.303810","long":"114.227131"},{"id":20016442,"name":"茶果嶺道, 近海珠樓","lat":"22.302657","long":"114.227170"},{"id":20016443,"name":"茶果嶺道, 近茶果嶺垃圾站","lat":"22.300805","long":"114.228196"},{"id":20016928,"name":"茶果嶺道, 近天后宮","lat":"22.299489","long":"114.229231"}],"routeId":2008355,"description":"正常班次"},{"company":"gmb","route":"23B","routeType":2,"orig":"茶果嶺","dest":"裕民坊公共運輸交匯處","stopList":[{"id":20016444,"name":"茶果嶺道, 近天后宮","lat":"22.299274","long":"114.229406"},{"id":20016466,"name":"茶果嶺道, 近茶果嶺鄉公所","lat":"22.300192","long":"114.228334"},{"id":20016467,"name":"茶果嶺道, 近建造業議會偉樂街訓練場","lat":"22.302461","long":"114.226996"},{"id":20015116,"name":"茶果嶺道, 近麗港中心商場","lat":"22.305558","long":"114.227689"},{"id":20016437,"name":"茜發道, 近麗港城第二期","lat":"22.305740","long":"114.228899"},{"id":20016438,"name":"茜發道, 近藍田站","lat":"22.307235","long":"114.231169"},{"id":20016439,"name":"茜發道, 近麗港城第三期","lat":"22.305646","long":"114.228776"},{"id":20015117,"name":"茶果嶺道, 近麗港城商場","lat":"22.306651","long":"114.228351"},{"id":20016899,"name":"裕民坊公共運輸交匯處","lat":"22.314393","long":"114.225092"}],"routeId":2008355,"description":"正常班次"}]