[{"company":"gmb","route":"23S","routeType":1,"orig":"麗港城 (第二期)","dest":"藍田站 (茜發道)","stopList":[{"id":20016437,"name":"茜發道, 近麗港城第二期","lat":"22.305740","long":"114.228899"},{"id":20016438,"name":"茜發道, 近藍田站","lat":"22.307235","long":"114.231169"}],"routeId":2008393,"description":"短程班次"},{"company":"gmb","route":"23S","routeType":1,"orig":"大埔墟站專線小巴總站","dest":"打鐵屻通路","stopList":[{"id":20001193,"name":"大埔墟站專線小巴總站","lat":"22.443814","long":"114.170424"},{"id":20006554,"name":"運頭街, 運頭坊","lat":"22.446792","long":"114.168113"},{"id":20008215,"name":"達運道, 荔枝山","lat":"22.438380","long":"114.164883"},{"id":20008220,"name":"碗窰路, 沙埔仔","lat":"22.436905","long":"114.164576"},{"id":20003329,"name":"碗窰通路","lat":"22.436462","long":"114.164547"},{"id":20001212,"name":"碗窰路, 新屋家","lat":"22.430276","long":"114.163091"},{"id":20003330,"name":"打鐵屻通路","lat":"22.424361","long":"114.162198"}],"routeId":2001360,"description":"額外班次"},{"company":"gmb","route":"23S","routeType":2,"orig":"打鐵屻通路","dest":"大埔墟站專線小巴總站","stopList":[{"id":20003330,"name":"打鐵屻通路","lat":"22.424361","long":"114.162198"},{"id":20001212,"name":"新屋家","lat":"22.430276","long":"114.163091"},{"id":20003329,"name":"碗窰通路","lat":"22.436462","long":"114.164547"},{"id":20008223,"name":"碗窰路, 沙埔仔","lat":"22.437067","long":"114.164539"},{"id":20008222,"name":"達運道, 荔枝山","lat":"22.438480","long":"114.164686"},{"id":20001193,"name":"大埔墟站專線小巴總站","lat":"22.443814","long":"114.170424"},{"id":20001240,"name":"廣福道161號","lat":"22.446685","long":"114.171424"},{"id":20006554,"name":"運頭街, 運頭坊","lat":"22.446792","long":"114.168113"}],"routeId":2001360,"description":"額外班次"}]