[{"company":"kmb","route":"249M","routeType":"1","dir":"O","orig":"青衣站","dest":"美景花園(循環線)","stopList":[{"id":"A0E2F1B6E155C92F","name":"青衣站 (TY924)","lat":"22.359973","long":"114.107467"},{"id":"68DE9CB8E6AE046C","name":"宏福花園 (TY202)","lat":"22.355560","long":"114.107065"},{"id":"D6E7412666B1175B","name":"翠怡花園 (TY242)","lat":"22.351712","long":"114.107879"},{"id":"7E97DE06FCADF324","name":"長青邨青梅樓","lat":"22.350044","long":"114.106895"},{"id":"43398296F1D1BD48","name":"長康邨康富樓 (TY253)","lat":"22.350407","long":"114.105638"},{"id":"65D1B50CC2E45985","name":"長康邨康盛樓 (TY254)","lat":"22.350723","long":"114.103816"},{"id":"67F3E54FF145BA65","name":"長康邨康豐樓 (TY255)","lat":"22.350826","long":"114.101846"},{"id":"F93448A5F1168FB1","name":"長康邨康祥樓 (TY314)","lat":"22.349570","long":"114.101158"},{"id":"DFB7FD5832A4BA4E","name":"青盛苑 (TY316)","lat":"22.348985","long":"114.103555"},{"id":"0F60AAE48C3B22EE","name":"長青巴士總站 (TY320)","lat":"22.348166","long":"114.106866"},{"id":"0CFB814CB6C356C1","name":"長青邨青槐樓 (TY323)","lat":"22.345830","long":"114.107927"},{"id":"196A1E44C305C174","name":"美景花園 (TY111)","lat":"22.344755","long":"114.107760"},{"id":"BDE0F1679E1C8ABF","name":"長青巴士總站 (TY113)","lat":"22.348267","long":"114.105463"},{"id":"13458794A52910B0","name":"青盛苑 (TY115)","lat":"22.348861","long":"114.103381"},{"id":"67DFAB691BECE339","name":"長康邨康順樓 (TY340)","lat":"22.349838","long":"114.100522"},{"id":"6D016EBFA090D535","name":"職安健學院 (TY341)","lat":"22.351037","long":"114.102936"},{"id":"04D3244DD2B38746","name":"長康邨康富樓 (TY342)","lat":"22.350587","long":"114.105885"},{"id":"59B81980AC8F7878","name":"青衣警署 (TY353)","lat":"22.351792","long":"114.107458"},{"id":"143D7489C808BD46","name":"青衣街市 (TY360)","lat":"22.354203","long":"114.106836"},{"id":"F4FC91D18962C4D0","name":"青衣運動場 (TY362)","lat":"22.355827","long":"114.106695"},{"id":"624D05A1E7A5A045","name":"盈翠半島 (TY363)","lat":"22.357878","long":"114.105864"},{"id":"E45E7DB1786B6324","name":"青衣站(落客站) (TY920)","lat":"22.359924","long":"114.107953"}],"routeId":"249M","description":"正常班次"}]