[{"company":"kmb","route":"251M","routeType":"1","dir":"O","orig":"上村","dest":"荃灣站","stopList":[{"id":"92B983D6E149A880","name":"上村總站 (YL872)","lat":"22.432100","long":"114.103279"},{"id":"0E7D925FC7469830","name":"八鄉古廟 (YL721)","lat":"22.432645","long":"114.102618"},{"id":"22D8393C78C95BBC","name":"磚窰 (YL722)","lat":"22.434615","long":"114.101651"},{"id":"13362EE5DC44432F","name":"芝麻嶺 (YL723)","lat":"22.437643","long":"114.097938"},{"id":"11387D20F8DCA372","name":"羅屋村 (YL724)","lat":"22.439335","long":"114.093261"},{"id":"F853FAA669228E41","name":"八鄉警署 (YL725)","lat":"22.440998","long":"114.089028"},{"id":"6B35AF30748EDA1B","name":"石崗菜站 (YL726)","lat":"22.441636","long":"114.086366"},{"id":"2D10E16919B5A96E","name":"八鄉石崗橋 (YL727)","lat":"22.440583","long":"114.079044"},{"id":"F0D6CB5F04988EA4","name":"錦田診所 (YL728)","lat":"22.440051","long":"114.074343"},{"id":"3291342581C48037","name":"大江埔 (YL729)","lat":"22.439722","long":"114.069489"},{"id":"D1C1E33BB9350C65","name":"錦田 (YL730)","lat":"22.439602","long":"114.066792"},{"id":"F6FDEAF741BFBD2E","name":"錦田街市 (YL731)","lat":"22.439869","long":"114.065372"},{"id":"1345D70225C59BD3","name":"吉慶圍 (YL732)","lat":"22.440040","long":"114.062414"},{"id":"3210F3BCFFD74E61","name":"蒙養小學 (YL733)","lat":"22.439838","long":"114.061013"},{"id":"3ECEF3B735084236","name":"大欖隧道轉車站 (A5) (YL791)","lat":"22.420685","long":"114.064379"},{"id":"7E2E1F1269E520DE","name":"大欖隧道轉車站 (A4) (YL792)","lat":"22.420094","long":"114.064395"},{"id":"D893FD9E88E2A98D","name":"荃景圍天橋 (TW376)","lat":"22.375764","long":"114.107846"},{"id":"40A0B70767CA3F13","name":"愉景新城 (TW384)","lat":"22.374967","long":"114.113022"},{"id":"F8D8D0AED9889278","name":"荃灣站 (TW386)","lat":"22.374084","long":"114.115113"}],"routeId":"251M","description":"正常班次"}]