[{"company":"kmb","route":"260R","routeType":"1","dir":"O","orig":"紅磡香港體育館","dest":"屯門(兆康苑)","stopList":[{"id":"1CCE3BEA08B61A96","name":"香港體育館","lat":"22.301962","long":"114.181147"},{"id":"DB516EC0B8DAF046","name":"屯門公路轉車站 (B9)","lat":"22.357963","long":"114.019237"},{"id":"28C36BBE416103C2","name":"屯門市廣場","lat":"22.393195","long":"113.976794"},{"id":"BC301D7E7F063331","name":"新墟街市","lat":"22.398858","long":"113.976525"},{"id":"CBE54DB551C24A02","name":"紅橋","lat":"22.402437","long":"113.977155"},{"id":"629D4E7DD9EF1AC6","name":"大興體育館","lat":"22.404141","long":"113.972812"},{"id":"B3B160F8F8017035","name":"翠林花園","lat":"22.401024","long":"113.972097"},{"id":"6AE148CA74FC4D53","name":"大興街","lat":"22.400776","long":"113.968315"},{"id":"C192BEF2264E0CC6","name":"石排站","lat":"22.401910","long":"113.967871"},{"id":"542CC0EC83BAEA01","name":"新圍苑","lat":"22.405362","long":"113.964142"},{"id":"840532B7C95DF870","name":"兆邦苑","lat":"22.407738","long":"113.965595"},{"id":"2F5F973821A594A9","name":"寶田轉車站 - 寶田 (T1)","lat":"22.409510","long":"113.967056"},{"id":"EDF4C2EAFDBD4693","name":"大興警署","lat":"22.407849","long":"113.970585"},{"id":"12CF2025741EF844","name":"麒麟圍","lat":"22.410727","long":"113.976479"},{"id":"580D52F4D93CAD9B","name":"欣田邨","lat":"22.413767","long":"113.976890"},{"id":"503B8E06FF5253B5","name":"兆康苑總站","lat":"22.414301","long":"113.978906"}],"routeId":"260R","description":"正常班次"}]