[{"company":"kmb","route":"263A","routeType":"1","dir":"O","orig":"屯門站","dest":"香港科學園","stopList":[{"id":"584E6744385F6463","name":"屯門站總站 (V5)","lat":"22.394975","long":"113.973399"},{"id":"0E5FDDFE21A01A0D","name":"屯門市中心總站","lat":"22.391229","long":"113.975904"},{"id":"1EF537D7BC3286E1","name":"安定邨","lat":"22.387989","long":"113.975338"},{"id":"07B714029E91FD81","name":"兆麟苑","lat":"22.384918","long":"113.975370"},{"id":"123A364D76B2CE5D","name":"豐景園","lat":"22.383823","long":"113.972824"},{"id":"376C4835851621D4","name":"屯門公路轉車站 (A15)","lat":"22.362928","long":"114.015522"},{"id":"1D5D89F395EA4948","name":"屯門公路轉車站 (A1)","lat":"22.362131","long":"114.016263"},{"id":"91481C9100917BA7","name":"沙田第一城","lat":"22.389405","long":"114.203110"},{"id":"8ECFB7DFFC0023DA","name":"石門轉車站 - 濱景花園 (N1)","lat":"22.391566","long":"114.206129"},{"id":"548DB838B4673D93","name":"大學站","lat":"22.412633","long":"114.210648"},{"id":"739A5DDE0CF1970C","name":"馬料水公眾碼頭","lat":"22.415908","long":"114.213778"},{"id":"9E95343C77BB85E2","name":"水上活動中心","lat":"22.420023","long":"114.214250"},{"id":"F808AF482CCA028E","name":"香港生物科技研究院","lat":"22.422518","long":"114.213925"},{"id":"9C6800DD6E0CD683","name":"香港科學園","lat":"22.424662","long":"114.212396"},{"id":"6E821768CA09E8C9","name":"香港科學園第三期","lat":"22.426589","long":"114.209304"}],"routeId":"263A","description":"正常班次"},{"company":"kmb","route":"263A","routeType":"1","dir":"I","orig":"香港科學園","dest":"屯門站","stopList":[{"id":"27F96537744C6792","name":"香港科學園第三期","lat":"22.426589","long":"114.209304"},{"id":"5C2A974134634635","name":"科學園(第一期)","lat":"22.424272","long":"114.211589"},{"id":"A0D379E172F5BC93","name":"香港生物科技研究院","lat":"22.422664","long":"114.214179"},{"id":"853CD1316EB5227B","name":"水上活動中心","lat":"22.418662","long":"114.214271"},{"id":"BE6EC9708F5FB613","name":"馬料水公眾碼頭","lat":"22.416027","long":"114.213945"},{"id":"548DB838B4673D93","name":"大學站","lat":"22.412633","long":"114.210648"},{"id":"823E3EE2413E40E2","name":"石門轉車站-新界鄉議局大樓 (S2)","lat":"22.391352","long":"114.206356"},{"id":"45AB0EC4F195CA7A","name":"沙田第一城","lat":"22.388409","long":"114.201794"},{"id":"620E14F31DA31490","name":"城門隧道轉車站 (B6)","lat":"22.381181","long":"114.138129"},{"id":"5FDA47671B5557B3","name":"城門隧道轉車站 (B5)","lat":"22.381418","long":"114.137985"},{"id":"0269A1F9D98C737E","name":"屯門公路轉車站 (B7)","lat":"22.357963","long":"114.019242"},{"id":"47FF0EDCD6926932","name":"屯門公路轉車站 (B5)","lat":"22.358356","long":"114.018872"},{"id":"64312A5DFF11636C","name":"豐景園","lat":"22.384009","long":"113.972822"},{"id":"CB2A65E69B2B71BE","name":"翠寧花園","lat":"22.383922","long":"113.974412"},{"id":"59081A58EA5BC728","name":"友愛邨","lat":"22.387839","long":"113.975112"},{"id":"5D14B75687F60509","name":"屯門公園","lat":"22.392122","long":"113.975127"},{"id":"79D68EE7C6CBAB9D","name":"屯門站總站 (V6)","lat":"22.395081","long":"113.973782"}],"routeId":"263A","description":"正常班次"}]