[{"company":"kmb","route":"263B","routeType":"1","dir":"O","orig":"屯門站","dest":"火炭(山尾街)","stopList":[{"id":"584E6744385F6463","name":"屯門站總站 (V5) (TM955)","lat":"22.394975","long":"113.973399"},{"id":"0E5FDDFE21A01A0D","name":"屯門市中心總站 (TM971)","lat":"22.391229","long":"113.975904"},{"id":"1EF537D7BC3286E1","name":"安定邨 (TM605)","lat":"22.387989","long":"113.975338"},{"id":"07B714029E91FD81","name":"兆麟苑 (TM614)","lat":"22.384918","long":"113.975370"},{"id":"123A364D76B2CE5D","name":"豐景園 (TM620)","lat":"22.383796","long":"113.973641"},{"id":"376C4835851621D4","name":"屯門公路轉車站 (A15) (TM750)","lat":"22.362928","long":"114.015522"},{"id":"1D5D89F395EA4948","name":"屯門公路轉車站 (A1) (TM758)","lat":"22.362131","long":"114.016263"},{"id":"81B719F7DC3F0FAD","name":"城門隧道轉車站 (A5) (TW500)","lat":"22.381888","long":"114.137620"},{"id":"9E8E99C5BB698AC2","name":"城門隧道轉車站 (A4) (TW501)","lat":"22.381827","long":"114.137783"},{"id":"72EE8A033E4260A3","name":"火炭村 (FT100)","lat":"22.393996","long":"114.196606"},{"id":"61A21B70C10E9722","name":"松頭下路 (FT105)","lat":"22.397837","long":"114.193623"},{"id":"7234BEA4242461F7","name":"火炭(山尾街)總站 (FT957)","lat":"22.396452","long":"114.194295"}],"routeId":"263B","description":"正常班次"},{"company":"kmb","route":"263B","routeType":"1","dir":"I","orig":"火炭(山尾街)","dest":"屯門站","stopList":[{"id":"7234BEA4242461F7","name":"火炭(山尾街)總站 (FT957)","lat":"22.396452","long":"114.194295"},{"id":"C458B4A40BFCC4FF","name":"火炭村 (FT526)","lat":"22.394050","long":"114.196846"},{"id":"620E14F31DA31490","name":"城門隧道轉車站 (B6) (TW300)","lat":"22.381181","long":"114.138129"},{"id":"5FDA47671B5557B3","name":"城門隧道轉車站 (B5) (TW301)","lat":"22.381418","long":"114.137985"},{"id":"0269A1F9D98C737E","name":"屯門公路轉車站 (B7) (TM101)","lat":"22.357963","long":"114.019242"},{"id":"47FF0EDCD6926932","name":"屯門公路轉車站 (B5) (TM103)","lat":"22.358356","long":"114.018872"},{"id":"64312A5DFF11636C","name":"豐景園 (TM156)","lat":"22.384009","long":"113.972822"},{"id":"CB2A65E69B2B71BE","name":"翠寧花園 (TM157)","lat":"22.383922","long":"113.974412"},{"id":"59081A58EA5BC728","name":"友愛邨 (TM162)","lat":"22.387839","long":"113.975112"},{"id":"5D14B75687F60509","name":"屯門公園 (TM167)","lat":"22.392122","long":"113.975127"},{"id":"79D68EE7C6CBAB9D","name":"屯門站總站 (V6) (TM954)","lat":"22.395081","long":"113.973782"}],"routeId":"263B","description":"正常班次"}]