[{"company":"kmb","route":"264R","routeType":"1","dir":"O","orig":"天耀","dest":"大埔墟站","stopList":[{"id":"D4377A1796E80098","name":"天耀總站","lat":"22.450692","long":"114.003006"},{"id":"6A90A40248059768","name":"賞湖居","lat":"22.452438","long":"114.001971"},{"id":"48D55BCE2E97E1DE","name":"天水圍公園","lat":"22.454842","long":"114.001827"},{"id":"FBBF4EB577663A13","name":"天瑞邨","lat":"22.456855","long":"113.998947"},{"id":"F97A667725CDEB82","name":"天華邨","lat":"22.460314","long":"113.997000"},{"id":"73FE2D32F218DA9C","name":"天恩邨","lat":"22.464231","long":"113.997238"},{"id":"A264255E81F51111","name":"天澤邨","lat":"22.468122","long":"113.999172"},{"id":"4C86E1F44AE9C25B","name":"香港濕地公園","lat":"22.469846","long":"114.002807"},{"id":"A6C169DA579FC45B","name":"慧景軒","lat":"22.465728","long":"114.005017"},{"id":"308112BE50081258","name":"香港青年協會李兆基書院","lat":"22.463244","long":"114.004080"},{"id":"D2425B7147B58E1D","name":"美湖居","lat":"22.461038","long":"114.004351"},{"id":"A4607B71730E8F46","name":"景湖居","lat":"22.457409","long":"114.005641"},{"id":"1C0A89BD67A4CFF0","name":"鳳池村","lat":"22.446363","long":"114.019325"},{"id":"0D98A0E934584FD0","name":"香港家庭計劃指導會","lat":"22.445861","long":"114.022618"},{"id":"6E85D42922E5A10C","name":"元朗廣場 (N1)","lat":"22.444678","long":"114.023992"},{"id":"D54B0CA58FE5559D","name":"元朗同樂街 (N12)","lat":"22.444616","long":"114.028395"},{"id":"445B2A02DB891CA9","name":"元朗谷亭街 (N14)","lat":"22.444580","long":"114.030435"},{"id":"0C943B7308FF4DCC","name":"形點 II","lat":"22.446616","long":"114.035376"},{"id":"73CDC61EBA1C9431","name":"形點 I","lat":"22.445065","long":"114.036445"},{"id":"399EF919E10C7F33","name":"太和站","lat":"22.450873","long":"114.161011"},{"id":"56F79FB1FC157E22","name":"大埔政府合署","lat":"22.450783","long":"114.164431"},{"id":"95B249916F323BD4","name":"大埔平安里","lat":"22.452587","long":"114.165432"},{"id":"45628FA7B8D7C5D2","name":"大埔安祥路","lat":"22.451613","long":"114.167462"},{"id":"13E458C819D90940","name":"廣福道轉車站 (Y1)","lat":"22.448685","long":"114.166993"},{"id":"3FD481FB9B9DC36C","name":"大埔運頭角里","lat":"22.447394","long":"114.169932"},{"id":"46604706EE6CC765","name":"大埔墟站巴士總站","lat":"22.443620","long":"114.169716"}],"routeId":"264R","description":"正常班次"},{"company":"kmb","route":"264R","routeType":"1","dir":"I","orig":"大埔墟站","dest":"天耀","stopList":[{"id":"8581908CE476D2CF","name":"大埔墟站巴士總站","lat":"22.443672","long":"114.169215"},{"id":"05485C36CA334A81","name":"廣福道轉車站 (A1)","lat":"22.448052","long":"114.168045"},{"id":"DA30F5393480B81D","name":"廣福道轉車站 - 寶鄉橋 (B3)","lat":"22.449903","long":"114.167006"},{"id":"6716018C3EE42733","name":"大埔安祥路","lat":"22.451779","long":"114.167238"},{"id":"1A0BF02F827F6A20","name":"大埔安慈路","lat":"22.452495","long":"114.165632"},{"id":"CCC4773031BC0FD8","name":"太和廣場","lat":"22.450735","long":"114.160718"},{"id":"6A4B371546D489BF","name":"形點 I","lat":"22.444324","long":"114.035984"},{"id":"F63C4B8B958E9830","name":"元朗又新街 (S3)","lat":"22.444298","long":"114.030970"},{"id":"78AD2432201EF5EE","name":"元朗大棠路 (S7)","lat":"22.444342","long":"114.028334"},{"id":"1B0FD9C27F5FE0BE","name":"元朗警署 (S14)","lat":"22.444452","long":"114.023955"},{"id":"A010FE2C473103A8","name":"水邊村","lat":"22.444444","long":"114.021349"},{"id":"70FEB409760C77EE","name":"元朗公園","lat":"22.444092","long":"114.018874"},{"id":"D813C93D9AD1C45B","name":"景湖居","lat":"22.458758","long":"114.005056"},{"id":"7BB395B6FE66E102","name":"麗湖居","lat":"22.460342","long":"114.004668"},{"id":"6D4E7B9D5F9584E7","name":"天晴邨晴雲樓","lat":"22.463713","long":"114.003961"},{"id":"47AB1894215AECEE","name":"慧景軒","lat":"22.465772","long":"114.004797"},{"id":"42AEF6365E78DA56","name":"香港濕地公園","lat":"22.469550","long":"114.002584"},{"id":"8753A8442C2FFF53","name":"天逸邨逸潭樓","lat":"22.468468","long":"113.999554"},{"id":"8D56DB404D264D5A","name":"天富苑欣富閣","lat":"22.464353","long":"113.997530"},{"id":"A00D00FC2F4F8400","name":"天頌苑","lat":"22.461099","long":"113.997082"},{"id":"C052B4D46E1F48EA","name":"天瑞邨","lat":"22.456488","long":"113.999426"},{"id":"AFB9321F7CD2C2E4","name":"天水圍公園","lat":"22.454484","long":"114.002970"},{"id":"7898B605E39613A8","name":"天耀邨耀盛樓","lat":"22.452235","long":"114.002089"},{"id":"D4377A1796E80098","name":"天耀總站","lat":"22.450692","long":"114.003006"}],"routeId":"264R","description":"正常班次"}]