[{"company":"kmb","route":"268","routeType":"1","dir":"O","orig":"攸壆路簡約公屋 (南)","dest":"八鄉路","stopList":[{"id":"D212D9782E80AF47","name":"攸壆路簡約公屋 (南) 總站","lat":"22.475603","long":"114.050735"},{"id":"EC6FDF2670147F12","name":"攸壆路簡約公屋 (北) 總站","lat":"22.479250","long":"114.052849"},{"id":"C6D0AD0AA59CB197","name":"朗廈","lat":"22.469639","long":"114.055544"},{"id":"75BCC884A3620498","name":"壆圍","lat":"22.464859","long":"114.054199"},{"id":"D2FCC678B1D160E1","name":"模範鄉","lat":"22.462004","long":"114.053360"},{"id":"217E82F6FF3F89E3","name":"逢吉鄉","lat":"22.457612","long":"114.052413"},{"id":"BF598D4B90407BB9","name":"沙埔村","lat":"22.452722","long":"114.050990"},{"id":"DB11DC6D1BA11F9A","name":"紅毛橋","lat":"22.447221","long":"114.049498"},{"id":"F5FA7ED5D5A6860D","name":"凹頭","lat":"22.444159","long":"114.048568"},{"id":"D05C7D74301D47C5","name":"下高埔村","lat":"22.442496","long":"114.051608"},{"id":"41C9D989B8B874FF","name":"高埔村","lat":"22.440430","long":"114.056288"},{"id":"4EBE182141C52094","name":"錦上路站","lat":"22.434342","long":"114.064494"},{"id":"E1C5246F946E2D86","name":"錦河路","lat":"22.426675","long":"114.066682"},{"id":"131A8DDFC3837AD7","name":"八鄉路總站 (大欖隧道轉車站-C2)","lat":"22.421375","long":"114.063681"}],"routeId":"268","description":"正常班次"},{"company":"kmb","route":"268","routeType":"1","dir":"I","orig":"八鄉路","dest":"攸壆路簡約公屋 (南)","stopList":[{"id":"131A8DDFC3837AD7","name":"八鄉路總站 (大欖隧道轉車站-C2)","lat":"22.421375","long":"114.063681"},{"id":"80E207687865EDE7","name":"錦河路","lat":"22.424891","long":"114.066581"},{"id":"EFB2FCFCD7E9950A","name":"錦上路站","lat":"22.434342","long":"114.064494"},{"id":"BFCFEBF6F5C35402","name":"高埔村","lat":"22.440176","long":"114.056258"},{"id":"F8B3A5C8D0D3CED7","name":"下高埔村","lat":"22.441913","long":"114.052704"},{"id":"3D5F826FD00C0529","name":"凹頭","lat":"22.443185","long":"114.050075"},{"id":"65F77C74AB618A8D","name":"紅毛橋","lat":"22.446847","long":"114.049298"},{"id":"0492DA388B6FDA92","name":"沙埔村","lat":"22.451451","long":"114.050045"},{"id":"1F5D9F81AB034CAE","name":"逢吉鄉","lat":"22.457859","long":"114.051691"},{"id":"E329DEA067F8BF02","name":"模範鄉","lat":"22.460452","long":"114.052537"},{"id":"14FDBB259636B76C","name":"壆圍","lat":"22.462929","long":"114.053126"},{"id":"B13D9345C84F088E","name":"大生圍","lat":"22.469176","long":"114.054518"},{"id":"ED758B6955F44E30","name":"錦繡花園","lat":"22.472741","long":"114.055239"},{"id":"4D258A35FECA3A0C","name":"竹園村","lat":"22.475901","long":"114.056449"},{"id":"A068B6BB68299035","name":"攸壆路簡約公屋 (北) 總站","lat":"22.479314","long":"114.052982"},{"id":"D212D9782E80AF47","name":"攸壆路簡約公屋 (南) 總站","lat":"22.475603","long":"114.050735"}],"routeId":"268","description":"正常班次"}]