[{"company":"kmb","route":"268A","routeType":"1","dir":"O","orig":"朗屏邨","dest":"觀塘碼頭","stopList":[{"id":"72B24F5DD57E3AE3","name":"朗屏邨總站","lat":"22.450382","long":"114.022806"},{"id":"5A7002CB1DBD5B96","name":"旭日花苑","lat":"22.451304","long":"114.025599"},{"id":"BA60686E2E81F573","name":"德業街","lat":"22.451602","long":"114.030521"},{"id":"93933C15FFC9F4CC","name":"尚豪庭","lat":"22.449239","long":"114.030961"},{"id":"53AC50E46ABDA85B","name":"形點 II","lat":"22.446632","long":"114.035263"},{"id":"30A583775F35FD7D","name":"形點 I","lat":"22.445065","long":"114.036445"},{"id":"3ECEF3B735084236","name":"大欖隧道轉車站 (A5)","lat":"22.420685","long":"114.064379"},{"id":"211D93217331B040","name":"大欖隧道轉車站 (A3)","lat":"22.420003","long":"114.064388"},{"id":"D198122830A4FDE3","name":"畢架山花園","lat":"22.341687","long":"114.167069"},{"id":"99EF4CA10B3E1F17","name":"豐力樓","lat":"22.343140","long":"114.172841"},{"id":"326199D24220A42B","name":"天馬苑","lat":"22.342707","long":"114.186638"},{"id":"C847B9021C407731","name":"龍翔官立中學","lat":"22.342366","long":"114.189837"},{"id":"5536C9E3A0CE1228","name":"黃大仙轉車站 - 黃大仙廟 (B6)","lat":"22.341855","long":"114.192100"},{"id":"96A6FE5F07BDF203","name":"黃大仙轉車站 - 沙田坳道 (A1)","lat":"22.341856","long":"114.195281"},{"id":"5D1E6432755E4F5F","name":"新蒲崗四美街","lat":"22.338682","long":"114.200734"},{"id":"D80313EC29620E1D","name":"彩虹轉車站 - 碧海樓 (M5)","lat":"22.335577","long":"114.204862"},{"id":"D9B53E4B3A192940","name":"啟業邨","lat":"22.330213","long":"114.210981"},{"id":"BC7C325EE59235E4","name":"九龍灣站(東九文化中心)","lat":"22.324048","long":"114.214410"},{"id":"9E256D7EE9FE68BC","name":"牛頭角下邨","lat":"22.321332","long":"114.214686"},{"id":"DF942A6B97EABDC4","name":"觀塘道休憩處","lat":"22.317953","long":"114.215055"},{"id":"5C6F557AA652B05C","name":"觀塘定富街","lat":"22.316392","long":"114.216492"},{"id":"CF579AAA2A4E506C","name":"牛頭角站 (V3)","lat":"22.315213","long":"114.219514"},{"id":"80B56E2C7719DAF4","name":"觀塘轉車站 - 觀塘市中心 (T1)","lat":"22.313016","long":"114.225006"},{"id":"71E3EB7E709522C7","name":"觀塘開源道","lat":"22.309769","long":"114.223892"},{"id":"53FC6F95C61542C1","name":"觀塘碼頭","lat":"22.307853","long":"114.221832"}],"routeId":"268A","description":"正常班次"},{"company":"kmb","route":"268A","routeType":"1","dir":"I","orig":"觀塘碼頭","dest":"朗屏邨","stopList":[{"id":"53FC6F95C61542C1","name":"觀塘碼頭","lat":"22.307853","long":"114.221832"},{"id":"E70EDF92FE8553E2","name":"敬業街","lat":"22.308228","long":"114.225840"},{"id":"D52BE142BBBD69D9","name":"成業街休憩公園","lat":"22.309291","long":"114.228462"},{"id":"2C7BF1ADFCFB5545","name":"觀塘駿業里 (C1)","lat":"22.313599","long":"114.222801"},{"id":"671775E6AF279B42","name":"觀塘轉車站 - 創紀之城 (B2)","lat":"22.314310","long":"114.220732"},{"id":"4B17C55C032D3A37","name":"觀塘定富街","lat":"22.316726","long":"114.215543"},{"id":"266A4CDA19461A42","name":"牛頭角下邨","lat":"22.320432","long":"114.214418"},{"id":"99D25E17B32126B4","name":"九龍灣站","lat":"22.324103","long":"114.214104"},{"id":"1DF17F085C6C1B78","name":"鑽石山站","lat":"22.339029","long":"114.202492"},{"id":"7917BB962CCB11C0","name":"黃大仙轉車站 - 黃大仙廟 (C3)","lat":"22.341481","long":"114.194522"},{"id":"93D9D88C2D990D67","name":"摩士公園泳池","lat":"22.341570","long":"114.191604"},{"id":"60A445D9ACD40C12","name":"永光書院","lat":"22.342346","long":"114.188401"},{"id":"118450CCC68E42C6","name":"豐力樓","lat":"22.342585","long":"114.172991"},{"id":"6AAC8E541D9BD80C","name":"畢架山花園","lat":"22.341649","long":"114.166733"},{"id":"643D73028E9E8490","name":"大欖隧道轉車站 (B5)","lat":"22.420245","long":"114.063487"},{"id":"E481F7170B1F6FC3","name":"大欖隧道轉車站 (B1)","lat":"22.421210","long":"114.063786"},{"id":"14157BA5C06B0B6B","name":"元點 (Y1 月台)","lat":"22.444403","long":"114.034469"},{"id":"21BC36A2065CB667","name":"尚豪庭","lat":"22.449614","long":"114.031081"},{"id":"0D005977F208D030","name":"德業街","lat":"22.451548","long":"114.029261"},{"id":"0CF8C59B80E70369","name":"朗屏邨珠屏樓","lat":"22.451349","long":"114.025322"},{"id":"76DD0B50D30CF140","name":"朗屏邨總站","lat":"22.450969","long":"114.023033"},{"id":"72B24F5DD57E3AE3","name":"朗屏邨總站","lat":"22.450382","long":"114.022806"}],"routeId":"268A","description":"正常班次"}]