[{"company":"gmb","route":"26A","routeType":1,"orig":"黃埔花園公共運輸交匯處","dest":"尖沙咀(廣東道)(循環線)","stopList":[{"id":20000418,"name":"黃埔花園公共運輸交匯處","lat":"22.305158","long":"114.190888"},{"id":20010063,"name":"紅樂道, 近海韻軒","lat":"22.302885","long":"114.185232"},{"id":20006058,"name":"仁勇街, 近香港理工大學學生宿舍胡應湘樓","lat":"22.303777","long":"114.185793"},{"id":20006074,"name":"紅磡南道, 近紅磡南道休憩花園","lat":"22.305285","long":"114.184852"},{"id":20000475,"name":"暢運道, 近紅磡站","lat":"22.303931","long":"114.182785"},{"id":20000685,"name":"柯士甸道, 近好兆年行","lat":"22.303335","long":"114.175195"},{"id":20000478,"name":"柯士甸道, 近耀基大廈","lat":"22.303226","long":"114.172488"},{"id":20000479,"name":"柯士甸道, 近龍堡國際","lat":"22.303027","long":"114.169906"},{"id":20010066,"name":"廣東道, 近港景峰","lat":"22.302129","long":"114.168106"},{"id":20000446,"name":"廣東道, 近中港城第６座","lat":"22.300499","long":"114.168111"},{"id":20010067,"name":"柯士甸道西, 近西九龍站","lat":"22.302507","long":"114.166065"},{"id":20009904,"name":"柯士甸道, 近創德樓","lat":"22.303192","long":"114.169493"},{"id":20000482,"name":"柯士甸道, 近幸運大廈","lat":"22.303244","long":"114.170527"},{"id":20000483,"name":"柯士甸道, 近德信學校","lat":"22.303362","long":"114.172371"},{"id":20000484,"name":"柯士甸道, 近槍會山軍營第１４座","lat":"22.303479","long":"114.175739"},{"id":20010463,"name":"安運道, 近紅磡站","lat":"22.304195","long":"114.181370"},{"id":20000701,"name":"紅磡南道, 近紅磡灣中心","lat":"22.305457","long":"114.185046"},{"id":20018247,"name":"紅磡道, 近民泰街","lat":"22.306275","long":"114.189143"},{"id":20000681,"name":"海逸豪園公共交通總站","lat":"22.307547","long":"114.192174"},{"id":20000418,"name":"黃埔花園公共運輸交匯處","lat":"22.305158","long":"114.190888"}],"routeId":2002846,"description":"額外班次"},{"company":"gmb","route":"26A","routeType":1,"orig":"香港教育大學","dest":"大埔墟(廣福道) (循環線)","stopList":[{"id":20012883,"name":"香港教育大學小巴總站","lat":"22.466244","long":"114.193515"},{"id":20012884,"name":"汀角路, 近大埔工業邨李錦記","lat":"22.458495","long":"114.181112"},{"id":20001217,"name":"汀角路, 近漁角","lat":"22.458064","long":"114.177807"},{"id":20012940,"name":"汀角路西行, 近救恩書院巴士站","lat":"22.456064","long":"114.175993"},{"id":20001219,"name":"汀角路, 怡雅苑","lat":"22.455634","long":"114.173620"},{"id":20001220,"name":"南運路, 新興花園","lat":"22.452871","long":"114.172600"},{"id":20012941,"name":"大埔太和路, 大埔中心對面巴士站","lat":"22.450932","long":"114.169623"},{"id":20002571,"name":"寶鄉橋, 前六鄉新村公立學校對面","lat":"22.450117","long":"114.167295"},{"id":20006553,"name":"廣福道, 近德康樓","lat":"22.448636","long":"114.167208"},{"id":20001222,"name":"廣福道, 近廣福大樓","lat":"22.448166","long":"114.168248"},{"id":20001224,"name":"廣福道, 近運頭角里","lat":"22.447362","long":"114.169880"},{"id":20012890,"name":"大埔公路, 廣福邨外迴旋處巴士站","lat":"22.446517","long":"114.173578"},{"id":20008787,"name":"大埔公路, 近廣福公園巴士站","lat":"22.446692","long":"114.171378"},{"id":20012887,"name":"廣福道, 近廣福大廈巴士站","lat":"22.448263","long":"114.167637"},{"id":20002523,"name":"寶鄉街, 近寶鄉橋休憩處","lat":"22.450369","long":"114.167130"},{"id":20001243,"name":"大埔太和路, 大埔中心外","lat":"22.451237","long":"114.169802"},{"id":20012892,"name":"南運路, 大埔超級城","lat":"22.452819","long":"114.172395"},{"id":20012943,"name":"汀角路, 近中華聖潔會靈風中學","lat":"22.455972","long":"114.173280"},{"id":20012939,"name":"香港教育大學小巴總站","lat":"22.466223","long":"114.193431"}],"routeId":2005222,"description":"正常班次"}]