[{"company":"gmb","route":"26H","routeType":1,"orig":"伊利沙伯醫院","dest":"紅磡站(循環線)","stopList":[{"id":20007612,"name":"南丁格爾路, 近伊利沙伯醫院Ｍ座","lat":"22.308936","long":"114.173956"},{"id":20010466,"name":"覺士道, 近嘉文花園","lat":"22.305728","long":"114.173245"},{"id":20000700,"name":"柯士甸道, 近柯士甸道變電站","lat":"22.303470","long":"114.175283"},{"id":20010463,"name":"安運道, 近紅磡站","lat":"22.304195","long":"114.181370"},{"id":20000475,"name":"暢運道, 近紅磡站","lat":"22.303931","long":"114.182785"},{"id":20000476,"name":"柯士甸道, 近花園大廈","lat":"22.303344","long":"114.175496"},{"id":20007612,"name":"南丁格爾路, 近伊利沙伯醫院Ｍ座","lat":"22.308936","long":"114.173956"}],"routeId":2002849,"description":"額外班次"}]