[{"company":"gmb","route":"26H","routeType":1,"orig":"伊利沙伯醫院","dest":"紅磡站(循環線)","stopList":[{"id":20007612,"name":"南丁格爾路, 近伊利沙伯醫院Ｍ座","lat":22.30893577592966,"long":114.1739556311499},{"id":20010466,"name":"覺士道, 近嘉文花園","lat":22.305728449071232,"long":114.17324513196948},{"id":20000700,"name":"柯士甸道, 近柯士甸道變電站","lat":22.303470105918045,"long":114.17528275752422},{"id":20007613,"name":"暢運道, 近香港理工大學鍾士元樓","lat":22.30277475243811,"long":114.17792247617253},{"id":20010463,"name":"安運道, 近紅磡站","lat":22.304194871132115,"long":114.18136954307558},{"id":20000475,"name":"暢運道, 近紅磡站","lat":22.303930565178085,"long":114.1827846399132},{"id":20000476,"name":"柯士甸道, 近花園大廈","lat":22.303343679241806,"long":114.17549626581663},{"id":20007612,"name":"南丁格爾路, 近伊利沙伯醫院Ｍ座","lat":22.30893577592966,"long":114.1739556311499}],"routeId":2002849,"description":"額外班次"}]