[{"company":"kmb","route":"26M","routeType":"1","dir":"O","orig":"彩虹","dest":"觀塘(循環線)","stopList":[{"id":"2CFA2F3EA6304C56","name":"彩虹轉車站 - 彩虹總站 (WT993)","lat":"22.335886","long":"114.204223"},{"id":"4513DF30B4CBA349","name":"牛池灣轉車站 - 牛池灣街市","lat":"22.334284","long":"114.209224"},{"id":"F065C32E9D2CB689","name":"牛池灣轉車站 - 彩雲聖若瑟","lat":"22.334412","long":"114.211700"},{"id":"9A16E73DC0B9AF6C","name":"白虹樓 (WT232)","lat":"22.332611","long":"114.215605"},{"id":"942084E1090F193E","name":"利明樓","lat":"22.331600","long":"114.224738"},{"id":"A0AB9A2B2D648FF5","name":"利康樓 (KT161)","lat":"22.330415","long":"114.225940"},{"id":"484F835517494767","name":"安逸樓 (KT422)","lat":"22.328625","long":"114.227099"},{"id":"6E113B962058A553","name":"順天總站 (KT852)","lat":"22.326367","long":"114.226727"},{"id":"E308599CF719FE37","name":"天韻樓 (KT430)","lat":"22.326009","long":"114.228653"},{"id":"6765DD696FA8BF8D","name":"寧波第二中學 (KT504)","lat":"22.323885","long":"114.227862"},{"id":"DD5B5646768C5F09","name":"聯合醫院 (KT531)","lat":"22.322105","long":"114.226132"},{"id":"7ABD55FC15C048F0","name":"秀雅道遊樂場 (KT532)","lat":"22.321051","long":"114.226779"},{"id":"073C44CE5FF431BC","name":"和樂邨 (KT535)","lat":"22.317237","long":"114.226791"},{"id":"B5CB3F0D26BBBD03","name":"觀塘同仁街 (KT538)","lat":"22.313363","long":"114.226412"},{"id":"B314CF2831F9C5F1","name":"和樂邨 (KT258)","lat":"22.317052","long":"114.226492"},{"id":"E61F9EA5AEE1EFE0","name":"聯合醫院 (KT262)","lat":"22.322257","long":"114.225928"},{"id":"0511A6AC2CBC9A21","name":"寧波第二中學 (KT170)","lat":"22.324359","long":"114.228816"},{"id":"2CFCDB6EA2892637","name":"順天總站 (KT851)","lat":"22.326262","long":"114.226668"},{"id":"616FE33CD20DB62E","name":"順安邨 (KT176)","lat":"22.328381","long":"114.226851"},{"id":"CEFFBCE5203D152B","name":"利業樓 (KT179)","lat":"22.331649","long":"114.226061"},{"id":"8571BCC3A3E4006E","name":"利恒樓 (KT182)","lat":"22.333006","long":"114.224248"},{"id":"D9896F1A5B7C97C0","name":"順利消防局 (KT183)","lat":"22.331782","long":"114.222608"},{"id":"3BA9C90738A8600D","name":"白虹樓 (WT615)","lat":"22.332289","long":"114.215322"},{"id":"54733D2BB5BE7121","name":"牛池灣轉車站 - 彩虹站 (WT895)","lat":"22.334196","long":"114.210123"},{"id":"917DF4AF0ED7B258","name":"牛池灣轉車站 - 丹鳳樓 (WT701)","lat":"22.335294","long":"114.207582"},{"id":"2CFA2F3EA6304C56","name":"彩虹轉車站 - 彩虹總站 (WT993)","lat":"22.335886","long":"114.204223"}],"routeId":"26M","description":"正常班次"}]