[{"company":"kmb","route":"270B","routeType":"1","dir":"O","orig":"上水","dest":"奧運站","stopList":[{"id":"CF0C67920B22ED62","name":"上水轉車站 - 上水總站(A4)","lat":"22.502536","long":"114.128204"},{"id":"CF94083CB24CF4E5","name":"祥龍圍邨 (ND110)","lat":"22.495937","long":"114.125205"},{"id":"4A76CDB32FA69BC6","name":"御皇庭 (ND115)","lat":"22.494589","long":"114.126142"},{"id":"6F11F73C749338DB","name":"御景峰 (ND117)","lat":"22.495680","long":"114.128132"},{"id":"98EBAB9468C80DD2","name":"欣翠花園 (ND126)","lat":"22.495428","long":"114.131869"},{"id":"6DD6B837EF1FA76C","name":"嘉盛苑 (ND128)","lat":"22.492421","long":"114.133535"},{"id":"AFD29CB1A4F71AB9","name":"基新中學 (ND132)","lat":"22.491214","long":"114.134960"},{"id":"60952B4A38F3D82E","name":"粉嶺站轉車站 - 粉嶺站(D1)","lat":"22.490997","long":"114.138959"},{"id":"0E41E02CD9055626","name":"景盛苑 (ND138)","lat":"22.487331","long":"114.140641"},{"id":"EE81A30BE4BDC8AC","name":"華心邨 (ND141)","lat":"22.485511","long":"114.142649"},{"id":"F129DD8D9E3268FB","name":"華明轉車站(C4) (ND987)","lat":"22.484411","long":"114.141410"},{"id":"2129B2A72F881300","name":"欣盛苑 (ND394)","lat":"22.487137","long":"114.140405"},{"id":"FA52803E2628A212","name":"牽晴間 (ND151)","lat":"22.486635","long":"114.143349"},{"id":"E6022594DB48E35B","name":"粉嶺公路轉車站(A3) (TP101)","lat":"22.484781","long":"114.152709"},{"id":"480DB16994F8FFEE","name":"青沙公路轉車站 (TA750)","lat":"22.358632","long":"114.163389"},{"id":"FD8181D7574BB373","name":"青沙公路轉車站 (A2) (TA754)","lat":"22.358355","long":"114.163224"},{"id":"F1DE119543E382D9","name":"碧海藍天 (SS671)","lat":"22.332482","long":"114.149092"},{"id":"A6013462EAC8AA50","name":"長沙灣光昌街 (SS468)","lat":"22.338442","long":"114.151193"},{"id":"DAE9E14BA67CEC80","name":"長沙灣興華街 (SS475)","lat":"22.337851","long":"114.153289"},{"id":"3A5C336CCB38A3FA","name":"元州邨 (SS479)","lat":"22.335758","long":"114.155971"},{"id":"8CE4B83B45F22F1F","name":"九龍工業學校 (SS481)","lat":"22.333804","long":"114.158553"},{"id":"89F6B64B28A21D34","name":"深水埗基隆街 (SS183)","lat":"22.330174","long":"114.159747"},{"id":"18A85DD43DFA12AF","name":"深水埗北河街 (SS636)","lat":"22.328811","long":"114.160393"},{"id":"C4B0E899FAE72350","name":"石硤尾街 (SS640)","lat":"22.327291","long":"114.162357"},{"id":"8C7C1212A1196A1A","name":"深水埗白楊街 (SS644)","lat":"22.324967","long":"114.165341"},{"id":"996EC6B4E40A2E4A","name":"弼街 (MK700)","lat":"22.322300","long":"114.167583"},{"id":"5CA7841E84D52C8A","name":"旺角街市, 地區康健中心 (MK627)","lat":"22.318768","long":"114.166977"},{"id":"22138E6C8051FDBD","name":"銘基書院 (MK631)","lat":"22.318555","long":"114.164859"},{"id":"17B8C938E2E113D0","name":"奧運站巴士總站 (MK926)","lat":"22.318879","long":"114.160753"}],"routeId":"270B","description":"正常班次"},{"company":"kmb","route":"270B","routeType":"2","dir":"O","orig":"上水","dest":"富榮花園","stopList":[{"id":"CF0C67920B22ED62","name":"上水轉車站 - 上水總站(A4)","lat":"22.502536","long":"114.128204"},{"id":"CF94083CB24CF4E5","name":"祥龍圍邨 (ND110)","lat":"22.495937","long":"114.125205"},{"id":"4A76CDB32FA69BC6","name":"御皇庭 (ND115)","lat":"22.494589","long":"114.126142"},{"id":"6F11F73C749338DB","name":"御景峰 (ND117)","lat":"22.495680","long":"114.128132"},{"id":"98EBAB9468C80DD2","name":"欣翠花園 (ND126)","lat":"22.495428","long":"114.131869"},{"id":"6DD6B837EF1FA76C","name":"嘉盛苑 (ND128)","lat":"22.492421","long":"114.133535"},{"id":"AFD29CB1A4F71AB9","name":"基新中學 (ND132)","lat":"22.491214","long":"114.134960"},{"id":"60952B4A38F3D82E","name":"粉嶺站轉車站 - 粉嶺站(D1)","lat":"22.490997","long":"114.138959"},{"id":"0E41E02CD9055626","name":"景盛苑 (ND138)","lat":"22.487331","long":"114.140641"},{"id":"EE81A30BE4BDC8AC","name":"華心邨 (ND141)","lat":"22.485511","long":"114.142649"},{"id":"F129DD8D9E3268FB","name":"華明轉車站(C4) (ND987)","lat":"22.484411","long":"114.141410"},{"id":"FA52803E2628A212","name":"牽晴間 (ND151)","lat":"22.486635","long":"114.143349"},{"id":"E6022594DB48E35B","name":"粉嶺公路轉車站(A3) (TP101)","lat":"22.484781","long":"114.152709"},{"id":"480DB16994F8FFEE","name":"青沙公路轉車站 (TA750)","lat":"22.358632","long":"114.163389"},{"id":"FD8181D7574BB373","name":"青沙公路轉車站 (A2) (TA754)","lat":"22.358355","long":"114.163224"},{"id":"F1DE119543E382D9","name":"碧海藍天 (SS671)","lat":"22.332482","long":"114.149092"},{"id":"A6013462EAC8AA50","name":"長沙灣光昌街 (SS468)","lat":"22.338442","long":"114.151193"},{"id":"DAE9E14BA67CEC80","name":"長沙灣興華街 (SS475)","lat":"22.337851","long":"114.153289"},{"id":"3A5C336CCB38A3FA","name":"元州邨 (SS479)","lat":"22.335758","long":"114.155971"},{"id":"8CE4B83B45F22F1F","name":"九龍工業學校 (SS481)","lat":"22.333804","long":"114.158553"},{"id":"89F6B64B28A21D34","name":"深水埗基隆街 (SS183)","lat":"22.330174","long":"114.159747"},{"id":"18A85DD43DFA12AF","name":"深水埗北河街 (SS636)","lat":"22.328811","long":"114.160393"},{"id":"C4B0E899FAE72350","name":"石硤尾街 (SS640)","lat":"22.327291","long":"114.162357"},{"id":"8C7C1212A1196A1A","name":"深水埗白楊街 (SS644)","lat":"22.324967","long":"114.165341"},{"id":"996EC6B4E40A2E4A","name":"弼街 (MK700)","lat":"22.322300","long":"114.167583"},{"id":"5CA7841E84D52C8A","name":"旺角街市, 地區康健中心 (MK627)","lat":"22.318768","long":"114.166977"},{"id":"22138E6C8051FDBD","name":"銘基書院 (MK631)","lat":"22.318555","long":"114.164859"},{"id":"F5098BFD784B8FAB","name":"海富苑 柏景灣 (MK121)","lat":"22.316217","long":"114.163941"},{"id":"1C7C526A52EF9171","name":"富榮花園 (MK122)","lat":"22.313988","long":"114.164449"}],"routeId":"270B","description":"特別班次"},{"company":"kmb","route":"270B","routeType":"1","dir":"I","orig":"奧運站","dest":"上水","stopList":[{"id":"17B8C938E2E113D0","name":"奧運站巴士總站 (MK926)","lat":"22.318879","long":"114.160753"},{"id":"E6915B4BA88D2DB5","name":"富貴街 (MK201)","lat":"22.318725","long":"114.161875"},{"id":"A7F35DC09E1A1528","name":"櫸樹街 (MK140)","lat":"22.319354","long":"114.162802"},{"id":"D242B538BA760551","name":"旺角道 (MK330)","lat":"22.320510","long":"114.166622"},{"id":"11ED493F674F4888","name":"弼街,始創中心 (MK179)","lat":"22.321489","long":"114.168771"},{"id":"704AF52FDCA7AE1B","name":"太子站,旺角花墟 (MK188)","lat":"22.325767","long":"114.167890"},{"id":"BE1A19A3705F5B70","name":"深水埗黃竹街 (SS202)","lat":"22.328683","long":"114.164710"},{"id":"C13E41666B5A1394","name":"深水埗北河街 (SS207)","lat":"22.330543","long":"114.162338"},{"id":"1A85B99EDE6D01D8","name":"怡閣苑 (SS218)","lat":"22.333414","long":"114.158573"},{"id":"04FC6E130D4953F4","name":"長沙灣遊樂場 (SS227)","lat":"22.335618","long":"114.155787"},{"id":"EEBBD352B7F16E3F","name":"長沙灣徑 (SS233)","lat":"22.338147","long":"114.151104"},{"id":"01E580BD435E9301","name":"長沙灣長荔街 (SS244)","lat":"22.336916","long":"114.147431"},{"id":"B4F2BAAED2470D0A","name":"饒宗頤文化館 (KW120)","lat":"22.337160","long":"114.142131"},{"id":"3F21ED54F86D9B1D","name":"青沙公路轉車站 (TA290)","lat":"22.360275","long":"114.162760"},{"id":"2F202818B5A6F424","name":"青沙公路轉車站 (B1) (TA296)","lat":"22.360835","long":"114.163009"},{"id":"14BDB94A8F3ED3EC","name":"花都廣場 (ND391)","lat":"22.485231","long":"114.142756"},{"id":"D0FB28B8EED62431","name":"欣盛苑 (ND395)","lat":"22.487155","long":"114.140452"},{"id":"C7120BD9A94B4F6A","name":"粉嶺站轉車站 - 蓬瀛仙館 (D2)","lat":"22.491045","long":"114.138414"},{"id":"825199DC3BC0C5A3","name":"基新中學 (ND399)","lat":"22.490943","long":"114.135133"},{"id":"ADB9356BBF06F7C7","name":"嘉盛苑 (ND401)","lat":"22.492093","long":"114.133240"},{"id":"8E3F5AE0A97053F9","name":"華慧園 (ND403)","lat":"22.495493","long":"114.130967"},{"id":"68C7CBB4CAB9FE69","name":"清河邨 (ND415)","lat":"22.494671","long":"114.127659"},{"id":"9CD9BFAE2BC91336","name":"曾梅千禧學校 (ND417)","lat":"22.494309","long":"114.125098"},{"id":"1BA6858FEF337645","name":"北區醫院 (ND426)","lat":"22.496035","long":"114.125186"},{"id":"396DD38F2E41E117","name":"上水官立中學 (ND125)","lat":"22.496312","long":"114.128526"},{"id":"D876A83244ECB838","name":"上水轉車站 - 上水站(B5)","lat":"22.501988","long":"114.127349"},{"id":"CF0C67920B22ED62","name":"上水轉車站 - 上水總站(A4)","lat":"22.502536","long":"114.128204"}],"routeId":"270B","description":"正常班次"},{"company":"kmb","route":"270B","routeType":"2","dir":"I","orig":"深水埗","dest":"上水","stopList":[{"id":"C13E41666B5A1394","name":"深水埗北河街 (SS207)","lat":"22.330543","long":"114.162338"},{"id":"1A85B99EDE6D01D8","name":"怡閣苑 (SS218)","lat":"22.333414","long":"114.158573"},{"id":"04FC6E130D4953F4","name":"長沙灣遊樂場 (SS227)","lat":"22.335618","long":"114.155787"},{"id":"EEBBD352B7F16E3F","name":"長沙灣徑 (SS233)","lat":"22.338147","long":"114.151104"},{"id":"01E580BD435E9301","name":"長沙灣長荔街 (SS244)","lat":"22.336916","long":"114.147431"},{"id":"B4F2BAAED2470D0A","name":"饒宗頤文化館 (KW120)","lat":"22.337160","long":"114.142131"},{"id":"3F21ED54F86D9B1D","name":"青沙公路轉車站 (TA290)","lat":"22.360275","long":"114.162760"},{"id":"2F202818B5A6F424","name":"青沙公路轉車站 (B1) (TA296)","lat":"22.360835","long":"114.163009"},{"id":"14BDB94A8F3ED3EC","name":"花都廣場 (ND391)","lat":"22.485231","long":"114.142756"},{"id":"D0FB28B8EED62431","name":"欣盛苑 (ND395)","lat":"22.487155","long":"114.140452"},{"id":"C7120BD9A94B4F6A","name":"粉嶺站轉車站 - 蓬瀛仙館 (D2)","lat":"22.491045","long":"114.138414"},{"id":"825199DC3BC0C5A3","name":"基新中學 (ND399)","lat":"22.490943","long":"114.135133"},{"id":"ADB9356BBF06F7C7","name":"嘉盛苑 (ND401)","lat":"22.492093","long":"114.133240"},{"id":"8E3F5AE0A97053F9","name":"華慧園 (ND403)","lat":"22.495493","long":"114.130967"},{"id":"68C7CBB4CAB9FE69","name":"清河邨 (ND415)","lat":"22.494671","long":"114.127659"},{"id":"9CD9BFAE2BC91336","name":"曾梅千禧學校 (ND417)","lat":"22.494309","long":"114.125098"},{"id":"1BA6858FEF337645","name":"北區醫院 (ND426)","lat":"22.496035","long":"114.125186"},{"id":"396DD38F2E41E117","name":"上水官立中學 (ND125)","lat":"22.496312","long":"114.128526"},{"id":"D876A83244ECB838","name":"上水轉車站 - 上水站(B5)","lat":"22.501988","long":"114.127349"},{"id":"CF0C67920B22ED62","name":"上水轉車站 - 上水總站(A4)","lat":"22.502536","long":"114.128204"}],"routeId":"270B","description":"特別班次"},{"company":"kmb","route":"270B","routeType":"3","dir":"I","orig":"奧運站","dest":"上水","stopList":[{"id":"17B8C938E2E113D0","name":"奧運站巴士總站 (MK926)","lat":"22.318879","long":"114.160753"},{"id":"E6915B4BA88D2DB5","name":"富貴街 (MK201)","lat":"22.318725","long":"114.161875"},{"id":"A7F35DC09E1A1528","name":"櫸樹街 (MK140)","lat":"22.319354","long":"114.162802"},{"id":"D242B538BA760551","name":"旺角道 (MK330)","lat":"22.320510","long":"114.166622"},{"id":"11ED493F674F4888","name":"弼街,始創中心 (MK179)","lat":"22.321489","long":"114.168771"},{"id":"704AF52FDCA7AE1B","name":"太子站,旺角花墟 (MK188)","lat":"22.325767","long":"114.167890"},{"id":"BE1A19A3705F5B70","name":"深水埗黃竹街 (SS202)","lat":"22.328683","long":"114.164710"},{"id":"C13E41666B5A1394","name":"深水埗北河街 (SS207)","lat":"22.330543","long":"114.162338"},{"id":"1A85B99EDE6D01D8","name":"怡閣苑 (SS218)","lat":"22.333414","long":"114.158573"},{"id":"04FC6E130D4953F4","name":"長沙灣遊樂場 (SS227)","lat":"22.335618","long":"114.155787"},{"id":"EEBBD352B7F16E3F","name":"長沙灣徑 (SS233)","lat":"22.338147","long":"114.151104"},{"id":"01E580BD435E9301","name":"長沙灣長荔街 (SS244)","lat":"22.336916","long":"114.147431"},{"id":"B4F2BAAED2470D0A","name":"饒宗頤文化館 (KW120)","lat":"22.337160","long":"114.142131"},{"id":"3F21ED54F86D9B1D","name":"青沙公路轉車站 (TA290)","lat":"22.360275","long":"114.162760"},{"id":"2F202818B5A6F424","name":"青沙公路轉車站 (B1) (TA296)","lat":"22.360835","long":"114.163009"},{"id":"D876A83244ECB838","name":"上水轉車站 - 上水站(B5)","lat":"22.501988","long":"114.127349"},{"id":"CF0C67920B22ED62","name":"上水轉車站 - 上水總站(A4)","lat":"22.502536","long":"114.128204"}],"routeId":"270B","description":"特別班次"}]