[{"company":"kmb","route":"270R","routeType":"1","dir":"O","orig":"紅磡香港體育館","dest":"粉嶺(聯和墟)","stopList":[{"id":"0A3466DCC6F4196C","name":"香港體育館","lat":"22.301962","long":"114.181147"},{"id":"E3B0A57678CFD140","name":"大欖隧道轉車站 (B4) (YL233)","lat":"22.421069","long":"114.063773"},{"id":"3106E04BB81D74A8","name":"新田運輸交匯處 (YL995)","lat":"22.503140","long":"114.082376"},{"id":"8717C0140C940AE3","name":"大頭嶺 (ND100)","lat":"22.502310","long":"114.123417"},{"id":"093289C2E4F6F408","name":"彩蒲苑彩碧閣 (ND105)","lat":"22.502927","long":"114.124698"},{"id":"3FAC6C2592812331","name":"上水轉車站 - 上水站(D1)","lat":"22.500883","long":"114.127921"},{"id":"396DD38F2E41E117","name":"上水官立中學 (ND125)","lat":"22.496312","long":"114.128526"},{"id":"98EBAB9468C80DD2","name":"欣翠花園 (ND126)","lat":"22.495428","long":"114.131869"},{"id":"6DD6B837EF1FA76C","name":"嘉盛苑 (ND128)","lat":"22.492421","long":"114.133535"},{"id":"AFD29CB1A4F71AB9","name":"基新中學 (ND132)","lat":"22.491214","long":"114.134960"},{"id":"65ECD19EFD09FB74","name":"粉嶺站轉車站 - 粉嶺站(D1)","lat":"22.491067","long":"114.138870"},{"id":"D67917549F3DC8A3","name":"景盛苑 (ND136)","lat":"22.487472","long":"114.140579"},{"id":"6633B4885C8A3EE7","name":"華心邨 (ND139)","lat":"22.485511","long":"114.142649"},{"id":"0F3FA9B7D07A91F3","name":"塘坑 (ND450)","lat":"22.490759","long":"114.145622"},{"id":"C837C3C549793472","name":"粉嶺中心 (ND470)","lat":"22.490874","long":"114.142257"},{"id":"2AC85D87661D5AF6","name":"粉嶺站轉車站 - 粉嶺名都 (B1)","lat":"22.492326","long":"114.140070"},{"id":"000CFEE2F92DC17B","name":"粉嶺樓 (ND261)","lat":"22.495982","long":"114.141578"},{"id":"53BB93AAB2D45F3B","name":"聯和墟球場 (ND263)","lat":"22.497484","long":"114.143070"},{"id":"E057FE733052DDD7","name":"聯和墟總站 (ND963)","lat":"22.500346","long":"114.143625"}],"routeId":"270R","description":"正常班次"}]