[{"company":"kmb","route":"271S","routeType":"1","dir":"O","orig":"紅磡站","dest":"大埔(太和)","stopList":[{"id":"F5D322119DCA0F5A","name":"紅磡站總站","lat":"22.303784","long":"114.182532"},{"id":"FE2815CBCD21C57C","name":"香港歷史博物館","lat":"22.302694","long":"114.177430"},{"id":"F2508598F5A43655","name":"香港科學館","lat":"22.301061","long":"114.176514"},{"id":"3313287185163530","name":"尖沙咀麼地道","lat":"22.298540","long":"114.175858"},{"id":"9CAF2FDA35EEF9E2","name":"尖東站 K11 MUSEA","lat":"22.294850","long":"114.174588"},{"id":"940A31DA2A6051A9","name":"尖沙咀轉車站 - 半島酒店 (N1)","lat":"22.295138","long":"114.172249"},{"id":"62958067B9C06318","name":"九龍清真寺 (N10)","lat":"22.298903","long":"114.171945"},{"id":"5419928D472EAD8D","name":"栢麗購物大道 (N13)","lat":"22.301864","long":"114.171726"},{"id":"4624AC39DB25D456","name":"油麻地寧波街 (N29)","lat":"22.306923","long":"114.171377"},{"id":"2DB47A3C263E4F5C","name":"九龍中央郵政局 (N30)","lat":"22.308904","long":"114.171181"},{"id":"088B858E4B54D8AC","name":"油麻地文明里 (N41)","lat":"22.311337","long":"114.170814"},{"id":"05D8591BD5405ED4","name":"旺角長沙街 (N53)","lat":"22.315851","long":"114.169933"},{"id":"258EDF9D3C3FD200","name":"旺角奶路臣街 (N62)","lat":"22.317993","long":"114.169513"},{"id":"DE27CD3EB0AF43D8","name":"旺角道 花園街街市","lat":"22.321077","long":"114.169853"},{"id":"48E5A1EED91712EE","name":"九龍塘站","lat":"22.336254","long":"114.178788"},{"id":"CDB292D507E4302D","name":"廣福邨","lat":"22.446299","long":"114.173076"},{"id":"05485C36CA334A81","name":"廣福道轉車站 (A1)","lat":"22.448052","long":"114.168045"},{"id":"530F970BB56D778D","name":"廣福道轉車站 - 寶鄉橋 (B1)","lat":"22.449775","long":"114.166962"},{"id":"6716018C3EE42733","name":"大埔安祥路","lat":"22.451779","long":"114.167238"},{"id":"27222F0DE22582ED","name":"大埔中心總站","lat":"22.452896","long":"114.168960"},{"id":"9316961F98692D0A","name":"怡雅苑怡禮閣","lat":"22.454540","long":"114.174576"},{"id":"D3EC6E5D48291437","name":"富亨總站","lat":"22.458316","long":"114.171834"},{"id":"378DA3C43904CFF9","name":"大元邨","lat":"22.456236","long":"114.170374"},{"id":"9FBD2D7974A0AB50","name":"沐恩中學","lat":"22.456232","long":"114.167196"},{"id":"1A0BF02F827F6A20","name":"大埔安慈路","lat":"22.452495","long":"114.165632"},{"id":"18E4449F4C5CE30B","name":"太和邨亨和樓","lat":"22.452199","long":"114.163197"},{"id":"9FD5C5940A1D7212","name":"太和總站","lat":"22.451169","long":"114.160790"}],"routeId":"271S","description":"正常班次"}]