[{"company":"kmb","route":"273C","routeType":"1","dir":"O","orig":"九龍坑","dest":"荃灣西站","stopList":[{"id":"37E653F1DC727EB2","name":"九龍坑　 (TP211)","lat":"22.481580","long":"114.153158"},{"id":"CB295B56D3762A1F","name":"南華莆 (TP212)","lat":"22.475529","long":"114.153695"},{"id":"F8B3E5A11921AD1B","name":"大窩 (TP213)","lat":"22.471769","long":"114.152995"},{"id":"C66CDE62B5AEB8DA","name":"泰亨 (TP214)","lat":"22.468453","long":"114.152197"},{"id":"832EFD8F5165814E","name":"中心圍 (TP215)","lat":"22.466882","long":"114.151286"},{"id":"F7670D87C1847D31","name":"圍頭村 (TP216)","lat":"22.463688","long":"114.148649"},{"id":"C65C38558F2F978B","name":"太和總站 (TP982)","lat":"22.450999","long":"114.160942"},{"id":"56F79FB1FC157E22","name":"大埔政府合署 (TP611)","lat":"22.450783","long":"114.164431"},{"id":"95B249916F323BD4","name":"大埔平安里 (TP612)","lat":"22.452587","long":"114.165432"},{"id":"4249ED0CD65130CC","name":"大埔文娛中心 (TP539)","lat":"22.451521","long":"114.167457"},{"id":"3CE4F8574F4F9D72","name":"廣福道轉車站 - 寶鄉街 (X1)","lat":"22.449048","long":"114.166918"},{"id":"CAD1ABCBA72CF365","name":"大埔墟 (TP591)","lat":"22.445794","long":"114.167050"},{"id":"C289F0DD208B531D","name":"運頭塘總站 (TP957)","lat":"22.442252","long":"114.166669"},{"id":"620E14F31DA31490","name":"城門隧道轉車站 (B6) (TW300)","lat":"22.381181","long":"114.138129"},{"id":"09B4297CB90AF3EC","name":"城門隧道轉車站 (B3) (TW303)","lat":"22.381358","long":"114.137510"},{"id":"97BB9CE7A058E809","name":"可風中學 (TW311)","lat":"22.380443","long":"114.135135"},{"id":"9FD6AAFA1318E3D9","name":"梨木樹邨 (TW312)","lat":"22.377716","long":"114.137097"},{"id":"03A5552B84E8214B","name":"和宜合道運動場 (TW314)","lat":"22.374165","long":"114.136527"},{"id":"0B4807A5C0DAF24A","name":"昌榮路 (KW330)","lat":"22.370602","long":"114.134772"},{"id":"40A8EA2850B0979B","name":"葵涌健全街 (KW129)","lat":"22.370465","long":"114.130938"},{"id":"B943DBEE65B0B18F","name":"大窩口轉車站-大窩口站 (B2)","lat":"22.370365","long":"114.124962"},{"id":"939E0C584E1A1C3C","name":"荃灣眾安街 (TW135)","lat":"22.371187","long":"114.119252"},{"id":"92A8281D80524F78","name":"荃灣大河道 (TW290)","lat":"22.371910","long":"114.115970"},{"id":"716D84D1B7EA256E","name":"荃灣西站巴士總站(落客站)","lat":"22.367802","long":"114.110950"}],"routeId":"273C","description":"正常班次"}]