[{"company":"kmb","route":"276C","routeType":"1","dir":"O","orig":"天水圍站","dest":"粉嶺(祥華)","stopList":[{"id":"4639CEC8D4B587C7","name":"天水圍站總站 (TN910)","lat":"22.446542","long":"114.004007"},{"id":"C20316E552E64387","name":"天祐苑 (TN593)","lat":"22.450491","long":"114.006277"},{"id":"F05E718C02104BAC","name":"朗屏邨總站 (YL924)","lat":"22.450544","long":"114.022894"},{"id":"0D98A0E934584FD0","name":"香港家庭計劃指導會 (YL220)","lat":"22.445861","long":"114.022618"},{"id":"F87A56BD0A2640ED","name":"元朗廣場 (YL360)","lat":"22.444681","long":"114.023872"},{"id":"D747ADD80335605C","name":"元朗同樂街 (YL370)","lat":"22.444616","long":"114.028298"},{"id":"445B2A02DB891CA9","name":"元朗谷亭街 (YL375)","lat":"22.444580","long":"114.030435"},{"id":"4E2EC89B41600D7E","name":"形點 II (YL395)","lat":"22.446662","long":"114.034928"},{"id":"73CDC61EBA1C9431","name":"形點 I (YL408)","lat":"22.445065","long":"114.036445"},{"id":"3FAC6C2592812331","name":"上水轉車站 - 上水站(D1)","lat":"22.500883","long":"114.127921"},{"id":"CF94083CB24CF4E5","name":"祥龍圍邨 (ND110)","lat":"22.495937","long":"114.125205"},{"id":"4A76CDB32FA69BC6","name":"御皇庭 (ND115)","lat":"22.494589","long":"114.126142"},{"id":"6F11F73C749338DB","name":"御景峰 (ND117)","lat":"22.495680","long":"114.128132"},{"id":"98EBAB9468C80DD2","name":"欣翠花園 (ND126)","lat":"22.495428","long":"114.131869"},{"id":"6DD6B837EF1FA76C","name":"嘉盛苑 (ND128)","lat":"22.492421","long":"114.133535"},{"id":"AFD29CB1A4F71AB9","name":"基新中學 (ND132)","lat":"22.491214","long":"114.134960"},{"id":"65ECD19EFD09FB74","name":"粉嶺站轉車站 - 粉嶺站(D1)","lat":"22.491067","long":"114.138870"},{"id":"D67917549F3DC8A3","name":"景盛苑 (ND136)","lat":"22.487472","long":"114.140579"},{"id":"6633B4885C8A3EE7","name":"華心邨 (ND139)","lat":"22.485511","long":"114.142649"},{"id":"0F3FA9B7D07A91F3","name":"塘坑 (ND450)","lat":"22.490759","long":"114.145622"},{"id":"C837C3C549793472","name":"粉嶺中心 (ND470)","lat":"22.490874","long":"114.142257"},{"id":"C1210CE431B3BB88","name":"祥華總站 (ND956)","lat":"22.492515","long":"114.141338"}],"routeId":"276C","description":"正常班次"},{"company":"kmb","route":"276C","routeType":"1","dir":"I","orig":"粉嶺(祥華)","dest":"天水圍站","stopList":[{"id":"C1210CE431B3BB88","name":"祥華總站 (ND956)","lat":"22.492515","long":"114.141338"},{"id":"BFAE1E951D3B63EC","name":"粉嶺中心　　 (ND187)","lat":"22.491181","long":"114.142627"},{"id":"C67060F448591E4F","name":"塘坑 (ND247)","lat":"22.490878","long":"114.145976"},{"id":"14BDB94A8F3ED3EC","name":"花都廣場 (ND391)","lat":"22.485231","long":"114.142756"},{"id":"FA7A3D77713061E9","name":"欣盛苑 (ND396)","lat":"22.487197","long":"114.140384"},{"id":"C7120BD9A94B4F6A","name":"粉嶺站轉車站 - 蓬瀛仙館 (D2)","lat":"22.491045","long":"114.138414"},{"id":"825199DC3BC0C5A3","name":"基新中學 (ND399)","lat":"22.490943","long":"114.135133"},{"id":"ADB9356BBF06F7C7","name":"嘉盛苑 (ND401)","lat":"22.492093","long":"114.133240"},{"id":"8E3F5AE0A97053F9","name":"華慧園 (ND403)","lat":"22.495493","long":"114.130967"},{"id":"68C7CBB4CAB9FE69","name":"清河邨 (ND415)","lat":"22.494671","long":"114.127659"},{"id":"9CD9BFAE2BC91336","name":"曾梅千禧學校 (ND417)","lat":"22.494309","long":"114.125098"},{"id":"1BA6858FEF337645","name":"北區醫院 (ND426)","lat":"22.496035","long":"114.125186"},{"id":"4E655B25ABAE103A","name":"上水轉車站 - 上水站(C1)","lat":"22.501272","long":"114.127302"},{"id":"AD4E0E8DC8ACEFB6","name":"彩蒲苑彩碧閣 (ND432)","lat":"22.502456","long":"114.125148"},{"id":"DF8F6AA868615D47","name":"彩蒲苑彩顏閣 (ND436)","lat":"22.501266","long":"114.123741"},{"id":"E7057BF64CF7D89D","name":"形點 I (YL240)","lat":"22.444324","long":"114.035984"},{"id":"65F591143DC7CF9C","name":"元朗大橋村 (YL216)","lat":"22.447448","long":"114.026847"},{"id":"0CF8C59B80E70369","name":"朗屏邨珠屏樓 (YL150)","lat":"22.451349","long":"114.025322"},{"id":"76DD0B50D30CF140","name":"朗屏邨總站 (YL923)","lat":"22.450969","long":"114.023033"},{"id":"C480A2E59BC05FB0","name":"朗屏路鳳池村 (YL186)","lat":"22.448286","long":"114.018637"},{"id":"A264A7BA921EEE6E","name":"聚星樓 (TN201)","lat":"22.449187","long":"114.005526"},{"id":"4639CEC8D4B587C7","name":"天水圍站總站 (TN910)","lat":"22.446542","long":"114.004007"}],"routeId":"276C","description":"正常班次"}]