[{"company":"kmb","route":"278A","routeType":"1","dir":"O","orig":"皇后山","dest":"荃灣(如心廣場)","stopList":[{"id":"E284CEE504CCDFB1","name":"皇后山總站 (ND971)","lat":"22.504340","long":"114.156535"},{"id":"743B5D03681D9220","name":"山麗苑 (ND521)","lat":"22.503694","long":"114.160603"},{"id":"A088D19226D59E98","name":"龍躍頭 (ND550)","lat":"22.503705","long":"114.149464"},{"id":"6573811D015A0818","name":"安樂村 (ND551)","lat":"22.499857","long":"114.145735"},{"id":"307AF4D72FFE9B6E","name":"聯和墟總站 (ND963)","lat":"22.500346","long":"114.143625"},{"id":"1380D71251D0CBF9","name":"海聯廣場 (ND561)","lat":"22.500489","long":"114.142725"},{"id":"EDFAC4F35C0E51C7","name":"禮賢會中學 (ND567)","lat":"22.497188","long":"114.141291"},{"id":"EF78DD9F765C6565","name":"粉嶺站轉車站 - 祥華邨(A1)","lat":"22.492466","long":"114.140389"},{"id":"BFAE1E951D3B63EC","name":"粉嶺中心　　 (ND186)","lat":"22.491181","long":"114.142627"},{"id":"C67060F448591E4F","name":"塘坑 (ND247)","lat":"22.490878","long":"114.145976"},{"id":"E6022594DB48E35B","name":"粉嶺公路轉車站(A3) (TP101)","lat":"22.484781","long":"114.152709"},{"id":"620E14F31DA31490","name":"城門隧道轉車站 (B6) (TW300)","lat":"22.381181","long":"114.138129"},{"id":"09B4297CB90AF3EC","name":"城門隧道轉車站 (B3) (TW303)","lat":"22.381358","long":"114.137510"},{"id":"97BB9CE7A058E809","name":"可風中學 (TW311)","lat":"22.380443","long":"114.135135"},{"id":"9FD6AAFA1318E3D9","name":"梨木樹邨 (TW312)","lat":"22.377716","long":"114.137097"},{"id":"03A5552B84E8214B","name":"和宜合道運動場 (TW314)","lat":"22.374165","long":"114.136527"},{"id":"0B4807A5C0DAF24A","name":"昌榮路 (KW330)","lat":"22.370602","long":"114.134772"},{"id":"40A8EA2850B0979B","name":"葵涌健全街 (KW129)","lat":"22.370465","long":"114.130938"},{"id":"B943DBEE65B0B18F","name":"大窩口轉車站-大窩口站 (B2)","lat":"22.370365","long":"114.124962"},{"id":"939E0C584E1A1C3C","name":"荃灣眾安街 (TW135)","lat":"22.371187","long":"114.119252"},{"id":"01642BC44DCFDB3C","name":"荃灣大河道 (TW292)","lat":"22.371600","long":"114.115525"},{"id":"F2EDDDB17B1EA974","name":"如心廣場巴士總站 (TW956)","lat":"22.368183","long":"114.112542"}],"routeId":"278A","description":"正常班次"},{"company":"kmb","route":"278A","routeType":"1","dir":"I","orig":"荃灣(如心廣場)","dest":"皇后山","stopList":[{"id":"F2EDDDB17B1EA974","name":"如心廣場巴士總站 (TW956)","lat":"22.368183","long":"114.112542"},{"id":"CA8554613AAA6C49","name":"荃灣眾安街 (TW390)","lat":"22.372508","long":"114.118359"},{"id":"AAB411C52D067AD1","name":"大窩口轉車站 -大窩口站 (A2)","lat":"22.370533","long":"114.124151"},{"id":"094D2EBC017EE61A","name":"國瑞路公園 (KW396)","lat":"22.371039","long":"114.130268"},{"id":"E919C0B67C6ACF3F","name":"昌榮路 (KW481)","lat":"22.370598","long":"114.134320"},{"id":"257A6E19DD7F156C","name":"和宜合道運動場 (TW490)","lat":"22.373954","long":"114.136349"},{"id":"28A57C043C111604","name":"石圍角新村 (TW493)","lat":"22.375875","long":"114.136250"},{"id":"F82CDE4D15A43CA3","name":"梨木樹邨 (TW495)","lat":"22.378515","long":"114.137270"},{"id":"DEDD6247441C8C05","name":"可風中學 (TW496)","lat":"22.380167","long":"114.135129"},{"id":"81B719F7DC3F0FAD","name":"城門隧道轉車站 (A5) (TW500)","lat":"22.381888","long":"114.137620"},{"id":"C8276DF869656712","name":"城門隧道轉車站 (A1) (TW504)","lat":"22.381635","long":"114.138243"},{"id":"0F3FA9B7D07A91F3","name":"塘坑 (ND450)","lat":"22.490759","long":"114.145622"},{"id":"C837C3C549793472","name":"粉嶺中心 (ND470)","lat":"22.490874","long":"114.142257"},{"id":"3DEE05203A52B235","name":"粉嶺站轉車站 - 粉嶺名都 (B1)","lat":"22.492917","long":"114.139583"},{"id":"000CFEE2F92DC17B","name":"粉嶺樓 (ND261)","lat":"22.495982","long":"114.141578"},{"id":"53BB93AAB2D45F3B","name":"聯和墟球場 (ND263)","lat":"22.497484","long":"114.143070"},{"id":"6C2DBC45160AA4BF","name":"逸峯 (ND265)","lat":"22.500694","long":"114.146110"},{"id":"E5F082F4C7300273","name":"龍躍頭 (ND266)","lat":"22.503821","long":"114.149324"},{"id":"C6DEF1AF70EC3375","name":"龍馬路 (ND325)","lat":"22.504838","long":"114.154525"},{"id":"91E946260F8BCBE8","name":"皇后山總站 (ND970)","lat":"22.504160","long":"114.156173"},{"id":"9381998EA6DC33CA","name":"山麗苑 (ND520)","lat":"22.503694","long":"114.160603"},{"id":"91E946260F8BCBE8","name":"皇后山總站 (ND970)","lat":"22.504160","long":"114.156173"}],"routeId":"278A","description":"正常班次"}]