[{"company":"kmb","route":"279X","routeType":"1","dir":"O","orig":"粉嶺(聯和墟)","dest":"青衣站","stopList":[{"id":"0132863D9F66CE6B","name":"聯和墟總站","lat":"22.500346","long":"114.143625"},{"id":"B28798C421AB2D6B","name":"海聯廣場","lat":"22.500489","long":"114.142725"},{"id":"EDFAC4F35C0E51C7","name":"禮賢會中學","lat":"22.497188","long":"114.141291"},{"id":"944EC71DD1731BE0","name":"粉嶺消防局","lat":"22.494104","long":"114.140097"},{"id":"EF78DD9F765C6565","name":"粉嶺站轉車站 - 祥華邨(A1)","lat":"22.492466","long":"114.140389"},{"id":"BFAE1E951D3B63EC","name":"粉嶺中心","lat":"22.491181","long":"114.142627"},{"id":"C67060F448591E4F","name":"塘坑","lat":"22.490878","long":"114.145976"},{"id":"14BDB94A8F3ED3EC","name":"花都廣場","lat":"22.485231","long":"114.142756"},{"id":"FA7A3D77713061E9","name":"欣盛苑","lat":"22.487197","long":"114.140384"},{"id":"C7120BD9A94B4F6A","name":"粉嶺站轉車站 - 蓬瀛仙館 (D2)","lat":"22.491045","long":"114.138414"},{"id":"825199DC3BC0C5A3","name":"基新中學","lat":"22.490943","long":"114.135133"},{"id":"A8F178C255CF9783","name":"粉嶺置福圍","lat":"22.493251","long":"114.136205"},{"id":"ADB9356BBF06F7C7","name":"嘉盛苑","lat":"22.492093","long":"114.133240"},{"id":"8E3F5AE0A97053F9","name":"華慧園","lat":"22.495493","long":"114.130967"},{"id":"53966A66C3108F4C","name":"上水轉車站 - 上水站(B3)","lat":"22.502406","long":"114.127082"},{"id":"3ECEF3B735084236","name":"大欖隧道轉車站 (A5)","lat":"22.420685","long":"114.064379"},{"id":"D127A33746CCDB16","name":"大欖隧道轉車站 (A1)","lat":"22.419920","long":"114.064362"},{"id":"8AF7B7AE967EA97D","name":"青華苑","lat":"22.348275","long":"114.096791"},{"id":"7E50BA0974C3B983","name":"長亨邨","lat":"22.353376","long":"114.098675"},{"id":"32EDA7D330FF6CA1","name":"青衣轉車站 –青宏苑 (C1)","lat":"22.361292","long":"114.104436"},{"id":"6E22023A7DF1B381","name":"青衣轉車站 –灝景灣 (D1)","lat":"22.360898","long":"114.105955"},{"id":"A2882A0EE6B8AF9B","name":"青衣站(落客站)","lat":"22.360074","long":"114.107029"}],"routeId":"279X","description":"正常班次"},{"company":"kmb","route":"279X","routeType":"1","dir":"I","orig":"青衣站","dest":"粉嶺(聯和墟)","stopList":[{"id":"716E50EBD1CD72B4","name":"青衣站","lat":"22.359820","long":"114.107082"},{"id":"AFC36FC71B4E124E","name":"青衣轉車站 -長安邨安湄樓 (B1)","lat":"22.361152","long":"114.105286"},{"id":"CA1C0FB0345F9675","name":"長亨邨","lat":"22.353398","long":"114.098810"},{"id":"A5E559178C9F5182","name":"青華苑","lat":"22.347714","long":"114.097006"},{"id":"E55FA660A59AB64A","name":"大欖隧道轉車站 (B5)","lat":"22.420344","long":"114.063524"},{"id":"E3B0A57678CFD140","name":"大欖隧道轉車站 (B4)","lat":"22.421069","long":"114.063773"},{"id":"647CBF3FE0DF2FAE","name":"上水轉車站 - 上水站(B6)","lat":"22.501909","long":"114.127443"},{"id":"98EBAB9468C80DD2","name":"欣翠花園","lat":"22.495428","long":"114.131869"},{"id":"CA1317F5A0B8A8B2","name":"嘉盛苑","lat":"22.492501","long":"114.133562"},{"id":"AFD29CB1A4F71AB9","name":"基新中學","lat":"22.491214","long":"114.134960"},{"id":"65ECD19EFD09FB74","name":"粉嶺站轉車站 - 粉嶺站(D1)","lat":"22.491067","long":"114.138870"},{"id":"D67917549F3DC8A3","name":"景盛苑","lat":"22.487472","long":"114.140579"},{"id":"6633B4885C8A3EE7","name":"華心邨","lat":"22.485511","long":"114.142649"},{"id":"0F3FA9B7D07A91F3","name":"塘坑","lat":"22.490759","long":"114.145622"},{"id":"C837C3C549793472","name":"粉嶺中心","lat":"22.490874","long":"114.142257"},{"id":"2AC85D87661D5AF6","name":"粉嶺站轉車站 - 粉嶺名都 (B1)","lat":"22.492326","long":"114.140070"},{"id":"000CFEE2F92DC17B","name":"粉嶺樓","lat":"22.495982","long":"114.141578"},{"id":"BA995ECF3EFCA99E","name":"粉嶺樓村","lat":"22.497010","long":"114.141249"},{"id":"879A98CD29D9433F","name":"上水宣道小學","lat":"22.500807","long":"114.142610"},{"id":"0132863D9F66CE6B","name":"聯和墟總站","lat":"22.500346","long":"114.143625"}],"routeId":"279X","description":"正常班次"},{"company":"kmb","route":"279X","routeType":"2","dir":"I","orig":"青衣站","dest":"上水站","stopList":[{"id":"716E50EBD1CD72B4","name":"青衣站","lat":"22.359820","long":"114.107082"},{"id":"AFC36FC71B4E124E","name":"青衣轉車站 -長安邨安湄樓 (B1)","lat":"22.361152","long":"114.105286"},{"id":"CA1C0FB0345F9675","name":"長亨邨","lat":"22.353398","long":"114.098810"},{"id":"A5E559178C9F5182","name":"青華苑","lat":"22.347714","long":"114.097006"},{"id":"E55FA660A59AB64A","name":"大欖隧道轉車站 (B5)","lat":"22.420344","long":"114.063524"},{"id":"E3B0A57678CFD140","name":"大欖隧道轉車站 (B4)","lat":"22.421069","long":"114.063773"},{"id":"647CBF3FE0DF2FAE","name":"上水轉車站 - 上水站(B6)","lat":"22.501909","long":"114.127443"}],"routeId":"279X","description":"特別班次"}]