[{"company":"gmb","route":"27M","routeType":1,"orig":"樂民新村(美善同道)","dest":"旺角站","stopList":[{"id":20000704,"name":"美善同道, 落山道以北","lat":22.318045187621763,"long":114.18702670598933},{"id":20007535,"name":"樂民新邨, 樂基樓對面","lat":22.315706297376863,"long":114.1864636047211},{"id":20000706,"name":"高山道, 近聖公會牧愛堂","lat":22.3147309631297,"long":114.18694882009468},{"id":20000707,"name":"高山道, 高山劇場對面","lat":22.31362022770911,"long":114.18648287271658},{"id":20000709,"name":"信用街, 長豐園外","lat":22.311859327529945,"long":114.1852792761592},{"id":20000710,"name":"佛光街, 山谷道邨重建居屋項目外","lat":22.311389833355815,"long":114.18314405658231},{"id":20007352,"name":" 佛光街, 房署大樓","lat":22.315742647479347,"long":114.1811836977087},{"id":20000714,"name":"佛光街, 香港都會大學外","lat":22.316672822831645,"long":114.1801840311821},{"id":20000467,"name":"培正道巴士站, 培正學校外","lat":22.31817193413518,"long":114.175942595698},{"id":20000468,"name":"梭椏道19A號","lat":22.31952651449943,"long":114.17491375350428},{"id":20000716,"name":"洗衣街, Skypark外","lat":22.31912006764107,"long":114.17169138381298},{"id":20000717,"name":"洗衣街, 建煌華廈外","lat":22.320583014037734,"long":114.17139044268337},{"id":20000718,"name":"洗衣街, 鴻德大廈外","lat":22.322488455114573,"long":114.17099241535142},{"id":20000719,"name":"洗衣街, 蕙逸居外","lat":22.32373466728796,"long":114.17074000052672},{"id":20000628,"name":"太子道西, 別樹一居外","lat":22.324086807077162,"long":114.16945875457388},{"id":20000720,"name":"快富街, 友誠大廈外","lat":22.32048363425284,"long":114.17022572128204}],"routeId":2000998,"description":"正常班次"},{"company":"gmb","route":"27M","routeType":2,"orig":"旺角站","dest":"樂民新村(美善同道)","stopList":[{"id":20000720,"name":"快富街, 友誠大廈外","lat":22.32048363425284,"long":114.17022572128204},{"id":20000912,"name":"亞皆老街113號","lat":22.320158629867134,"long":114.17334136941656},{"id":20000721,"name":"窩打老道, 萬基大廈外","lat":22.32019478977506,"long":114.17685494915231},{"id":20000472,"name":"培正道巴士站, 近九龍公共圖書館","lat":22.31824418037176,"long":114.17627259546664},{"id":20000723,"name":"佛光街, 香港都會大學對面","lat":22.316826339910783,"long":114.18032962171445},{"id":20000724,"name":"佛光街, 何文田邨雅文樓外","lat":22.315173710277474,"long":114.18152337874864},{"id":20007740,"name":"佛光街, 冠暉苑高暉閣外","lat":22.313829084168457,"long":114.18189257383348},{"id":20000726,"name":"信用街, 高山道海關已婚關員宿舍外","lat":22.312103149226548,"long":114.18536664001124},{"id":20000727,"name":"高山道, 高山劇場外","lat":22.313656356431682,"long":114.18637611391132},{"id":20000731,"name":"靠背壟道, 近樂民新邨樂善樓","lat":22.318415483344538,"long":114.18634731983431},{"id":20000704,"name":"美善同道, 落山道以北","lat":22.318045187621763,"long":114.18702670598933}],"routeId":2000998,"description":"正常班次"},{"company":"gmb","route":"27M","routeType":1,"orig":"樂民新村(美善同道)","dest":"旺角站","stopList":[{"id":20000704,"name":"美善同道, 落山道以北","lat":22.318045187621763,"long":114.18702670598933},{"id":20007535,"name":"樂民新邨, 樂基樓對面","lat":22.315706297376863,"long":114.1864636047211},{"id":20000706,"name":"高山道, 近聖公會牧愛堂","lat":22.3147309631297,"long":114.18694882009468},{"id":20000707,"name":"高山道, 高山劇場對面","lat":22.31362022770911,"long":114.18648287271658},{"id":20000709,"name":"信用街, 長豐園外","lat":22.311859327529945,"long":114.1852792761592},{"id":20000710,"name":"佛光街, 山谷道邨重建居屋項目外","lat":22.311389833355815,"long":114.18314405658231},{"id":20008387,"name":"佛光街, 房署大樓","lat":22.31567256361571,"long":114.18114423751832},{"id":20000714,"name":"佛光街, 香港都會大學外","lat":22.316672822831645,"long":114.1801840311821},{"id":20000467,"name":"培正道巴士站, 培正學校外","lat":22.31817193413518,"long":114.175942595698},{"id":20000468,"name":"梭椏道19A號","lat":22.31952651449943,"long":114.17491375350428},{"id":20000627,"name":"染布房街12號外","lat":22.319111070250077,"long":114.1728755099062},{"id":20007744,"name":"聯運街,旺角鐵路站","lat":22.32117247628294,"long":114.17227417230608},{"id":20000718,"name":"洗衣街, 鴻德大廈外","lat":22.322488455114573,"long":114.17099241535142},{"id":20000719,"name":"洗衣街, 蕙逸居外","lat":22.32373466728796,"long":114.17074000052672},{"id":20000628,"name":"太子道西, 別樹一居外","lat":22.324086807077162,"long":114.16945875457388},{"id":20000720,"name":"快富街, 友誠大廈外","lat":22.32048363425284,"long":114.17022572128204}],"routeId":2001000,"description":"特別班次"},{"company":"gmb","route":"27M","routeType":1,"orig":"樂民新村(美善同道)","dest":"旺角站","stopList":[{"id":20000704,"name":"美善同道, 落山道以北","lat":22.318045187621763,"long":114.18702670598933},{"id":20000716,"name":"洗衣街, Skypark外","lat":22.31912006764107,"long":114.17169138381298},{"id":20000717,"name":"洗衣街, 建煌華廈外","lat":22.320583014037734,"long":114.17139044268337},{"id":20000718,"name":"洗衣街, 鴻德大廈外","lat":22.322488455114573,"long":114.17099241535142},{"id":20000719,"name":"洗衣街, 蕙逸居外","lat":22.32373466728796,"long":114.17074000052672},{"id":20000628,"name":"太子道西, 別樹一居外","lat":22.324086807077162,"long":114.16945875457388},{"id":20000720,"name":"快富街, 友誠大廈外","lat":22.32048363425284,"long":114.17022572128204}],"routeId":2003108,"description":"特快班次"}]