[{"company":"gmb","route":"27M","routeType":1,"orig":"樂民新村(美善同道)","dest":"旺角站","stopList":[{"id":20000704,"name":"美善同道, 落山道以北","lat":"22.318045","long":"114.187027"},{"id":20007535,"name":"樂民新邨, 樂基樓對面","lat":"22.315706","long":"114.186464"},{"id":20000706,"name":"高山道, 近聖公會牧愛堂","lat":"22.314731","long":"114.186949"},{"id":20000707,"name":"高山道, 高山劇場對面","lat":"22.313620","long":"114.186483"},{"id":20000709,"name":"信用街, 長豐園外","lat":"22.311859","long":"114.185279"},{"id":20000710,"name":"佛光街, 山谷道邨重建居屋項目外","lat":"22.311390","long":"114.183144"},{"id":20007352,"name":"佛光街, 房屋委員會總部外","lat":"22.315743","long":"114.181184"},{"id":20000714,"name":"佛光街, 香港都會大學外","lat":"22.316673","long":"114.180184"},{"id":20000467,"name":"培正道巴士站, 培正學校外","lat":"22.318172","long":"114.175943"},{"id":20000468,"name":"梭椏道19號","lat":"22.319527","long":"114.174914"},{"id":20000716,"name":"洗衣街, Skypark外","lat":"22.319120","long":"114.171691"},{"id":20000717,"name":"洗衣街, 建煌華廈外","lat":"22.320583","long":"114.171390"},{"id":20000718,"name":"洗衣街, 鴻德大廈外","lat":"22.322488","long":"114.170992"},{"id":20000719,"name":"洗衣街, 蕙逸居外","lat":"22.323735","long":"114.170740"},{"id":20000628,"name":"太子道西, 別樹一居外","lat":"22.324087","long":"114.169459"},{"id":20000720,"name":"快富街, 友誠大廈外","lat":"22.320484","long":"114.170226"}],"routeId":2000998,"description":"正常班次"},{"company":"gmb","route":"27M","routeType":2,"orig":"旺角站","dest":"樂民新村(美善同道)","stopList":[{"id":20000720,"name":"快富街, 友誠大廈外","lat":"22.320484","long":"114.170226"},{"id":20000912,"name":"亞皆老街113號","lat":"22.320159","long":"114.173341"},{"id":20000721,"name":"窩打老道, 萬基大廈外","lat":"22.320195","long":"114.176855"},{"id":20000472,"name":"培正道巴士站, 近九龍公共圖書館","lat":"22.318244","long":"114.176273"},{"id":20000723,"name":"佛光街, 香港都會大學對面","lat":"22.316826","long":"114.180330"},{"id":20000724,"name":"佛光街, 何文田邨雅文樓外","lat":"22.315174","long":"114.181523"},{"id":20007740,"name":"佛光街, 冠暉苑高暉閣外","lat":"22.313829","long":"114.181893"},{"id":20000726,"name":"信用街, 何文田山畔外","lat":"22.312103","long":"114.185367"},{"id":20000727,"name":"高山道, 高山劇場外","lat":"22.313656","long":"114.186376"},{"id":20000731,"name":"靠背壟道, 近樂民新邨樂善樓","lat":"22.318415","long":"114.186347"},{"id":20000704,"name":"美善同道, 落山道以北","lat":"22.318045","long":"114.187027"}],"routeId":2000998,"description":"正常班次"},{"company":"gmb","route":"27M","routeType":1,"orig":"樂民新村(美善同道)","dest":"旺角站","stopList":[{"id":20000704,"name":"美善同道, 落山道以北","lat":"22.318045","long":"114.187027"},{"id":20007535,"name":"樂民新邨, 樂基樓對面","lat":"22.315706","long":"114.186464"},{"id":20000706,"name":"高山道, 近聖公會牧愛堂","lat":"22.314731","long":"114.186949"},{"id":20000707,"name":"高山道, 高山劇場對面","lat":"22.313620","long":"114.186483"},{"id":20000709,"name":"信用街, 長豐園外","lat":"22.311859","long":"114.185279"},{"id":20000710,"name":"佛光街, 山谷道邨重建居屋項目外","lat":"22.311390","long":"114.183144"},{"id":20007352,"name":"佛光街, 房屋委員會總部外","lat":"22.315743","long":"114.181184"},{"id":20000714,"name":"佛光街, 香港都會大學外","lat":"22.316673","long":"114.180184"},{"id":20000467,"name":"培正道巴士站, 培正學校外","lat":"22.318172","long":"114.175943"},{"id":20000468,"name":"梭椏道19號","lat":"22.319527","long":"114.174914"},{"id":20000627,"name":"染布房街12號外","lat":"22.319111","long":"114.172876"},{"id":20007744,"name":"聯運街, 近聯運街休憩處","lat":"22.321172","long":"114.172274"},{"id":20000718,"name":"洗衣街, 鴻德大廈外","lat":"22.322488","long":"114.170992"},{"id":20000719,"name":"洗衣街, 蕙逸居外","lat":"22.323735","long":"114.170740"},{"id":20000628,"name":"太子道西, 別樹一居外","lat":"22.324087","long":"114.169459"},{"id":20000720,"name":"快富街, 友誠大廈外","lat":"22.320484","long":"114.170226"}],"routeId":2001000,"description":"特別班次"},{"company":"gmb","route":"27M","routeType":1,"orig":"樂民新村(美善同道)","dest":"旺角站","stopList":[{"id":20000704,"name":"美善同道, 落山道以北","lat":"22.318045","long":"114.187027"},{"id":20000716,"name":"洗衣街, Skypark外","lat":"22.319120","long":"114.171691"},{"id":20000717,"name":"洗衣街, 建煌華廈外","lat":"22.320583","long":"114.171390"},{"id":20000718,"name":"洗衣街, 鴻德大廈外","lat":"22.322488","long":"114.170992"},{"id":20000719,"name":"洗衣街, 蕙逸居外","lat":"22.323735","long":"114.170740"},{"id":20000628,"name":"太子道西, 別樹一居外","lat":"22.324087","long":"114.169459"},{"id":20000720,"name":"快富街, 友誠大廈外","lat":"22.320484","long":"114.170226"}],"routeId":2003108,"description":"特快班次"}]