[{"company":"kmb","route":"282","routeType":"1","dir":"O","orig":"沙田巿中心","dest":"新田圍(循環線)","stopList":[{"id":"FED9D9183EFFF2F6","name":"沙田市中心總站","lat":"22.382223","long":"114.188308"},{"id":"024D478CE8AC52F3","name":"帝都酒店","lat":"22.379667","long":"114.188126"},{"id":"613ED01D077362A9","name":"文化博物館","lat":"22.377877","long":"114.186508"},{"id":"45001DA558E03CF0","name":"秦石邨","lat":"22.374235","long":"114.186536"},{"id":"B818259F753A3BE2","name":"秦石邨石瑩樓","lat":"22.373437","long":"114.185537"},{"id":"37081D4663FE178E","name":"新田圍邨","lat":"22.370975","long":"114.185910"},{"id":"88AE674DD492F5CF","name":"富圍樓","lat":"22.369745","long":"114.187540"},{"id":"F139E189918C1F86","name":"秦石邨石瑩樓","lat":"22.372972","long":"114.185542"},{"id":"52B02EAC7AAB23C1","name":"秦石邨","lat":"22.374551","long":"114.186748"},{"id":"B6B1AB47AB07887F","name":"文化博物館","lat":"22.375824","long":"114.187403"},{"id":"302D398FDBA075F4","name":"希爾頓中心","lat":"22.379737","long":"114.187109"},{"id":"FED9D9183EFFF2F6","name":"沙田市中心總站","lat":"22.382223","long":"114.188308"}],"routeId":"282","description":"正常班次"}]