[{"company":"kmb","route":"283","routeType":"1","dir":"O","orig":"沙田巿中心","dest":"美松苑(循環線)","stopList":[{"id":"9CCAA319B4354EC6","name":"沙田市中心總站 (ST921)","lat":"22.381882","long":"114.187999"},{"id":"F608A74B860B3C47","name":"帝都酒店 (ST760)","lat":"22.379864","long":"114.188064"},{"id":"61CB41A4FE2AD8E5","name":"美林邨 (TA733)","lat":"22.377196","long":"114.178724"},{"id":"363957ECE0924AC4","name":"美輝街 (TA151)","lat":"22.376710","long":"114.174167"},{"id":"6DE243D2C36B9C6A","name":"美田邨美全樓 (TA155)","lat":"22.377180","long":"114.172547"},{"id":"5C63A2B4F457D344","name":"美田巴士總站 (TA974)","lat":"22.376324","long":"114.170565"},{"id":"02D4D2C0C430EAD0","name":"美田邨美致樓 (TA160)","lat":"22.377071","long":"114.171768"},{"id":"C8A9DAB5E9051324","name":"美松苑 (TA165)","lat":"22.380290","long":"114.173874"},{"id":"924D67DD8AB7683D","name":"美林邨美槐樓 (TA330)","lat":"22.380025","long":"114.176045"},{"id":"E7BFF1027930CCCD","name":"美城苑 (TA331)","lat":"22.379285","long":"114.173721"},{"id":"F2E381299EA74E3E","name":"美林巴士總站 (TA962)","lat":"22.377598","long":"114.175121"},{"id":"AF61AE97990B5C08","name":"美林邨美桃樓 (TA316)","lat":"22.377402","long":"114.178459"},{"id":"317D787EB897C4E8","name":"松嶺路 (TA325)","lat":"22.377825","long":"114.181313"},{"id":"302D398FDBA075F4","name":"希爾頓中心 (ST163)","lat":"22.379737","long":"114.187109"},{"id":"9CCAA319B4354EC6","name":"沙田市中心總站 (ST921)","lat":"22.381882","long":"114.187999"}],"routeId":"283","description":"正常班次"}]