[{"company":"kmb","route":"286A","routeType":"1","dir":"O","orig":"沙田圍","dest":"長沙灣 (循環線)","stopList":[{"id":"196CE583CC4F8127","name":"沙田圍巴士總站 (ST955)","lat":"22.380437","long":"114.196407"},{"id":"2AB0EEF90EDC0378","name":"博康邨 (ST679)","lat":"22.377234","long":"114.195000"},{"id":"5C043109616B6292","name":"乙明邨街 (ST690)","lat":"22.375743","long":"114.190888"},{"id":"AF47DA55FCC27679","name":"曾大屋 (ST523)","lat":"22.375411","long":"114.189055"},{"id":"48BA70BC6F7488CF","name":"秦石邨 (TA530)","lat":"22.374288","long":"114.186808"},{"id":"4F25915A4BF459F9","name":"車公廟 (TA536)","lat":"22.374407","long":"114.184038"},{"id":"A004B076CFBD733C","name":"大圍轉車站 - 新翠邨新明樓 (A1)","lat":"22.372122","long":"114.180252"},{"id":"2A72F4041A7E6783","name":"大圍轉車站 - 田心村 (D1)","lat":"22.370674","long":"114.177940"},{"id":"480DB16994F8FFEE","name":"青沙公路轉車站 (TA750)","lat":"22.358632","long":"114.163389"},{"id":"FD8181D7574BB373","name":"青沙公路轉車站 (A2)","lat":"22.358355","long":"114.163224"},{"id":"647AB0AD358F10DF","name":"美孚轉車站 (C1)","lat":"22.337132","long":"114.141718"},{"id":"CDB60E6F75A1D7EA","name":"通州西街","lat":"22.338041","long":"114.147053"},{"id":"D40C730A1930BABB","name":"汝州西街","lat":"22.339009","long":"114.149891"},{"id":"26CEAEF7BD0F6F59","name":"集輝街","lat":"22.339908","long":"114.152533"},{"id":"242816965CAB8FE2","name":"興華街","lat":"22.339662","long":"114.154920"},{"id":"E09CA927E9BF25C5","name":"永隆街","lat":"22.337487","long":"114.157727"},{"id":"524F66D9EBDACACD","name":"東沙島街","lat":"22.336070","long":"114.159544"},{"id":"FE824F449F3D217F","name":"九江街","lat":"22.334742","long":"114.161269"},{"id":"229C618DE131245A","name":"石硤尾邨美笙樓","lat":"22.333562","long":"114.165756"},{"id":"C49D1FFAEBDFE617","name":"石硤尾邨美盛樓","lat":"22.333240","long":"114.166765"},{"id":"BBC5D60D2FB827D2","name":"黃棣珊紀念中學","lat":"22.334875","long":"114.168291"},{"id":"36EE1028F547488D","name":"白田邨富田樓","lat":"22.336943","long":"114.169137"},{"id":"094457650286AA67","name":"石硤尾消防局","lat":"22.338766","long":"114.166833"},{"id":"9CB216DC49F84CFA","name":"澤安邨","lat":"22.340141","long":"114.165083"},{"id":"D198122830A4FDE3","name":"畢架山花園","lat":"22.341687","long":"114.167069"},{"id":"99EF4CA10B3E1F17","name":"豐力樓","lat":"22.343140","long":"114.172841"},{"id":"B11E10F012C57433","name":"大圍轉車站 - 新翠邨 (C3)","lat":"22.370095","long":"114.179707"},{"id":"A66159E033DDEA04","name":"大圍轉車站 - 大圍站 (F1)","lat":"22.372606","long":"114.180304"},{"id":"C92E80A5D7E0E8EC","name":"車公廟 (TA127)","lat":"22.374668","long":"114.184164"},{"id":"52B02EAC7AAB23C1","name":"秦石邨 (TA129)","lat":"22.374551","long":"114.186748"},{"id":"3F6F5DC1DDA5F68E","name":"乙明邨街 (ST202)","lat":"22.376150","long":"114.191508"},{"id":"6CDAC4513AD44DB7","name":"沙角邨 (ST212)","lat":"22.377292","long":"114.194775"},{"id":"196CE583CC4F8127","name":"沙田圍巴士總站 (ST955)","lat":"22.380437","long":"114.196407"}],"routeId":"286A","description":"正常班次"}]