[{"company":"kmb","route":"28S","routeType":"1","dir":"O","orig":"觀塘(裕民坊)","dest":"樂華","stopList":[{"id":"AE6C9CC13AAF157D","name":"觀塘(裕民坊)總站 (KT926)","lat":"22.314833","long":"114.224871"},{"id":"D8546484A0E78938","name":"觀塘崇仁街 (KT241)","lat":"22.316266","long":"114.223295"},{"id":"AC90B7B4927E1D60","name":"康寧道遊樂場 (KT242)","lat":"22.317086","long":"114.222853"},{"id":"F496F08DBC291A50","name":"寧波公學 (KT278)","lat":"22.316620","long":"114.221972"},{"id":"34E91A304CD09953","name":"凱德大廈 (KT279)","lat":"22.316836","long":"114.220388"},{"id":"A8EECA8BC371A833","name":"慕光英文書院 (KT280)","lat":"22.318322","long":"114.219129"},{"id":"5D02EA6BD9FE152F","name":"林景閣 (KT281)","lat":"22.319592","long":"114.220410"},{"id":"356CA6CC22F1D24B","name":"康寧道 公園 (KT243)","lat":"22.319475","long":"114.223229"},{"id":"FAF9EF8853A3B65E","name":"樂華南邨 (KT545)","lat":"22.320642","long":"114.222775"},{"id":"29E5BCA5DC430F85","name":"樂華總站 (KT869)","lat":"22.320760","long":"114.220625"}],"routeId":"28S","description":"正常班次"},{"company":"gmb","route":"28S","routeType":1,"orig":"碧瑤灣(上)","dest":"銅鑼灣(新會道)","stopList":[{"id":20014524,"name":"碧瑤灣(上)小巴總站","lat":"22.262266","long":"114.134221"},{"id":20014525,"name":"沙宣道, 近香港大學陳蕉琴樓","lat":"22.268221","long":"114.128653"},{"id":20014526,"name":"沙宣道, 近香港大學利銘澤堂","lat":"22.269892","long":"114.130000"},{"id":20000174,"name":"薄扶林道, 蒲飛路","lat":"22.281772","long":"114.132045"},{"id":20000012,"name":"薄扶林道, 寶翠園外","lat":"22.284229","long":"114.133577"},{"id":20014527,"name":"般咸道, 近栢苑","lat":"22.284381","long":"114.143453"},{"id":20020293,"name":"般咸道，近戴麟趾康復中心","lat":"22.284866","long":"114.145787"},{"id":20014537,"name":"般咸道, 醫院道","lat":"22.283636","long":"114.147474"},{"id":20000017,"name":"堅道, 樓梯街","lat":"22.283158","long":"114.148812"},{"id":20000018,"name":"堅道, 城皇街","lat":"22.282824","long":"114.150258"},{"id":20000019,"name":"堅道, 卑利街","lat":"22.281677","long":"114.151675"},{"id":20014530,"name":"堅尼地道, 近帝景閣","lat":"22.276324","long":"114.158191"},{"id":20014531,"name":"堅尼地道, 近香港公園香港視覺藝術中心","lat":"22.276404","long":"114.159512"},{"id":20014532,"name":"堅尼地道, 近香港公園","lat":"22.276936","long":"114.163381"},{"id":20020297,"name":"堅尼地道，近港燈中心","lat":"22.274485","long":"114.165566"},{"id":20014533,"name":"堅尼地道, 近萬茂公園","lat":"22.275698","long":"114.166893"},{"id":20014534,"name":"堅尼地道, 近嘉諾撒聖方濟各書院","lat":"22.274745","long":"114.168936"},{"id":20014535,"name":"堅尼地道, 近合和中心","lat":"22.274431","long":"114.171135"},{"id":20020294,"name":"堅尼地道, 近鳳凰閣","lat":"22.273686","long":"114.172524"},{"id":20020295,"name":"堅尼地道, 聖公會聖雅各小學","lat":"22.272655","long":"114.173698"},{"id":20020296,"name":"皇后大道東, 近伊利沙伯體育館","lat":"22.274966","long":"114.178587"},{"id":20014536,"name":"新會道, 近京城大廈","lat":"22.277677","long":"114.184678"}],"routeId":2006508,"description":"短程班次"},{"company":"gmb","route":"28S","routeType":1,"orig":"白石角(天賦海灣)","dest":"沙田(白鶴汀街)(循環線)","stopList":[{"id":20007091,"name":"白石角(科城路)公共運輸交匯處","lat":"22.431128","long":"114.202047"},{"id":20007092,"name":"科進路天賦海灣(第三期)外","lat":"22.432478","long":"114.203160"},{"id":20007310,"name":"科進路停車灣近DC2431燈柱","lat":"22.431655","long":"114.203834"},{"id":20009539,"name":"坡面","lat":"22.424081","long":"114.200075"},{"id":20003191,"name":"新翠山莊/蔚海山莊","lat":"22.431920","long":"114.194000"},{"id":20006560,"name":"鹿茵山莊","lat":"22.429743","long":"114.196214"},{"id":20003188,"name":"樟樹灘","lat":"22.426429","long":"114.196476"},{"id":20007587,"name":"香港中文大學","lat":"22.417704","long":"114.203575"},{"id":20007229,"name":"崇基學院","lat":"22.413522","long":"114.207838"},{"id":20002232,"name":"火炭駿景園","lat":"22.399373","long":"114.200483"},{"id":20001569,"name":"担杆莆街沙田大會堂外","lat":"22.381900","long":"114.190197"},{"id":20001570,"name":"白鶴汀街帝都酒店外","lat":"22.379941","long":"114.188070"},{"id":20002119,"name":"沙田正街希爾頓中心","lat":"22.380004","long":"114.187051"},{"id":20001549,"name":"好運中心","lat":"22.382830","long":"114.190556"},{"id":20006561,"name":"火炭駿景園","lat":"22.399499","long":"114.200444"},{"id":20002841,"name":"樂信徑迴旋處巴士停車灣","lat":"22.401396","long":"114.201552"},{"id":20007229,"name":"崇基學院","lat":"22.413522","long":"114.207838"},{"id":20007588,"name":"香港中文大學","lat":"22.418129","long":"114.201963"},{"id":20003189,"name":"樟樹灘","lat":"22.426158","long":"114.196379"},{"id":20006560,"name":"鹿茵山莊","lat":"22.429743","long":"114.196214"},{"id":20003190,"name":"新翠山莊／蔚海山莊","lat":"22.431351","long":"114.194272"},{"id":20009539,"name":"坡面","lat":"22.424081","long":"114.200075"},{"id":20007310,"name":"科進路停車灣近DC2431燈柱","lat":"22.431655","long":"114.203834"},{"id":20007097,"name":"科進路天賦海灣(第二期)外","lat":"22.432144","long":"114.203121"},{"id":20007091,"name":"白石角(科城路)公共運輸交匯處","lat":"22.431128","long":"114.202047"}],"routeId":2010076,"description":"正常班次"}]