[{"company":"kmb","route":"290E","routeType":"1","dir":"O","orig":"將軍澳工業邨","dest":"荃灣西站","stopList":[{"id":"27EF80951F8ED49E","name":"將軍澳工業邨巴士總站","lat":"22.283296","long":"114.270278"},{"id":"155312688CBEC518","name":"駿宏街","lat":"22.282178","long":"114.272628"},{"id":"ECF82695F45C45F4","name":"駿才街","lat":"22.283535","long":"114.273805"},{"id":"171EF748C9B50837","name":"駿盈街","lat":"22.284257","long":"114.273631"},{"id":"55014014633B8CD4","name":"駿光街","lat":"22.286140","long":"114.273023"},{"id":"07142A6203E50A47","name":"日出康城領都","lat":"22.294281","long":"114.273380"},{"id":"E92E009DE3307F85","name":"日出康城首都","lat":"22.296677","long":"114.272726"},{"id":"F3209DBC2E7E5C1A","name":"消防及救護學院","lat":"22.305294","long":"114.274675"},{"id":"815BC43527FD9247","name":"百勝角","lat":"22.301733","long":"114.272574"},{"id":"B3F2EC8E42FA3184","name":"峻瀅","lat":"22.297382","long":"114.272496"},{"id":"2307DECBF51E9D7F","name":"MEGA Plus 數據中心","lat":"22.294404","long":"114.273728"},{"id":"E3DF87A934DC95EE","name":"環澳路","lat":"22.291917","long":"114.272205"},{"id":"E721A2E3853D636D","name":"將藍隧道轉車站(A2)","lat":"22.300330","long":"114.231033"},{"id":"81C1875EBC7FD3E4","name":"茶果嶺道","lat":"22.300048","long":"114.228399"},{"id":"FDB6E3CC223991D1","name":"觀塘偉樂街","lat":"22.305268","long":"114.225305"},{"id":"58584BC1AC41723C","name":"牛池灣轉車站 - 紅萼樓 (H2)","lat":"22.336895","long":"114.206268"},{"id":"0EB21C27E769261B","name":"黃大仙轉車站 - 沙田坳道 (D1)","lat":"22.341470","long":"114.195370"},{"id":"29A62A8FE112766B","name":"豐力樓","lat":"22.342585","long":"114.172991"},{"id":"9751EE79B103C9B8","name":"畢架山花園","lat":"22.341649","long":"114.166733"},{"id":"246ECB0F3B94855D","name":"葵涌道荔景邨","lat":"22.352823","long":"114.126548"},{"id":"D17DA49D5EFC6DD4","name":"葵芳廣場","lat":"22.357804","long":"114.130111"},{"id":"ABA04608DBB7C351","name":"光輝圍","lat":"22.367785","long":"114.133619"},{"id":"40A8EA2850B0979B","name":"葵涌健全街","lat":"22.370465","long":"114.130938"},{"id":"B943DBEE65B0B18F","name":"大窩口轉車站-大窩口站 (B2)","lat":"22.370365","long":"114.124962"},{"id":"5AF593F7A11180E2","name":"荃灣眾安街","lat":"22.371566","long":"114.118883"},{"id":"92A8281D80524F78","name":"荃灣大河道","lat":"22.371910","long":"114.115970"},{"id":"E8A145669A392955","name":"荃灣西站巴士總站","lat":"22.368086","long":"114.110624"}],"routeId":"290E","description":"正常班次"},{"company":"kmb","route":"290E","routeType":"1","dir":"I","orig":"荃灣西站","dest":"將軍澳工業邨","stopList":[{"id":"E8A145669A392955","name":"荃灣西站巴士總站","lat":"22.368086","long":"114.110624"},{"id":"060A70079F196C7C","name":"荃灣大河道","lat":"22.371519","long":"114.114991"},{"id":"1F934873940D1F49","name":"荃灣眾安街","lat":"22.372659","long":"114.118190"},{"id":"C9E264A3F9D4CEB3","name":"大窩口轉車站 -大窩口站 (A1)","lat":"22.370561","long":"114.123847"},{"id":"558D298696B57A4D","name":"昌榮路迴旋處","lat":"22.370230","long":"114.131936"},{"id":"364529AB163D8609","name":"葵俊苑","lat":"22.364743","long":"114.132908"},{"id":"9217F5E1950F12BF","name":"新葵興花園","lat":"22.361948","long":"114.131856"},{"id":"F1934936E2AB96E4","name":"葵芳邨","lat":"22.359821","long":"114.131178"},{"id":"D198122830A4FDE3","name":"畢架山花園","lat":"22.341687","long":"114.167069"},{"id":"99EF4CA10B3E1F17","name":"豐力樓","lat":"22.343140","long":"114.172841"},{"id":"9FD865B00B2D54A1","name":"黃大仙轉車站-黃大仙站 (B5)","lat":"22.341855","long":"114.192100"},{"id":"68B207DDC9A182AB","name":"牛池灣轉車站 - 牛池灣村 (G1)","lat":"22.336630","long":"114.207400"},{"id":"41E95E283D770EF7","name":"觀塘偉樂街","lat":"22.305598","long":"114.225310"},{"id":"E8149C288DA7DF33","name":"環澳路","lat":"22.292169","long":"114.272190"},{"id":"B75CD6E70417E21B","name":"日出康城領都","lat":"22.294224","long":"114.273376"},{"id":"471442D7E30D26EB","name":"日出康城首都","lat":"22.296657","long":"114.272705"},{"id":"BED3E96AAC2B3B3D","name":"消防及救護學院","lat":"22.305101","long":"114.274640"},{"id":"815BC43527FD9247","name":"百勝角","lat":"22.301733","long":"114.272574"},{"id":"B3F2EC8E42FA3184","name":"峻瀅","lat":"22.297382","long":"114.272496"},{"id":"2307DECBF51E9D7F","name":"MEGA Plus 數據中心","lat":"22.294404","long":"114.273728"},{"id":"13B87ED5725EE00D","name":"大赤沙消防局","lat":"22.289612","long":"114.273473"},{"id":"4A195F954ACD67C5","name":"駿日街","lat":"22.286887","long":"114.271576"},{"id":"27EF80951F8ED49E","name":"將軍澳工業邨巴士總站","lat":"22.283296","long":"114.270278"}],"routeId":"290E","description":"正常班次"}]