[{"company":"kmb","route":"290E","routeType":"1","dir":"O","orig":"將軍澳工業邨","dest":"荃灣西站","stopList":[{"id":"27EF80951F8ED49E","name":"將軍澳工業邨巴士總站 (TK990)","lat":"22.283296","long":"114.270278"},{"id":"155312688CBEC518","name":"駿宏街 (TK500)","lat":"22.282178","long":"114.272628"},{"id":"ECF82695F45C45F4","name":"駿才街 (TK505)","lat":"22.283535","long":"114.273805"},{"id":"171EF748C9B50837","name":"駿盈街 (TK510)","lat":"22.284257","long":"114.273631"},{"id":"55014014633B8CD4","name":"駿光街 (TK515)","lat":"22.286140","long":"114.273023"},{"id":"07142A6203E50A47","name":"日出康城領都 (TK532)","lat":"22.294281","long":"114.273380"},{"id":"E92E009DE3307F85","name":"日出康城首都 (TK534)","lat":"22.296677","long":"114.272726"},{"id":"E51AC47DDDA21250","name":"康城站 (TK920)","lat":"22.296239","long":"114.268098"},{"id":"F3209DBC2E7E5C1A","name":"消防及救護學院 (TK542)","lat":"22.305294","long":"114.274675"},{"id":"0A1D83D50B49933D","name":"百勝角 (TK535)","lat":"22.303500","long":"114.271368"},{"id":"38A37564B3F3CACF","name":"清水灣半島 (TK536)","lat":"22.307888","long":"114.267895"},{"id":"711927A9FAEF1158","name":"寶盈花園 (TK560)","lat":"22.307792","long":"114.262428"},{"id":"C9EA7B56F1197D16","name":"將軍澳站 (TK561)","lat":"22.306997","long":"114.260136"},{"id":"A1C5849926BE3289","name":"將軍澳中心 (TK563)","lat":"22.306245","long":"114.257952"},{"id":"E721A2E3853D636D","name":"將藍隧道轉車站(A2) (LT550)","lat":"22.300330","long":"114.231033"},{"id":"81C1875EBC7FD3E4","name":"茶果嶺道 (LT400)","lat":"22.300048","long":"114.228399"},{"id":"FDB6E3CC223991D1","name":"觀塘偉樂街 (KT570)","lat":"22.305268","long":"114.225305"},{"id":"58584BC1AC41723C","name":"牛池灣轉車站 - 紅萼樓 (H2)","lat":"22.336895","long":"114.206268"},{"id":"0EB21C27E769261B","name":"黃大仙轉車站 - 黃大仙廟 (D1)","lat":"22.341470","long":"114.195370"},{"id":"29A62A8FE112766B","name":"豐力樓 (SS730)","lat":"22.342585","long":"114.172991"},{"id":"9751EE79B103C9B8","name":"畢架山花園 (SS732)","lat":"22.341649","long":"114.166733"},{"id":"246ECB0F3B94855D","name":"葵涌道荔景邨 (KW102)","lat":"22.352823","long":"114.126548"},{"id":"D17DA49D5EFC6DD4","name":"葵芳廣場 (KW103)","lat":"22.357804","long":"114.130111"},{"id":"ABA04608DBB7C351","name":"光輝圍 (KW111)","lat":"22.367785","long":"114.133619"},{"id":"40A8EA2850B0979B","name":"葵涌健全街 (KW129)","lat":"22.370465","long":"114.130938"},{"id":"B943DBEE65B0B18F","name":"大窩口轉車站-大窩口站 (B2)","lat":"22.370365","long":"114.124962"},{"id":"5AF593F7A11180E2","name":"荃灣眾安街 (TW139)","lat":"22.371566","long":"114.118883"},{"id":"92A8281D80524F78","name":"荃灣大河道 (TW290)","lat":"22.371910","long":"114.115970"},{"id":"E8A145669A392955","name":"荃灣西站巴士總站 (TW970)","lat":"22.368086","long":"114.110624"}],"routeId":"290E","description":"正常班次"},{"company":"kmb","route":"290E","routeType":"1","dir":"I","orig":"荃灣西站","dest":"將軍澳工業邨","stopList":[{"id":"E8A145669A392955","name":"荃灣西站巴士總站 (TW970)","lat":"22.368086","long":"114.110624"},{"id":"060A70079F196C7C","name":"荃灣大河道 (TW570)","lat":"22.371519","long":"114.114991"},{"id":"1F934873940D1F49","name":"荃灣眾安街 (TW387)","lat":"22.372659","long":"114.118190"},{"id":"C9E264A3F9D4CEB3","name":"大窩口轉車站 -大窩口站 (A1)","lat":"22.370561","long":"114.123847"},{"id":"558D298696B57A4D","name":"昌榮路迴旋處 (KW398)","lat":"22.370230","long":"114.131936"},{"id":"364529AB163D8609","name":"葵俊苑 (KW453)","lat":"22.364743","long":"114.132908"},{"id":"9217F5E1950F12BF","name":"新葵興花園 (KW456)","lat":"22.361948","long":"114.131856"},{"id":"F1934936E2AB96E4","name":"葵芳邨 (KW460)","lat":"22.359821","long":"114.131178"},{"id":"3E8426FA1832BA50","name":"葵涌廣場 (KW530)","lat":"22.358435","long":"114.127814"},{"id":"7420DF52F1B42C9F","name":"新都會廣場 (KW545)","lat":"22.357777","long":"114.126133"},{"id":"D198122830A4FDE3","name":"畢架山花園 (SS190)","lat":"22.341687","long":"114.167069"},{"id":"99EF4CA10B3E1F17","name":"豐力樓 (SS192)","lat":"22.343140","long":"114.172841"},{"id":"9FD865B00B2D54A1","name":"黃大仙轉車站 - 黃大仙廟 (B5)","lat":"22.341855","long":"114.192100"},{"id":"68B207DDC9A182AB","name":"牛池灣轉車站 - 牛池灣村 (G1)","lat":"22.336630","long":"114.207400"},{"id":"41E95E283D770EF7","name":"觀塘偉樂街 (KT204)","lat":"22.305598","long":"114.225310"},{"id":"F282012BBB2865E5","name":"將軍澳中心 (TK120)","lat":"22.306252","long":"114.257182"},{"id":"B550EC84B77440F8","name":"將軍澳站 (TK121)","lat":"22.307111","long":"114.259778"},{"id":"20FDDA894D722F88","name":"將軍澳廣場 (TK122)","lat":"22.308076","long":"114.262359"},{"id":"4E7C1C7F6D191BCB","name":"蓬萊路 (TK300)","lat":"22.308372","long":"114.267883"},{"id":"BED3E96AAC2B3B3D","name":"消防及救護學院 (TK543)","lat":"22.305101","long":"114.274640"},{"id":"815BC43527FD9247","name":"百勝角 (TK301)","lat":"22.301733","long":"114.272574"},{"id":"FC56A42F8EF929FA","name":"康城站 (TK921)","lat":"22.296239","long":"114.268098"},{"id":"B3F2EC8E42FA3184","name":"峻瀅 日出康城 (TK302)","lat":"22.297382","long":"114.272496"},{"id":"2307DECBF51E9D7F","name":"MEGA Plus 數據中心 (TK303)","lat":"22.294404","long":"114.273728"},{"id":"13B87ED5725EE00D","name":"大赤沙消防局 (TK320)","lat":"22.289612","long":"114.273473"},{"id":"4A195F954ACD67C5","name":"駿日街 (TK321)","lat":"22.286887","long":"114.271576"},{"id":"27EF80951F8ED49E","name":"將軍澳工業邨巴士總站 (TK990)","lat":"22.283296","long":"114.270278"}],"routeId":"290E","description":"正常班次"}]