[{"company":"gmb","route":"29A","routeType":1,"orig":"鴨脷洲邨","dest":"海洋公園 (水上樂園)","stopList":[{"id":20012948,"name":"鴨脷洲橋道, 近鴨脷洲邨利福樓低座","lat":"22.244227","long":"114.150736"},{"id":20012949,"name":"悅海街, 近悅海華庭第三座","lat":"22.244027","long":"114.154605"},{"id":20015541,"name":"鴨脷洲大街, 近高寶閣","lat":"22.243548","long":"114.154330"},{"id":20020557,"name":"鴨脷洲大街, 近鴨脷洲診所","lat":"22.243402","long":"114.153646"},{"id":20012869,"name":"黃竹坑道, 甄沾記大廈","lat":"22.248533","long":"114.163742"},{"id":20015516,"name":"深灣道, 近南濤閣","lat":"22.244685","long":"114.165631"},{"id":20011727,"name":"海洋公園 (水上樂園)","lat":"22.236104","long":"114.167081"}],"routeId":2007530,"description":"正常班次"},{"company":"gmb","route":"29A","routeType":2,"orig":"海洋公園 (水上樂園)","dest":"鴨脷洲邨","stopList":[{"id":20011727,"name":"海洋公園 (水上樂園)","lat":"22.236104","long":"114.167081"},{"id":20015542,"name":"黃竹坑道, 近貴寶工業大廈 ","lat":"22.248322","long":"114.166057"},{"id":20012949,"name":"悅海街, 近悅海華庭第三座","lat":"22.244027","long":"114.154605"},{"id":20020557,"name":"鴨脷洲大街, 近鴨脷洲診所","lat":"22.243402","long":"114.153646"},{"id":20012948,"name":"鴨脷洲橋道, 近鴨脷洲邨利福樓低座","lat":"22.244227","long":"114.150736"}],"routeId":2007530,"description":"正常班次"},{"company":"gmb","route":"29A","routeType":1,"orig":"九龍塘(沙福道)公共交通交匯處","dest":"廣播道 (循環線)","stopList":[{"id":20003363,"name":"沙福道,九龍塘公共運輸交匯處","lat":"22.336441","long":"114.176777"},{"id":20008192,"name":"沙福道4號","lat":"22.336827","long":"114.178253"},{"id":20000735,"name":"聯合道322號","lat":"22.339204","long":"114.180291"},{"id":20000736,"name":"聯合道, 九龍國際浸信會外","lat":"22.339222","long":"114.182068"},{"id":20000737,"name":"廣播道, 香港電台電視大廈外","lat":"22.340486","long":"114.181272"},{"id":20000739,"name":"廣播道, 香港電台廣播大廈對面","lat":"22.342067","long":"114.180456"},{"id":20000740,"name":"廣播道, 星輝豪庭B座外","lat":"22.343096","long":"114.183000"},{"id":20000742,"name":"聯合道, 金城道遊樂場對面","lat":"22.339023","long":"114.181291"},{"id":20000673,"name":"根德道, 近九龍塘站","lat":"22.337190","long":"114.176467"},{"id":20003363,"name":"沙福道,九龍塘公共運輸交匯處","lat":"22.336441","long":"114.176777"}],"routeId":2001006,"description":"正常班次"}]