[{"company":"kmb","route":"30","routeType":"1","dir":"O","orig":"荃灣(荃威花園)","dest":"長沙灣","stopList":[{"id":"756141FB7A6EA349","name":"荃威花園總站 (TW932)","lat":"22.377318","long":"114.103988"},{"id":"38C7D227DA221E77","name":"荃景圍街市 (TW441)","lat":"22.378249","long":"114.104608"},{"id":"1FBE6A92A88835D3","name":"荃灣中心 (TW446)","lat":"22.378496","long":"114.108818"},{"id":"C5C940CF1281B923","name":"美環街 (TW449)","lat":"22.376370","long":"114.110711"},{"id":"CAEEAD91F339D3DA","name":"大涌道福來邨 (TW324)","lat":"22.374014","long":"114.111383"},{"id":"20E8B4520A802912","name":"滿樂大廈 (TW550)","lat":"22.372073","long":"114.112494"},{"id":"CDEB07C7C0841D5B","name":"戴麟趾夫人診所 (TW552)","lat":"22.370549","long":"114.115365"},{"id":"13824F71E7DB6109","name":"寶石大廈 (TW560)","lat":"22.369062","long":"114.118133"},{"id":"FE90421D0B82E691","name":"名逸居 (TW565)","lat":"22.367635","long":"114.120784"},{"id":"F3432DFEDE7E7AA0","name":"荃富街公園 (TW596)","lat":"22.368882","long":"114.121794"},{"id":"AAB411C52D067AD1","name":"大窩口轉車站 -大窩口站 (A2)","lat":"22.370533","long":"114.124151"},{"id":"558D298696B57A4D","name":"昌榮路迴旋處 (KW398)","lat":"22.370230","long":"114.131936"},{"id":"898337E6181E5E66","name":"葵俊苑 (KW452)","lat":"22.364416","long":"114.132751"},{"id":"6BF47953BB775A15","name":"葵芳邨葵信樓 (KW543)","lat":"22.361025","long":"114.129805"},{"id":"7420DF52F1B42C9F","name":"新都會廣場 (KW545)","lat":"22.357777","long":"114.126133"},{"id":"2111E15DA3CEFEC4","name":"葵青劇院 (KW184)","lat":"22.356258","long":"114.125948"},{"id":"68758E936DF9B173","name":"下葵涌分科診所 (KW300)","lat":"22.351820","long":"114.127910"},{"id":"EC14900F4BD3744B","name":"麗瑤邨榮瑤樓 (KW301)","lat":"22.354282","long":"114.131523"},{"id":"802F7427CE9492AB","name":"麗瑤巴士總站 (KW993)","lat":"22.353039","long":"114.131863"},{"id":"E3B77FDA167AE325","name":"麗瑤邨榮瑤樓 (KW421)","lat":"22.354269","long":"114.131169"},{"id":"3C9E0D9FBEA28AC6","name":"下葵涌分科診所 (KW422)","lat":"22.352331","long":"114.128541"},{"id":"952DD8539E6DAC75","name":"聯接街 (KW435)","lat":"22.351458","long":"114.127456"},{"id":"E3AB394138EDE467","name":"荔景站 (KW436)","lat":"22.348013","long":"114.126872"},{"id":"D597E0A9258D0894","name":"祖堯邨商場 (KW430)","lat":"22.346017","long":"114.128420"},{"id":"FA343B97309B84B4","name":"晨輝學校 (KW438)","lat":"22.344327","long":"114.129664"},{"id":"E7E5E3C1F761966F","name":"葵涌醫院 (KW439)","lat":"22.343414","long":"114.131617"},{"id":"062B0243536F0816","name":"瑪嘉烈醫院 (KW440)","lat":"22.341266","long":"114.132764"},{"id":"13B39CD775874ED9","name":"清麗苑 (KW441)","lat":"22.339701","long":"114.134317"},{"id":"08A97AD10693B841","name":"清麗商場 (KW442)","lat":"22.340079","long":"114.135584"},{"id":"42E5CC0772775C7E","name":"九華徑 (KW443)","lat":"22.343733","long":"114.136087"},{"id":"1D75CC7D0B671EEE","name":"華荔邨 (KW444)","lat":"22.342879","long":"114.138152"},{"id":"79BB89DA868D93CF","name":"荔灣道 (SS450)","lat":"22.339994","long":"114.139622"},{"id":"BE47845FF3E717FC","name":"蘭秀道 (SS452)","lat":"22.338462","long":"114.140765"},{"id":"42DD929DA7838903","name":"長沙灣巴士總站 (SS962)","lat":"22.337054","long":"114.148530"}],"routeId":"30","description":"正常班次"},{"company":"kmb","route":"30","routeType":"1","dir":"I","orig":"長沙灣","dest":"荃灣(荃威花園)","stopList":[{"id":"42DD929DA7838903","name":"長沙灣巴士總站 (SS962)","lat":"22.337054","long":"114.148530"},{"id":"70349D91EC82AFE1","name":"美孚轉車站 (B4) (SS318)","lat":"22.336449","long":"114.141577"},{"id":"E35B5F1B80E085E6","name":"蘭秀道 (SS270)","lat":"22.338565","long":"114.140480"},{"id":"A3F6D2CA9135A988","name":"荔灣道 (SS275)","lat":"22.340823","long":"114.138382"},{"id":"375D37F2AF5D762A","name":"九華徑 (KW280)","lat":"22.343835","long":"114.136715"},{"id":"37A4D07D7179CE76","name":"荔灣花園 (KW281)","lat":"22.341695","long":"114.136077"},{"id":"C979915CB2F4A35C","name":"清麗商場 (KW282)","lat":"22.339883","long":"114.135644"},{"id":"94612276CB142F93","name":"清麗苑 (KW283)","lat":"22.339601","long":"114.135030"},{"id":"24BB2F5E5721E970","name":"瑪嘉烈醫院 (KW284)","lat":"22.341055","long":"114.132659"},{"id":"0E7645CCF6AA3558","name":"葵涌醫院 (KW285)","lat":"22.343652","long":"114.130975"},{"id":"DB91BE349DC15226","name":"祖堯邨商場 (KW295)","lat":"22.346096","long":"114.128838"},{"id":"044D07048F45F915","name":"荔景站 (KW288)","lat":"22.348191","long":"114.126648"},{"id":"6E6EBC9D1AF2DA52","name":"荔景邨日景樓 (KW289)","lat":"22.349841","long":"114.126962"},{"id":"68758E936DF9B173","name":"下葵涌分科診所 (KW300)","lat":"22.351820","long":"114.127910"},{"id":"EC14900F4BD3744B","name":"麗瑤邨榮瑤樓 (KW301)","lat":"22.354282","long":"114.131523"},{"id":"B93E7E45080413AC","name":"麗瑤巴士總站 (KW992)","lat":"22.353021","long":"114.131887"},{"id":"6A24FDC5EF64C20A","name":"麗瑤邨榮瑤樓 (KW420)","lat":"22.354183","long":"114.131285"},{"id":"7F405508C257705F","name":"下葵涌分科診所 (KW423)","lat":"22.352190","long":"114.128466"},{"id":"7EA4C557505395EF","name":"葵芳站巴士總站 (KW900)","lat":"22.357064","long":"114.128765"},{"id":"EE0ACB2B516C305E","name":"葵芳智芳街 (KW144)","lat":"22.359353","long":"114.127596"},{"id":"45A499CD3132E90A","name":"林士德體育館 (KW146)","lat":"22.361069","long":"114.129536"},{"id":"4E12586C551A48D3","name":"葵興站 (KW930)","lat":"22.363024","long":"114.131445"},{"id":"F7005C63821245C3","name":"葵興路葵興邨 (KW153)","lat":"22.366549","long":"114.131773"},{"id":"ABA04608DBB7C351","name":"光輝圍 (KW111)","lat":"22.367785","long":"114.133619"},{"id":"40A8EA2850B0979B","name":"葵涌健全街 (KW129)","lat":"22.370465","long":"114.130938"},{"id":"B943DBEE65B0B18F","name":"大窩口轉車站-大窩口站 (B2)","lat":"22.370365","long":"114.124962"},{"id":"F09516C266163337","name":"悅來酒店 (TW280)","lat":"22.369267","long":"114.120582"},{"id":"E5F3EF7B050DA88F","name":"荃灣鹹田街 (TW260)","lat":"22.369313","long":"114.117187"},{"id":"8CD6C24187EC56A6","name":"戴麟趾夫人診所 (TW264)","lat":"22.370328","long":"114.115334"},{"id":"D711AFA9658D51E9","name":"荃灣富華街 (TW142)","lat":"22.373486","long":"114.115860"},{"id":"3F545756160D7BEA","name":"福來邨永康樓 (TW151)","lat":"22.374433","long":"114.113771"},{"id":"50C0A622B149C308","name":"美環街 (TW210)","lat":"22.376345","long":"114.110501"},{"id":"A73739F6D37090EE","name":"荃景花園 (TW212)","lat":"22.378110","long":"114.109520"},{"id":"07814531B88CD829","name":"荃灣中心 (TW214)","lat":"22.378635","long":"114.108257"},{"id":"A722DAAC99CE03D4","name":"聖母領報堂 (TW221)","lat":"22.377067","long":"114.105443"},{"id":"5FD70A34C55CE590","name":"荃灣港安醫院 (TW217)","lat":"22.376212","long":"114.104470"},{"id":"756141FB7A6EA349","name":"荃威花園總站 (TW932)","lat":"22.377318","long":"114.103988"}],"routeId":"30","description":"正常班次"},{"company":"gmb","route":"30","routeType":1,"orig":"銅鑼灣(蘭芳道)","dest":"跑馬地(冬青道)","stopList":[{"id":20002655,"name":"蘭芳道2-16號總站","lat":22.27846894937949,"long":114.1840222477913},{"id":20010300,"name":"禮頓道28-30號(近鳳城酒家)","lat":22.277173345568393,"long":114.18280720710756},{"id":20006911,"name":"黃泥涌道55-57號(近翠景樓)","lat":22.270643573416223,"long":114.18485958653442},{"id":20010301,"name":"成和道, 近成和大廈對面","lat":22.269701051465663,"long":114.18508172035217},{"id":20010302,"name":"成和道45號(匯豐銀行)","lat":22.268916691851764,"long":114.18621093034746},{"id":20000165,"name":"冬青道總站","lat":22.2658571221876,"long":114.18829391761625}],"routeId":2003472,"description":"正常班次"},{"company":"gmb","route":"30","routeType":2,"orig":"跑馬地(冬青道)","dest":"銅鑼灣(蘭芳道)","stopList":[{"id":20000165,"name":"冬青道總站","lat":22.2658571221876,"long":114.18829391761625},{"id":20000166,"name":"成和道60號(近警署)","lat":22.267031177050594,"long":114.18725586151326},{"id":20010308,"name":"成和道, 近跑馬地郵政局","lat":22.267977192033005,"long":114.18663740158082},{"id":20010309,"name":"山村道, 近豐寧大廈","lat":22.2676073475734,"long":114.18447017669679},{"id":20010310,"name":"宏德街2號","lat":22.268029317683617,"long":114.1839122772217},{"id":20011878,"name":"奕蔭街36號","lat":22.269207082631823,"long":114.18415987329318},{"id":20010312,"name":"恩平道3號","lat":22.278290246119127,"long":114.18571740388872},{"id":20002655,"name":"蘭芳道2-16號總站","lat":22.27846894937949,"long":114.1840222477913}],"routeId":2003472,"description":"正常班次"}]