[{"company":"gmb","route":"301M","routeType":1,"orig":"荃灣西站公共運輸交匯處","dest":"荃灣站(循環線)","stopList":[{"id":20002381,"name":"荃灣西站公共運輸交匯處","lat":"22.368801","long":"114.109627"},{"id":20020496,"name":"海盛路66號對面","lat":"22.370282","long":"114.111171"},{"id":20002069,"name":"海盛路, 有線電視大樓對面","lat":"22.372503","long":"114.106887"},{"id":20002070,"name":"大涌道, 寶安商會王少清中學對面","lat":"22.371736","long":"114.109645"},{"id":20001876,"name":"大河道30號","lat":"22.372127","long":"114.115781"},{"id":20001877,"name":"青山公路荃灣段287號","lat":"22.373382","long":"114.116150"},{"id":20001873,"name":"西樓角路南豐中心對面","lat":"22.374096","long":"114.116480"},{"id":20002062,"name":"大涌道, 寶安商會王少清中學外","lat":"22.371438","long":"114.109859"},{"id":20002381,"name":"荃灣西站公共運輸交匯處","lat":"22.368801","long":"114.109627"}],"routeId":2001889,"description":"正常班次"}]