[{"company":"kmb","route":"302","routeType":"1","dir":"O","orig":"慈雲山(北)","dest":"上環","stopList":[{"id":"DAE04FEC0D09BED6","name":"慈雲山(北)總站 (WT953)","lat":"22.350989","long":"114.198184"},{"id":"A9E1D35DB7FC7C7B","name":"愛富閣 (WT380)","lat":"22.350837","long":"114.199392"},{"id":"246B32CF201C6A7A","name":"慈雲山(中)巴士總站 (WT943)","lat":"22.348424","long":"114.200342"},{"id":"C185612B431B197A","name":"正康樓 (WT385)","lat":"22.348672","long":"114.202907"},{"id":"A4C9136D18013389","name":"德愛中學 (WT387)","lat":"22.347293","long":"114.204339"},{"id":"0D39977C225DD2D5","name":"硃鳳樓 (WT509)","lat":"22.345991","long":"114.200993"},{"id":"AC30AF0DFC95D507","name":"鳳鑽苑 (WT510)","lat":"22.344259","long":"114.199055"},{"id":"A0FDF34B2D278750","name":"鳳德商場 (WT408)","lat":"22.343311","long":"114.199551"},{"id":"951CE3B3EB98BA3A","name":"志蓮淨苑 (WT410)","lat":"22.340105","long":"114.204311"},{"id":"3BB1407BA61E0A9B","name":"彩虹轉車站 - 金碧樓 (WT345)","lat":"22.335522","long":"114.204886"},{"id":"0D625148EFD58C10","name":"坪石邨 (WT305)","lat":"22.333205","long":"114.207167"},{"id":"29ED2073D6C52B5A","name":"香港輔助警察隊總部 (KT595)","lat":"22.325187","long":"114.206906"},{"id":"DBF0C952CAA654B5","name":"東隧轉車站 (LT410)","lat":"22.300533","long":"114.233650"},{"id":"C9109584C37A5B98","name":"國際調解院","lat":"22.279372","long":"114.175241"},{"id":"970DA2E578488682","name":"分域街","lat":"22.279162","long":"114.170839"},{"id":"D2F2B3C5436007C2","name":"海富中心","lat":"22.279408","long":"114.165369"},{"id":"EC2573EE5FF42AAC","name":"滙豐總行","lat":"22.280726","long":"114.159172"},{"id":"74EE2ECB1A3773E9","name":"利源東街","lat":"22.283072","long":"114.156844"},{"id":"ED3477DD255C1DE7","name":"林士街","lat":"22.286025","long":"114.153476"}],"routeId":"302","description":"正常班次"},{"company":"ctb","route":"302","routeType":null,"dir":"O","orig":"慈雲山 (北)","dest":"上環","stopList":[{"id":"001757","name":"慈雲山 (北)","lat":"22.351142","long":"114.198066"},{"id":"003032","name":"慈愛苑愛富閣, 慈雲山道","lat":"22.350724","long":"114.199434"},{"id":"003028","name":"慈雲山 (中)","lat":"22.348598","long":"114.200187"},{"id":"001702","name":"慈正邨正康樓, 慈雲山道","lat":"22.348659","long":"114.203014"},{"id":"001703","name":"德愛中學, 慈雲山道","lat":"22.347406","long":"114.204225"},{"id":"003034","name":"鳳德邨硃鳳樓, 蒲崗村道","lat":"22.346038","long":"114.200962"},{"id":"003035","name":"鳳鑽苑, 蒲崗村道","lat":"22.344248","long":"114.198941"},{"id":"001469","name":"鳳德商場, 鳳德道","lat":"22.343185","long":"114.200013"},{"id":"001708","name":"志蓮淨苑, 鳳德道","lat":"22.339967","long":"114.204533"},{"id":"001448","name":"彩虹邨金碧樓, 彩虹邨通道","lat":"22.335158","long":"114.204981"},{"id":"001503","name":"坪石邨, 太子道東","lat":"22.333081","long":"114.207235"},{"id":"003036","name":"香港輔助警察隊總部, 啟祥道","lat":"22.325209","long":"114.206943"},{"id":"001463","name":"東區海底隧道巴士轉乘站","lat":"22.300498","long":"114.233513"},{"id":"002417","name":"國際調解院, 告士打道","lat":"22.279365","long":"114.175022"},{"id":"002421","name":"分域街, 告士打道","lat":"22.279171","long":"114.170964"},{"id":"001074","name":"金鐘 - 海富中心, 夏慤道","lat":"22.279523","long":"114.165144"},{"id":"001053","name":"滙豐總行大廈, 德輔道中","lat":"22.280739","long":"114.159050"},{"id":"001055","name":"利源東街, 德輔道中","lat":"22.283055","long":"114.156865"},{"id":"002735","name":"金龍中心, 德輔道中","lat":"22.286042","long":"114.153483"}],"routeId":"302","description":"正常班次"},{"company":"gmb","route":"302","routeType":1,"orig":"豪景花園","dest":"葵芳站(循環線)","stopList":[{"id":20002071,"name":"豪景花園","lat":"22.362187","long":"114.044085"},{"id":20002073,"name":"青山公路-青龍頭段深井公眾碼頭對面的停車灣 ","lat":"22.365529","long":"114.056724"},{"id":20001893,"name":"青山公路-深井段麗都花園對面的停車灣","lat":"22.366935","long":"114.058948"},{"id":20002059,"name":"沙咀道163號外","lat":"22.372243","long":"114.112208"},{"id":20001646,"name":"沙咀道戴麟趾夫人分科診療所外","lat":"22.370456","long":"114.115510"},{"id":20002077,"name":"沙咀道271號外","lat":"22.369617","long":"114.117054"},{"id":20009132,"name":"沙咀道364號對面","lat":"22.368321","long":"114.119476"},{"id":20001629,"name":"德士古道64A號外","lat":"22.368309","long":"114.122094"},{"id":20001445,"name":"青山公路-荃灣段港鐵大窩口站外","lat":"22.370568","long":"114.124016"},{"id":20002079,"name":"青山公路-葵涌段659號對面","lat":"22.371057","long":"114.129589"},{"id":20002080,"name":"青山公路-葵涌段570號外","lat":"22.370191","long":"114.131978"},{"id":20001854,"name":"葵涌道豪華工業大廈外","lat":"22.364357","long":"114.132727"},{"id":20002081,"name":"葵涌道裕林工業大廈外","lat":"22.359426","long":"114.131020"},{"id":20020497,"name":" 近葵涌道與大連排道交界","lat":"22.357200","long":"114.130040"},{"id":20002082,"name":"葵富路葵涌廣場外","lat":"22.358459","long":"114.127768"},{"id":20001716,"name":"興芳路188號外","lat":"22.359452","long":"114.127884"},{"id":20002145,"name":"葵涌道近禾葵里的交界處","lat":"22.367392","long":"114.133484"},{"id":20002083,"name":"青山公路-葵涌段659號外","lat":"22.370849","long":"114.129618"},{"id":20001687,"name":"青山公路-葵涌段港鐵大窩口站外","lat":"22.370378","long":"114.124929"},{"id":20020498,"name":"沙咀道, 尚翠苑外","lat":"22.367576","long":"114.120451"},{"id":20001643,"name":"沙咀道332號外","lat":"22.368949","long":"114.117967"},{"id":20002084,"name":"沙咀道274號外","lat":"22.369870","long":"114.116268"},{"id":20002085,"name":"沙咀道62號外","lat":"22.373398","long":"114.109761"},{"id":20009134,"name":"沙咀道6號外","lat":"22.374595","long":"114.107745"},{"id":20001887,"name":"青山公路-荃灣段麗城薈外","lat":"22.372184","long":"114.101838"},{"id":20020499,"name":"青山公路-荃灣段麗城花園第2期對面","lat":"22.371247","long":"114.100396"},{"id":20001889,"name":"青山公路-深井段麗都花園外的停車灣","lat":"22.366515","long":"114.058742"},{"id":20002071,"name":"豪景花園","lat":"22.362187","long":"114.044085"}],"routeId":2001890,"description":"正常班次"},{"company":"gmb","route":"302","routeType":1,"orig":"碧堤半島","dest":"葵芳(循環線)","stopList":[{"id":20001894,"name":"碧堤半島","lat":"22.367700","long":"114.061703"},{"id":20002059,"name":"沙咀道163號外","lat":"22.372243","long":"114.112208"},{"id":20001646,"name":"沙咀道戴麟趾夫人分科診療所外","lat":"22.370456","long":"114.115510"},{"id":20002077,"name":"沙咀道271號外","lat":"22.369617","long":"114.117054"},{"id":20009132,"name":"沙咀道364號對面","lat":"22.368321","long":"114.119476"},{"id":20001629,"name":"德士古道64A號外","lat":"22.368309","long":"114.122094"},{"id":20001445,"name":"青山公路-荃灣段港鐵大窩口站外","lat":"22.370568","long":"114.124016"},{"id":20002079,"name":"青山公路-葵涌段659號對面","lat":"22.371057","long":"114.129589"},{"id":20002080,"name":"青山公路-葵涌段570號外","lat":"22.370191","long":"114.131978"},{"id":20001854,"name":"葵涌道豪華工業大廈外","lat":"22.364357","long":"114.132727"},{"id":20002081,"name":"葵涌道裕林工業大廈外","lat":"22.359426","long":"114.131020"},{"id":20002082,"name":"葵富路葵涌廣場外","lat":"22.358459","long":"114.127768"},{"id":20001716,"name":"興芳路188號外","lat":"22.359452","long":"114.127884"},{"id":20002145,"name":"葵涌道近禾葵里的交界處","lat":"22.367392","long":"114.133484"},{"id":20002083,"name":"青山公路-葵涌段659號外","lat":"22.370849","long":"114.129618"},{"id":20001687,"name":"青山公路-葵涌段港鐵大窩口站外","lat":"22.370378","long":"114.124929"},{"id":20001643,"name":"沙咀道332號外","lat":"22.368949","long":"114.117967"},{"id":20002084,"name":"沙咀道274號外","lat":"22.369870","long":"114.116268"},{"id":20002085,"name":"沙咀道62號外","lat":"22.373398","long":"114.109761"},{"id":20009134,"name":"沙咀道6號外","lat":"22.374595","long":"114.107745"},{"id":20001887,"name":"青山公路-荃灣段麗城薈外","lat":"22.372184","long":"114.101838"},{"id":20001888,"name":"碧堤半島","lat":"22.367546","long":"114.061402"}],"routeId":2001891,"description":"短程班次"}]