[{"company":"kmb","route":"302","routeType":"1","dir":"O","orig":"慈雲山(北)","dest":"上環","stopList":[{"id":"DAE04FEC0D09BED6","name":"慈雲山(北)總站","lat":"22.350989","long":"114.198184"},{"id":"A9E1D35DB7FC7C7B","name":"愛富閣","lat":"22.350837","long":"114.199392"},{"id":"246B32CF201C6A7A","name":"慈雲山(中)巴士總站","lat":"22.348424","long":"114.200342"},{"id":"C185612B431B197A","name":"正康樓","lat":"22.348672","long":"114.202907"},{"id":"A4C9136D18013389","name":"德愛中學","lat":"22.347293","long":"114.204339"},{"id":"0D39977C225DD2D5","name":"硃鳳樓","lat":"22.345991","long":"114.200993"},{"id":"AC30AF0DFC95D507","name":"鳳鑽苑","lat":"22.344259","long":"114.199055"},{"id":"A0FDF34B2D278750","name":"鳳德商場","lat":"22.343311","long":"114.199551"},{"id":"951CE3B3EB98BA3A","name":"志蓮淨苑","lat":"22.340105","long":"114.204311"},{"id":"3BB1407BA61E0A9B","name":"彩虹轉車站 - 金碧樓 (L1)","lat":"22.335522","long":"114.204886"},{"id":"0D625148EFD58C10","name":"坪石邨","lat":"22.333205","long":"114.207167"},{"id":"29ED2073D6C52B5A","name":"香港輔助警察隊總部","lat":"22.325187","long":"114.206906"},{"id":"DBF0C952CAA654B5","name":"東隧轉車站 (K2)","lat":"22.300533","long":"114.233650"},{"id":"C9109584C37A5B98","name":"舊灣仔警署","lat":"22.279372","long":"114.175241"},{"id":"970DA2E578488682","name":"分域街","lat":"22.279162","long":"114.170839"},{"id":"D2F2B3C5436007C2","name":"海富中心","lat":"22.279408","long":"114.165369"},{"id":"EC2573EE5FF42AAC","name":"滙豐總行","lat":"22.280726","long":"114.159172"},{"id":"74EE2ECB1A3773E9","name":"利源東街","lat":"22.283072","long":"114.156844"},{"id":"ED3477DD255C1DE7","name":"林士街","lat":"22.286025","long":"114.153476"}],"routeId":"302","description":"正常班次"},{"company":"ctb","route":"302","routeType":null,"dir":"O","orig":"慈雲山 (北)","dest":"上環","stopList":[{"id":"001757","name":"慈雲山 (北)","lat":"22.351141972091","long":"114.19806638053"},{"id":"003032","name":"慈愛苑愛富閣, 慈雲山道","lat":"22.350724002091","long":"114.19943445053"},{"id":"003028","name":"慈雲山 (中)","lat":"22.348597652091","long":"114.20018681053"},{"id":"001702","name":"慈正邨正康樓, 慈雲山道","lat":"22.348658942091","long":"114.20301440053"},{"id":"001703","name":"德愛中學, 慈雲山道","lat":"22.347405502091","long":"114.20422544053"},{"id":"003034","name":"鳳德邨硃鳳樓, 蒲崗村道","lat":"22.346037692091","long":"114.20096236053"},{"id":"003035","name":"鳳鑽苑, 蒲崗村道","lat":"22.344247902091","long":"114.19894094053"},{"id":"001469","name":"鳳德商場, 鳳德道","lat":"22.343185252091","long":"114.20001329053"},{"id":"001708","name":"志蓮淨苑, 鳳德道","lat":"22.339966572091","long":"114.20453329053"},{"id":"001448","name":"彩虹邨金碧樓, 彩虹邨通道","lat":"22.335157802091","long":"114.20498066053"},{"id":"001503","name":"坪石邨, 太子道東","lat":"22.333081342091","long":"114.20723458053"},{"id":"003036","name":"香港輔助警察隊總部, 啟祥道","lat":"22.325209412091","long":"114.20694292053"},{"id":"001463","name":"東區海底隧道巴士轉乘站","lat":"22.300498232091","long":"114.23351297053"},{"id":"002417","name":"舊灣仔警署, 告士打道","lat":"22.279365262091","long":"114.17502194053"},{"id":"002421","name":"分域街, 告士打道","lat":"22.279171322091","long":"114.17096442053"},{"id":"001074","name":"金鐘 - 海富中心, 夏慤道","lat":"22.279523082091","long":"114.16514437053"},{"id":"001053","name":"滙豐總行大廈, 德輔道中","lat":"22.280739462091","long":"114.15905007053"},{"id":"001055","name":"利源東街, 德輔道中","lat":"22.283055002091","long":"114.15686516053"},{"id":"002735","name":"金龍中心, 德輔道中","lat":"22.286042042091","long":"114.15348257053"}],"routeId":"302","description":"正常班次"},{"company":"gmb","route":"302","routeType":1,"orig":"豪景花園","dest":"葵芳站(循環線)","stopList":[{"id":20002071,"name":"豪景花園","lat":22.362186702388215,"long":114.04408541158074},{"id":20002073,"name":"青山公路-青龍頭段深井公眾碼頭對面的停車灣 ","lat":22.36552883732622,"long":114.05672355103941},{"id":20001893,"name":"青山公路-深井段麗都花園對面的停車灣","lat":22.366934968009815,"long":114.05894815921783},{"id":20002059,"name":"沙咀道163號外","lat":22.372243092303712,"long":114.11220826241154},{"id":20001646,"name":"沙咀道戴麟趾夫人分科診療所外","lat":22.370456331663856,"long":114.11551031719436},{"id":20002077,"name":"沙咀道271號外","lat":22.369617069651053,"long":114.1170544860846},{"id":20009132,"name":"沙咀道364號對面","lat":22.368321248540042,"long":114.11947622895242},{"id":20001629,"name":"德士古道64A號外","lat":22.368309424758,"long":114.12209419800521},{"id":20001445,"name":"青山公路-荃灣段港鐵大窩口站外","lat":22.37056769718124,"long":114.1240157978919},{"id":20002079,"name":"青山公路-葵涌段659號對面","lat":22.371057068810167,"long":114.12958889112979},{"id":20002080,"name":"青山公路-葵涌段570號外","lat":22.37019081709324,"long":114.13197771641929},{"id":20001854,"name":"葵涌道豪華工業大廈外","lat":22.364357294733022,"long":114.13272718412742},{"id":20002081,"name":"葵涌道裕林工業大廈外","lat":22.359426143021615,"long":114.1310199990679},{"id":20020497,"name":" 近葵涌道與大連排道交界","lat":22.35720023853153,"long":114.13004010915758},{"id":20002082,"name":"葵富路葵涌廣場外","lat":22.35845892157101,"long":114.1277679108613},{"id":20001716,"name":"興芳路188號外","lat":22.35945231700617,"long":114.12788406779742},{"id":20002145,"name":"葵涌道近禾葵里的交界處","lat":22.367391760758395,"long":114.13348355300658},{"id":20002083,"name":"青山公路-葵涌段659號外","lat":22.370849375029678,"long":114.12961808980371},{"id":20001687,"name":"青山公路-葵涌段港鐵大窩口站外","lat":22.370378351240692,"long":114.12492856194372},{"id":20020498,"name":"沙咀道, 尚翠苑外","lat":22.36757615384885,"long":114.12045121192934},{"id":20001643,"name":"沙咀道332號外","lat":22.368949144642645,"long":114.11796745447472},{"id":20002084,"name":"沙咀道274號外","lat":22.36986963220508,"long":114.11626791201392},{"id":20002085,"name":"沙咀道62號外","lat":22.373398004431845,"long":114.10976088393666},{"id":20009134,"name":"沙咀道6號外","lat":22.374595346989008,"long":114.10774458199741},{"id":20001887,"name":"青山公路-荃灣段麗城薈外","lat":22.372184436116424,"long":114.10183841651029},{"id":20020499,"name":"青山公路-荃灣段麗城花園第2期對面","lat":22.371247102964187,"long":114.10039633512498},{"id":20001889,"name":"青山公路-深井段麗都花園外的停車灣","lat":22.366514650129684,"long":114.05874222237698},{"id":20002071,"name":"豪景花園","lat":22.362186702388215,"long":114.04408541158074}],"routeId":2001890,"description":"正常班次"},{"company":"gmb","route":"302","routeType":1,"orig":"碧堤半島","dest":"葵芳(循環線)","stopList":[{"id":20001894,"name":"碧堤半島","lat":22.3676997818528,"long":114.06170255896464},{"id":20002059,"name":"沙咀道163號外","lat":22.372243092303712,"long":114.11220826241154},{"id":20001646,"name":"沙咀道戴麟趾夫人分科診療所外","lat":22.370456331663856,"long":114.11551031719436},{"id":20002077,"name":"沙咀道271號外","lat":22.369617069651053,"long":114.1170544860846},{"id":20009132,"name":"沙咀道364號對面","lat":22.368321248540042,"long":114.11947622895242},{"id":20001629,"name":"德士古道64A號外","lat":22.368309424758,"long":114.12209419800521},{"id":20001445,"name":"青山公路-荃灣段港鐵大窩口站外","lat":22.37056769718124,"long":114.1240157978919},{"id":20002079,"name":"青山公路-葵涌段659號對面","lat":22.371057068810167,"long":114.12958889112979},{"id":20002080,"name":"青山公路-葵涌段570號外","lat":22.37019081709324,"long":114.13197771641929},{"id":20001854,"name":"葵涌道豪華工業大廈外","lat":22.364357294733022,"long":114.13272718412742},{"id":20002081,"name":"葵涌道裕林工業大廈外","lat":22.359426143021615,"long":114.1310199990679},{"id":20002082,"name":"葵富路葵涌廣場外","lat":22.35845892157101,"long":114.1277679108613},{"id":20001716,"name":"興芳路188號外","lat":22.35945231700617,"long":114.12788406779742},{"id":20002145,"name":"葵涌道近禾葵里的交界處","lat":22.367391760758395,"long":114.13348355300658},{"id":20002083,"name":"青山公路-葵涌段659號外","lat":22.370849375029678,"long":114.12961808980371},{"id":20001687,"name":"青山公路-葵涌段港鐵大窩口站外","lat":22.370378351240692,"long":114.12492856194372},{"id":20001643,"name":"沙咀道332號外","lat":22.368949144642645,"long":114.11796745447472},{"id":20002084,"name":"沙咀道274號外","lat":22.36986963220508,"long":114.11626791201392},{"id":20002085,"name":"沙咀道62號外","lat":22.373398004431845,"long":114.10976088393666},{"id":20009134,"name":"沙咀道6號外","lat":22.374595346989008,"long":114.10774458199741},{"id":20001887,"name":"青山公路-荃灣段麗城薈外","lat":22.372184436116424,"long":114.10183841651029},{"id":20001888,"name":"碧堤半島","lat":22.367546048616706,"long":114.06140169743128}],"routeId":2001891,"description":"短程班次"}]