[{"company":"kmb","route":"307","routeType":"1","dir":"O","orig":"大埔中心","dest":"中環(渡輪碼頭)","stopList":[{"id":"09DFD305F09C558E","name":"大埔中心總站 (TP903)","lat":"22.453221","long":"114.169240"},{"id":"4249ED0CD65130CC","name":"大埔文娛中心 (TP539)","lat":"22.451521","long":"114.167457"},{"id":"3CE4F8574F4F9D72","name":"廣福道轉車站 - 寶鄉街 (TP545)","lat":"22.449048","long":"114.166918"},{"id":"3FD481FB9B9DC36C","name":"大埔運頭角里 (TP569)","lat":"22.447394","long":"114.169932"},{"id":"12E4BAFA2B73435B","name":"廣福邨 (TP576)","lat":"22.446599","long":"114.173474"},{"id":"FFBEBD7068E01EA4","name":"大老山隧道 (A1) (ST792)","lat":"22.377571","long":"114.212260"},{"id":"DBF0C952CAA654B5","name":"東隧轉車站 (LT410)","lat":"22.300533","long":"114.233650"},{"id":"182976403F291FE0","name":"國際調解院","lat":"22.279390","long":"114.175398"},{"id":"B8760F28D7938609","name":"分域街","lat":"22.279154","long":"114.170943"},{"id":"3225E407F87D904C","name":"海富中心","lat":"22.279438","long":"114.165264"},{"id":"DD5CDB226E98FD0B","name":"滙豐總行","lat":"22.280655","long":"114.159154"},{"id":"78A74247AE9B466E","name":"利源東街","lat":"22.283045","long":"114.156867"},{"id":"A95DD63E3A98FF7F","name":"永吉街","lat":"22.285592","long":"114.154192"},{"id":"C360EB0956976C4D","name":"中環三號碼頭","lat":"22.287587","long":"114.157308"},{"id":"C1FC4F003C9031B3","name":"中環渡輪碼頭","lat":"22.286203","long":"114.159814"}],"routeId":"307","description":"正常班次"},{"company":"kmb","route":"307","routeType":"3","dir":"O","orig":"大埔中心","dest":"上環","stopList":[{"id":"09DFD305F09C558E","name":"大埔中心總站 (TP903)","lat":"22.453221","long":"114.169240"},{"id":"4249ED0CD65130CC","name":"大埔文娛中心 (TP539)","lat":"22.451521","long":"114.167457"},{"id":"3CE4F8574F4F9D72","name":"廣福道轉車站 - 寶鄉街 (TP545)","lat":"22.449048","long":"114.166918"},{"id":"3FD481FB9B9DC36C","name":"大埔運頭角里 (TP569)","lat":"22.447394","long":"114.169932"},{"id":"12E4BAFA2B73435B","name":"廣福邨 (TP576)","lat":"22.446599","long":"114.173474"},{"id":"FFBEBD7068E01EA4","name":"大老山隧道 (A1) (ST792)","lat":"22.377571","long":"114.212260"},{"id":"DBF0C952CAA654B5","name":"東隧轉車站 (LT410)","lat":"22.300533","long":"114.233650"},{"id":"182976403F291FE0","name":"國際調解院","lat":"22.279390","long":"114.175398"},{"id":"B8760F28D7938609","name":"分域街","lat":"22.279154","long":"114.170943"},{"id":"3225E407F87D904C","name":"海富中心","lat":"22.279438","long":"114.165264"},{"id":"DD5CDB226E98FD0B","name":"滙豐總行","lat":"22.280655","long":"114.159154"},{"id":"78A74247AE9B466E","name":"利源東街","lat":"22.283045","long":"114.156867"},{"id":"A95DD63E3A98FF7F","name":"永吉街","lat":"22.285592","long":"114.154192"}],"routeId":"307","description":"特別班次"},{"company":"kmb","route":"307","routeType":"1","dir":"I","orig":"中環(渡輪碼頭)","dest":"大埔中心","stopList":[{"id":"C1FC4F003C9031B3","name":"中環渡輪碼頭","lat":"22.286203","long":"114.159814"},{"id":"BD9D7DAC7CD2F537","name":"林士街","lat":"22.286157","long":"114.153596"},{"id":"59073C1C6D8BB1F7","name":"德忌利士街","lat":"22.283317","long":"114.156864"},{"id":"A9069A17B1474D76","name":"皇后像廣場","lat":"22.280854","long":"114.159427"},{"id":"3007D34FB91FB27E","name":"金鐘站","lat":"22.278270","long":"114.165080"},{"id":"20554F51D1E03E33","name":"入境事務大樓","lat":"22.279454","long":"114.173066"},{"id":"BD0E2A233376612E","name":"告士打道維園","lat":"22.280362","long":"114.187216"},{"id":"DDEB0396969D004B","name":"興發街","lat":"22.283420","long":"114.191215"},{"id":"991E47DBD416B908","name":"東隧轉車站 (LT100)","lat":"22.300972","long":"114.232741"},{"id":"9274EF6791CA3ED8","name":"大老山隧道 (B1) (ST113)","lat":"22.376864","long":"114.211807"},{"id":"CDB292D507E4302D","name":"廣福邨　 (TP267)","lat":"22.446299","long":"114.173076"},{"id":"4EF065C6D7FCCFE7","name":"廣福道轉車站 (TP278)","lat":"22.448116","long":"114.167887"},{"id":"530F970BB56D778D","name":"廣福道轉車站 - 寶鄉橋 (TP302)","lat":"22.449775","long":"114.166962"},{"id":"6716018C3EE42733","name":"大埔安祥路 (TP311)","lat":"22.451779","long":"114.167238"},{"id":"09DFD305F09C558E","name":"大埔中心總站 (TP903)","lat":"22.453221","long":"114.169240"}],"routeId":"307","description":"正常班次"},{"company":"ctb","route":"307","routeType":null,"dir":"I","orig":"中環碼頭／上環","dest":"大埔中心","stopList":[{"id":"001145","name":"中環碼頭 - 巴士總站","lat":"22.286355","long":"114.159735"},{"id":"001044","name":"林士街, 德輔道中","lat":"22.286050","long":"114.153728"},{"id":"001047","name":"德忌利士街, 德輔道中","lat":"22.283302","long":"114.156834"},{"id":"001051","name":"皇后像廣場, 德輔道中","lat":"22.280749","long":"114.159644"},{"id":"001137","name":"金鐘 - 統一中心, 金鐘道","lat":"22.278349","long":"114.164939"},{"id":"002423","name":"入境事務大樓, 告士打道","lat":"22.279436","long":"114.172703"},{"id":"002561","name":"維多利亞公園, 告士打道","lat":"22.279942","long":"114.187467"},{"id":"001213","name":"維多利亞公園, 高士威道","lat":"22.281133","long":"114.190066"},{"id":"001251","name":"興發街","lat":"22.283574","long":"114.191093"},{"id":"001464","name":"東區海底隧道巴士轉乘站","lat":"22.301112","long":"114.233206"},{"id":"001985","name":"大老山隧道巴士轉乘站","lat":"22.376911","long":"114.211789"},{"id":"002017","name":"廣福邨, 大埔公路","lat":"22.446409","long":"114.172965"},{"id":"002018","name":"廣福道","lat":"22.448120","long":"114.167935"},{"id":"002019","name":"寶鄉橋,  寶鄉街","lat":"22.449939","long":"114.167056"},{"id":"002020","name":"安祥路","lat":"22.451905","long":"114.167296"},{"id":"002021","name":"大埔中心","lat":"22.452922","long":"114.169368"}],"routeId":"307","description":"正常班次"},{"company":"ctb","route":"307","routeType":null,"dir":"O","orig":"大埔中心","dest":"中環碼頭／上環","stopList":[{"id":"002021","name":"大埔中心","lat":"22.452922","long":"114.169368"},{"id":"002022","name":"大埔文娛中心, 安祥路","lat":"22.451690","long":"114.167402"},{"id":"002023","name":"寶鄉街","lat":"22.449296","long":"114.166977"},{"id":"002024","name":"運頭角里, 廣福道","lat":"22.447238","long":"114.170065"},{"id":"002025","name":"廣福邨, 大埔公路","lat":"22.446524","long":"114.173529"},{"id":"001986","name":"大老山隧道巴士轉乘站","lat":"22.377149","long":"114.212566"},{"id":"001463","name":"東區海底隧道巴士轉乘站","lat":"22.300498","long":"114.233513"},{"id":"002417","name":"國際調解院, 告士打道","lat":"22.279365","long":"114.175022"},{"id":"002421","name":"分域街, 告士打道","lat":"22.279171","long":"114.170964"},{"id":"001074","name":"金鐘 - 海富中心, 夏慤道","lat":"22.279523","long":"114.165144"},{"id":"001053","name":"滙豐總行大廈, 德輔道中","lat":"22.280739","long":"114.159050"},{"id":"001055","name":"利源東街, 德輔道中","lat":"22.283055","long":"114.156865"},{"id":"001057","name":"永吉街, 德輔道中","lat":"22.285680","long":"114.154107"},{"id":"001170","name":"中環碼頭 - 愉景灣渡輪, 民光街","lat":"22.287371","long":"114.157617"},{"id":"001145","name":"中環碼頭 - 巴士總站","lat":"22.286355","long":"114.159735"}],"routeId":"307","description":"正常班次"}]