[{"company":"kmb","route":"307A","routeType":"1","dir":"O","orig":"大埔頭","dest":"上環","stopList":[{"id":"7F40151DA3492D5A","name":"大埔頭總站 (TP976)","lat":"22.454963","long":"114.160745"},{"id":"E796B592A3D045F0","name":"大埔公眾泳池 (TP245)","lat":"22.454643","long":"114.163986"},{"id":"18624A8EBAB72722","name":"富亨總站 (TP993)","lat":"22.458315","long":"114.171884"},{"id":"325FDAE396B59480","name":"新興花園 (TP381)","lat":"22.452910","long":"114.172626"},{"id":"FFBEBD7068E01EA4","name":"大老山隧道 (A1) (ST792)","lat":"22.377571","long":"114.212260"},{"id":"DBF0C952CAA654B5","name":"東隧轉車站 (LT410)","lat":"22.300533","long":"114.233650"},{"id":"182976403F291FE0","name":"國際調解院","lat":"22.279390","long":"114.175398"},{"id":"B8760F28D7938609","name":"分域街","lat":"22.279154","long":"114.170943"},{"id":"3225E407F87D904C","name":"海富中心","lat":"22.279438","long":"114.165264"},{"id":"DD5CDB226E98FD0B","name":"滙豐總行","lat":"22.280655","long":"114.159154"},{"id":"78A74247AE9B466E","name":"利源東街","lat":"22.283045","long":"114.156867"},{"id":"A95DD63E3A98FF7F","name":"永吉街","lat":"22.285592","long":"114.154192"}],"routeId":"307A","description":"正常班次"},{"company":"ctb","route":"307A","routeType":null,"dir":"O","orig":"大埔頭","dest":"上環","stopList":[{"id":"003322","name":"大埔頭","lat":"22.454753","long":"114.161144"},{"id":"003245","name":"大埔游泳池, 汀太路","lat":"22.454718","long":"114.164298"},{"id":"002055","name":"富亨邨","lat":"22.458268","long":"114.171872"},{"id":"003227","name":"新興花園, 南運路","lat":"22.452905","long":"114.172560"},{"id":"001986","name":"大老山隧道巴士轉乘站","lat":"22.377149","long":"114.212566"},{"id":"001463","name":"東區海底隧道巴士轉乘站","lat":"22.300498","long":"114.233513"},{"id":"002417","name":"國際調解院, 告士打道","lat":"22.279365","long":"114.175022"},{"id":"002421","name":"分域街, 告士打道","lat":"22.279171","long":"114.170964"},{"id":"001074","name":"金鐘 - 海富中心, 夏慤道","lat":"22.279523","long":"114.165144"},{"id":"001053","name":"滙豐總行大廈, 德輔道中","lat":"22.280739","long":"114.159050"},{"id":"001055","name":"利源東街, 德輔道中","lat":"22.283055","long":"114.156865"},{"id":"001057","name":"永吉街, 德輔道中","lat":"22.285680","long":"114.154107"}],"routeId":"307A","description":"正常班次"}]