[{"company":"kmb","route":"307A","routeType":"1","dir":"O","orig":"大埔頭","dest":"上環","stopList":[{"id":"7F40151DA3492D5A","name":"大埔頭總站 (TP976)","lat":"22.454963","long":"114.160745"},{"id":"E796B592A3D045F0","name":"大埔公眾泳池 (TP245)","lat":"22.454643","long":"114.163986"},{"id":"18624A8EBAB72722","name":"富亨總站 (TP993)","lat":"22.458315","long":"114.171884"},{"id":"325FDAE396B59480","name":"新興花園 (TP381)","lat":"22.452910","long":"114.172626"},{"id":"FFBEBD7068E01EA4","name":"大老山隧道 (A1) (ST792)","lat":"22.377571","long":"114.212260"},{"id":"DBF0C952CAA654B5","name":"東隧轉車站 (K2) (LT410)","lat":"22.300533","long":"114.233650"},{"id":"182976403F291FE0","name":"舊灣仔警署","lat":"22.279390","long":"114.175398"},{"id":"B8760F28D7938609","name":"分域街","lat":"22.279154","long":"114.170943"},{"id":"3225E407F87D904C","name":"海富中心","lat":"22.279438","long":"114.165264"},{"id":"DD5CDB226E98FD0B","name":"滙豐總行","lat":"22.280655","long":"114.159154"},{"id":"78A74247AE9B466E","name":"利源東街","lat":"22.283045","long":"114.156867"},{"id":"A95DD63E3A98FF7F","name":"永吉街","lat":"22.285592","long":"114.154192"}],"routeId":"307A","description":"正常班次"},{"company":"ctb","route":"307A","routeType":null,"dir":"O","orig":"大埔頭","dest":"上環","stopList":[{"id":"003322","name":"大埔頭","lat":"22.454753092091","long":"114.16114444053"},{"id":"003245","name":"大埔游泳池, 汀太路","lat":"22.454717632091","long":"114.16429793053"},{"id":"002055","name":"富亨邨","lat":"22.458268022091","long":"114.17187207053"},{"id":"003227","name":"新興花園, 南運路","lat":"22.452904542091","long":"114.17256034053"},{"id":"001986","name":"大老山隧道巴士轉乘站","lat":"22.377148882091","long":"114.21256572053"},{"id":"001463","name":"東區海底隧道巴士轉乘站","lat":"22.300498232091","long":"114.23351297053"},{"id":"002417","name":"國際調解院, 告士打道","lat":"22.279365262091","long":"114.17502194053"},{"id":"002421","name":"分域街, 告士打道","lat":"22.279171322091","long":"114.17096442053"},{"id":"001074","name":"金鐘 - 海富中心, 夏慤道","lat":"22.279523082091","long":"114.16514437053"},{"id":"001053","name":"滙豐總行大廈, 德輔道中","lat":"22.280739462091","long":"114.15905007053"},{"id":"001055","name":"利源東街, 德輔道中","lat":"22.283055002091","long":"114.15686516053"},{"id":"001057","name":"永吉街, 德輔道中","lat":"22.285679522091","long":"114.15410704053"}],"routeId":"307A","description":"正常班次"}]