[{"company":"gmb","route":"310M","routeType":1,"orig":"青衣站","dest":"荃灣(海濱花園)(循環線)","stopList":[{"id":20008023,"name":"青衣站專線小巴總站","lat":"22.359475","long":"114.106246"},{"id":20002090,"name":"德士古道, 荃灣工業中心對面","lat":"22.364722","long":"114.115309"},{"id":20012736,"name":"永順街荃灣公園對面","lat":"22.365799","long":"114.113835"},{"id":20012315,"name":"永順街海灣花園外","lat":"22.364175","long":"114.113536"},{"id":20021349,"name":"永順街海濱廣場外","lat":"22.363201","long":"114.114341"},{"id":20013529,"name":"永順街荃灣公園外 ","lat":"22.365920","long":"114.113728"},{"id":20002096,"name":"德士古道, 荃灣工業中心外","lat":"22.364758","long":"114.115542"},{"id":20008023,"name":"青衣站專線小巴總站","lat":"22.359475","long":"114.106246"}],"routeId":2004594,"description":"正常班次 "}]