[{"company":"gmb","route":"310M","routeType":1,"orig":"青衣站","dest":"荃灣(海濱花園)(循環線)","stopList":[{"id":20008023,"name":"青衣站專線小巴總站","lat":22.359474919638863,"long":114.10624623298646},{"id":20002090,"name":"德士古道, 荃灣工業中心對面","lat":22.36472186425419,"long":114.11530893730283},{"id":20012736,"name":"永順街荃灣公園對面","lat":22.365799455086844,"long":114.11383453756574},{"id":20012315,"name":"永順街海灣花園外","lat":22.364175478816264,"long":114.11353647708894},{"id":20021349,"name":"永順街海濱廣場外","lat":22.36320065293376,"long":114.11434113979341},{"id":20013529,"name":"永順街荃灣公園外 ","lat":22.36592033865276,"long":114.11372825503352},{"id":20002096,"name":"德士古道, 荃灣工業中心外","lat":22.36475807479952,"long":114.11554193991878},{"id":20008023,"name":"青衣站專線小巴總站","lat":22.359474919638863,"long":114.10624623298646}],"routeId":2004594,"description":"正常班次 "}]