[{"company":"kmb","route":"31A","routeType":"1","dir":"O","orig":"葵涌邨","dest":"石籬(大隴街)","stopList":[{"id":"1D93E7E9081E833B","name":"葵涌邨總站 (KW939)","lat":"22.367183","long":"114.128695"},{"id":"299184738ADD432A","name":"葵涌邨秋葵樓 (KW507)","lat":"22.368256","long":"114.130388"},{"id":"0393E099E78BEB94","name":"葵康苑 (KW508)","lat":"22.363259","long":"114.130687"},{"id":"75AA9801B870CCE1","name":"葵興站總站 (KW929)","lat":"22.363127","long":"114.131446"},{"id":"6F29E09A140E6F54","name":"葵興路葵興邨 (KW151)","lat":"22.366378","long":"114.131735"},{"id":"140E4137EAC319B5","name":"光輝圍 (KW113)","lat":"22.367927","long":"114.133665"},{"id":"8C6EF1266E4EE05B","name":"昌榮路 (KW480)","lat":"22.370532","long":"114.134301"},{"id":"D2ACD052AFD5900A","name":"梨木道 (KW321)","lat":"22.371271","long":"114.136752"},{"id":"C95751DB2112F279","name":"石蔭東邨 (KW340)","lat":"22.372348","long":"114.139503"},{"id":"F7AD8DE682AD5BB3","name":"安蔭邨豐蔭樓 (KW345)","lat":"22.368957","long":"114.141586"},{"id":"54BA046B2D0297A0","name":"石籬邨石佳樓 (KW346)","lat":"22.364728","long":"114.140138"},{"id":"51E196E962453AB4","name":"石籬商場 (KW235)","lat":"22.364567","long":"114.138992"},{"id":"D2EF3E1D638B1B9A","name":"葵涌打磚坪街 (KW485)","lat":"22.366078","long":"114.136904"},{"id":"3597DD106B5CD29F","name":"石籬(大隴街)總站 (KW976)","lat":"22.365722","long":"114.139143"}],"routeId":"31A","description":"正常班次"},{"company":"gmb","route":"31A","routeType":1,"orig":"唐人新村","dest":"元朗廣場(循環線)","stopList":[{"id":20018562,"name":"屏康里","lat":"22.440366","long":"114.011267"},{"id":20014624,"name":"瑋珊園","lat":"22.438551","long":"114.011287"},{"id":20018479,"name":"沙井村 ","lat":"22.437447","long":"114.011534"},{"id":20018511,"name":"達成士多","lat":"22.436255","long":"114.009818"},{"id":20018512,"name":"混凝土工廠","lat":"22.435192","long":"114.007947"},{"id":20018513,"name":"采茵軒","lat":"22.433638","long":"114.008432"},{"id":20018514,"name":"唐人新村路127號 / 廣記商店","lat":"22.433032","long":"114.009724"},{"id":20018515,"name":"柏𣾷","lat":"22.432842","long":"114.010326"},{"id":20018516,"name":"菜站","lat":"22.432609","long":"114.011007"},{"id":20018517,"name":"逸翠軒/金莎花園/馬寶花園","lat":"22.433193","long":"114.011578"},{"id":20018518,"name":"金碧花園","lat":"22.435875","long":"114.011981"},{"id":20014629,"name":"唐泰路","lat":"22.437352","long":"114.011437"},{"id":20018489,"name":"瑋珊園","lat":"22.438437","long":"114.011191"},{"id":20018490,"name":"屏康里","lat":"22.440497","long":"114.010993"},{"id":20018491,"name":"唐人新村遊樂場","lat":"22.441556","long":"114.011119"},{"id":20018492,"name":"屏山輕鐵站","lat":"22.442777","long":"114.011939"},{"id":20018561,"name":"朗庭園","lat":"22.444256","long":"114.018216"},{"id":20018493,"name":"水邊圍邨","lat":"22.444531","long":"114.019793"},{"id":20018494,"name":"元朗廣場 ","lat":"22.444641","long":"114.024217"},{"id":20018577,"name":"元朗（西）","lat":"22.445322","long":"114.025094"},{"id":20018578,"name":"安寧路，啟信學校","lat":"22.446062","long":"114.024593"},{"id":20018562,"name":"屏康里","lat":"22.440366","long":"114.011267"}],"routeId":2006576,"description":"正常班次"}]