[{"company":"kmb","route":"32M","routeType":"1","dir":"O","orig":"葵芳站","dest":"象山(循環線)","stopList":[{"id":"B15BDCDB640C46BC","name":"葵芳站巴士總站 (KW904)","lat":"22.356872","long":"114.128102"},{"id":"D17DA49D5EFC6DD4","name":"葵芳廣場 (KW103)","lat":"22.357804","long":"114.130111"},{"id":"6BCA27BE4E0F904D","name":"光輝圍 (KW112)","lat":"22.367857","long":"114.133641"},{"id":"40A8EA2850B0979B","name":"葵涌健全街 (KW129)","lat":"22.370465","long":"114.130938"},{"id":"B943DBEE65B0B18F","name":"大窩口轉車站-大窩口站 (KW131)","lat":"22.370365","long":"114.124962"},{"id":"48CD423F78F6FA22","name":"石圍角邨石蓮樓 (TW401)","lat":"22.374750","long":"114.122830"},{"id":"B18C8718C0B7904F","name":"石圍角邨石菊樓 (TW402)","lat":"22.376118","long":"114.124570"},{"id":"D1A1DF2BDC842EE5","name":"東普陀 (TW405)","lat":"22.378716","long":"114.126958"},{"id":"33A7AB58611A0F6D","name":"三棟屋村 (TW410)","lat":"22.379813","long":"114.129474"},{"id":"B1D6CA16EE22225D","name":"象山邨秀山樓 (TW415)","lat":"22.378878","long":"114.131633"},{"id":"3B54D43994CAC165","name":"三棟屋村 (TW510)","lat":"22.379816","long":"114.129569"},{"id":"D9655458715EBBF8","name":"海壩村 (TW515)","lat":"22.378954","long":"114.127632"},{"id":"8374DD78C287D9A7","name":"石圍角邨石葵樓 (TW521)","lat":"22.375852","long":"114.124790"},{"id":"D5252DAD51812506","name":"石圍角邨石荷樓 (TW522)","lat":"22.374513","long":"114.122837"},{"id":"09DF70F8DE2426BE","name":"蕙荃體育館 (TW530)","lat":"22.373029","long":"114.122402"},{"id":"AAB411C52D067AD1","name":"大窩口轉車站 -大窩口站 (KW393)","lat":"22.370533","long":"114.124151"},{"id":"6CD14DBE643D2995","name":"國瑞路河背村 (KW350)","lat":"22.371252","long":"114.126499"},{"id":"75F02FF13CC7B34A","name":"國瑞路公園 (KW351)","lat":"22.371680","long":"114.128803"},{"id":"D6ABAF265F431EB9","name":"昌榮路迴旋處 (KW352)","lat":"22.370376","long":"114.133179"},{"id":"B09E06FF6EF5A8C4","name":"葵俊苑 (KW455)","lat":"22.364634","long":"114.132876"},{"id":"508B02C5E209E802","name":"新葵興花園 (KW457)","lat":"22.362154","long":"114.131856"},{"id":"6C11A9780213BBBB","name":"新都會廣場 (KW536)","lat":"22.356988","long":"114.127690"},{"id":"B15BDCDB640C46BC","name":"葵芳站巴士總站 (KW904)","lat":"22.356872","long":"114.128102"}],"routeId":"32M","description":"正常班次"},{"company":"gmb","route":"32M","routeType":1,"orig":"龍坪道","dest":"石硤尾 (循環線)","stopList":[{"id":20000758,"name":"龍坪道, 畢架山花園外","lat":22.342030471838026,"long":114.16758425724501},{"id":20004009,"name":"南昌街, 公共衛生檢測中心外","lat":22.33891485545243,"long":114.16643899908146},{"id":20006915,"name":"巴域街, 石硤尾街市外","lat":22.331654256092015,"long":114.16619686663428},{"id":20000519,"name":"窩仔街, 銘賢書院外","lat":22.3316363310415,"long":114.168526503638},{"id":20000752,"name":"南昌街, 石硤尾消防局對面","lat":22.33869814494594,"long":114.16680789269088},{"id":20004016,"name":"延坪道, 帝景峰外","lat":22.344206493989017,"long":114.16278851720075},{"id":20000758,"name":"龍坪道, 畢架山花園外","lat":22.342030471838026,"long":114.16758425724501}],"routeId":2000992,"description":"正常班次"}]