[{"company":"kmb","route":"33","routeType":"1","dir":"O","orig":"荃灣西站","dest":"油塘","stopList":[{"id":"6296109576D60CBB","name":"荃灣西站巴士總站 (TW969)","lat":"22.368011","long":"114.110701"},{"id":"F9FB27004CA4B62B","name":"戴麟趾夫人診所 (TW555)","lat":"22.370484","long":"114.115478"},{"id":"73E530058FD534D3","name":"荃灣鹹田街 (TW558)","lat":"22.369482","long":"114.117352"},{"id":"3357B55DE2539CA3","name":"荃灣聯仁街 (TW285)","lat":"22.367588","long":"114.117633"},{"id":"A0C0A82ECC740D76","name":"荃灣馬頭壩道 (TW116)","lat":"22.366984","long":"114.116390"},{"id":"170375F0819EB588","name":"荃灣龍德街 (TW110)","lat":"22.365043","long":"114.115322"},{"id":"D198122830A4FDE3","name":"畢架山花園 (SS191)","lat":"22.341687","long":"114.167069"},{"id":"99EF4CA10B3E1F17","name":"豐力樓 (SS192)","lat":"22.343140","long":"114.172841"},{"id":"9FD865B00B2D54A1","name":"黃大仙轉車站-黃大仙廟 (WT204)","lat":"22.341855","long":"114.192100"},{"id":"96A6FE5F07BDF203","name":"黃大仙轉車站-沙田坳道 (WT210)","lat":"22.341856","long":"114.195281"},{"id":"9A0959AB68FA5E1F","name":"九龍灣臨華街 (KT123)","lat":"22.323512","long":"114.208973"},{"id":"91449853378E9F8F","name":"常悅道 (KT131)","lat":"22.321438","long":"114.207948"},{"id":"5D8FCEF2915882FD","name":"觀塘順業街 (KT200)","lat":"22.316313","long":"114.214785"},{"id":"C2605DED84199B84","name":"觀塘勵業街 (KT201)","lat":"22.314912","long":"114.216362"},{"id":"BF8E440F5584D39D","name":"觀塘巧明街 (KT202)","lat":"22.311960","long":"114.219656"},{"id":"8A928A173E67CD96","name":"觀塘駿業街 (KT203)","lat":"22.309675","long":"114.221690"},{"id":"9C839C3824F47A6A","name":"聖安當女書院 (LT367)","lat":"22.300362","long":"114.238520"},{"id":"CB4BB0008A87E4FC","name":"油塘邨 (LT368)","lat":"22.298144","long":"114.239225"},{"id":"3EAFE91BF6223FA6","name":"油塘巴士總站 (LT963)","lat":"22.295851","long":"114.238412"}],"routeId":"33","description":"正常班次"},{"company":"kmb","route":"33","routeType":"1","dir":"I","orig":"油塘","dest":"荃灣西站","stopList":[{"id":"3EAFE91BF6223FA6","name":"油塘巴士總站 (LT963)","lat":"22.295851","long":"114.238412"},{"id":"5309D748976029CB","name":"鯉魚門廣場 (LT601)","lat":"22.296392","long":"114.239676"},{"id":"3C6DAB7267F9E54F","name":"油塘邨 (LT602)","lat":"22.299326","long":"114.238661"},{"id":"73E85E88E124EF2C","name":"聖安當女書院 (LT605)","lat":"22.301615","long":"114.237487"},{"id":"2EF9764BE18FC290","name":"藍田站 (LT607)","lat":"22.305354","long":"114.234128"},{"id":"FF6E49051D6D9A8C","name":"麗港公園 (LT421)","lat":"22.307955","long":"114.226733"},{"id":"F8D908466E28E9C2","name":"觀塘駿業街 (KT571)","lat":"22.309844","long":"114.221264"},{"id":"70CD99F4D487740A","name":"觀塘巧明街 (KT572)","lat":"22.313431","long":"114.217776"},{"id":"992F89F2265F8D8D","name":"觀塘順業街 (KT573)","lat":"22.315896","long":"114.214922"},{"id":"A21BEB6F4E6D43E6","name":"九龍灣常悅道 (KT475)","lat":"22.321143","long":"114.208979"},{"id":"1E71CBFE8560B0EF","name":"九龍灣臨華街 (KT479)","lat":"22.322347","long":"114.208909"},{"id":"62A1C8EFAC876BDB","name":"黃大仙轉車站-黃大仙廟 (WT714)","lat":"22.341470","long":"114.195370"},{"id":"E435F72ACB8438ED","name":"摩士公園泳池 (WT720)","lat":"22.341570","long":"114.191604"},{"id":"29A62A8FE112766B","name":"豐力樓 (SS730)","lat":"22.342585","long":"114.172991"},{"id":"2AB6DAEF7149F0FC","name":"荃灣龍德街 (TW234)","lat":"22.365203","long":"114.115002"},{"id":"65784B3D2E189B56","name":"荃灣聯仁街 (TW121)","lat":"22.367676","long":"114.117501"},{"id":"E5F3EF7B050DA88F","name":"荃灣鹹田街 (TW260)","lat":"22.369313","long":"114.117187"},{"id":"E8B842CC3AB62056","name":"戴麟趾夫人診所 (TW263)","lat":"22.369949","long":"114.116026"},{"id":"716D84D1B7EA256E","name":"荃灣西站巴士總站(落客站)","lat":"22.367802","long":"114.110950"}],"routeId":"33","description":"正常班次"},{"company":"gmb","route":"33","routeType":1,"orig":"康山","dest":"北角(馬寶道)","stopList":[{"id":20013702,"name":"康盛街,近康怡花園俱樂部","lat":"22.280127","long":"114.214007"},{"id":20013703,"name":"基利路,近南豐新邨第５座","lat":"22.281626","long":"114.213647"},{"id":20013704,"name":"基利路,近南豐新邨第４座","lat":"22.282202","long":"114.213658"},{"id":20018746,"name":"英皇道,近海山樓","lat":"22.284653","long":"114.212280"},{"id":20018747,"name":"英皇道,近太古坊","lat":"22.287210","long":"114.210206"},{"id":20002501,"name":"英皇道,近北角官立小學","lat":"22.289081","long":"114.209557"},{"id":20013705,"name":"模範里,近模範邨民祥樓","lat":"22.291089","long":"114.208167"},{"id":20013706,"name":"北角街市","lat":"22.291402","long":"114.205359"},{"id":20013707,"name":"兆華大廈","lat":"22.291298","long":"114.204061"},{"id":20000210,"name":"馬寶道,華禮大廈外","lat":"22.292026","long":"114.201717"}],"routeId":2005685,"description":"正常班次 "},{"company":"gmb","route":"33","routeType":2,"orig":"北角(馬寶道)","dest":"康山","stopList":[{"id":20000210,"name":"馬寶道,華禮大廈外","lat":"22.292026","long":"114.201717"},{"id":20013708,"name":"渣華道,近海璇第５Ａ座","lat":"22.292720","long":"114.201988"},{"id":20013709,"name":"渣華道,近柯達大廈（一期及二期）","lat":"22.292427","long":"114.206738"},{"id":20013710,"name":"渣華道,近香港中華煤氣有限公司","lat":"22.291400","long":"114.209356"},{"id":20013711,"name":"英皇道,近麗華樓","lat":"22.289886","long":"114.209484"},{"id":20013712,"name":"英皇道,近多寶樓","lat":"22.287895","long":"114.210198"},{"id":20005086,"name":"英皇道,近太古坊康橋大廈","lat":"22.286805","long":"114.210595"},{"id":20013713,"name":"英皇道,近新威園Ｂ座","lat":"22.285776","long":"114.211303"},{"id":20013714,"name":"基利路,近基利路休憩處","lat":"22.284329","long":"114.213594"},{"id":20013715,"name":"基利路,近南豐新邨第３座","lat":"22.282246","long":"114.213763"},{"id":20013716,"name":"基利路,近南豐新邨第５座","lat":"22.281547","long":"114.213720"},{"id":20013717,"name":"康愉街,近康怡花園Ｊ座","lat":"22.282654","long":"114.216190"},{"id":20013718,"name":"康盛街,近康怡花園Ｆ座","lat":"22.281105","long":"114.216056"},{"id":20013702,"name":"康盛街,近康怡花園俱樂部","lat":"22.280127","long":"114.214007"}],"routeId":2005685,"description":"正常班次 "},{"company":"gmb","route":"33","routeType":1,"orig":"元朗(泰豐街)","dest":"下白泥","stopList":[{"id":20001264,"name":"泰豐街, 近翠華樓","lat":"22.445923","long":"114.030036"},{"id":20001266,"name":"屏廈路, 近世紀中心","lat":"22.442988","long":"114.010892"},{"id":20001268,"name":"屏廈路, 近屏欣苑屏欣商場","lat":"22.445961","long":"114.004729"},{"id":20020329,"name":"屏廈路, 天盛苑對面","lat":"22.446861","long":"114.003075"},{"id":20001276,"name":"流浮山小巴總站","lat":"22.467620","long":"113.983997"},{"id":20003238,"name":"稔灣路, 近未命名通道","lat":"22.438623","long":"113.949076"},{"id":20003237,"name":"稔灣路, 近慈航佛恩堂","lat":"22.433428","long":"113.946938"},{"id":20001269,"name":"下白泥(稔灣路)小巴總站","lat":"22.427065","long":"113.943092"}],"routeId":2002321,"description":"正常班次"},{"company":"gmb","route":"33","routeType":2,"orig":"下白泥","dest":"元朗(泰豐街)","stopList":[{"id":20001269,"name":"下白泥(稔灣路)小巴總站","lat":"22.427065","long":"113.943092"},{"id":20003237,"name":"稔灣路, 近慈航佛恩堂","lat":"22.433428","long":"113.946938"},{"id":20003238,"name":"稔灣路, 近未命名通道","lat":"22.438623","long":"113.949076"},{"id":20001276,"name":"流浮山小巴總站","lat":"22.467620","long":"113.983997"},{"id":20009436,"name":"屏廈路, 近田廈花園","lat":"22.446821","long":"113.994493"},{"id":20020330,"name":"屏廈路, 近天盛苑","lat":"22.446974","long":"114.002901"},{"id":20001272,"name":"屏廈路, 近上章圍一號及二號雨水泵房","lat":"22.445917","long":"114.005050"},{"id":20001274,"name":"屏廈路, 近世紀中心","lat":"22.442970","long":"114.010979"},{"id":20020331,"name":"青山公路－屏山段, 近庸園路巴士站","lat":"22.443151","long":"114.012959"},{"id":20004135,"name":"青山公路－屏山段, 朗庭園外","lat":"22.444296","long":"114.018526"},{"id":20001263,"name":"青山公路－元朗段, 澤榮閣外","lat":"22.444629","long":"114.026394"},{"id":20001253,"name":"同樂街, 近金華樓","lat":"22.445361","long":"114.027967"},{"id":20001264,"name":"泰豐街, 近翠華樓","lat":"22.445923","long":"114.030036"}],"routeId":2002321,"description":"正常班次"}]