[{"company":"kmb","route":"33","routeType":"1","dir":"O","orig":"荃灣西站","dest":"油塘","stopList":[{"id":"6296109576D60CBB","name":"荃灣西站巴士總站 (TW969)","lat":"22.368011","long":"114.110701"},{"id":"F9FB27004CA4B62B","name":"戴麟趾夫人診所 (TW555)","lat":"22.370484","long":"114.115478"},{"id":"73E530058FD534D3","name":"荃灣鹹田街 (TW558)","lat":"22.369482","long":"114.117352"},{"id":"3357B55DE2539CA3","name":"荃灣聯仁街 (TW285)","lat":"22.367588","long":"114.117633"},{"id":"A0C0A82ECC740D76","name":"荃灣馬頭壩道 (TW116)","lat":"22.366984","long":"114.116390"},{"id":"170375F0819EB588","name":"荃灣龍德街 (TW110)","lat":"22.365043","long":"114.115322"},{"id":"D198122830A4FDE3","name":"畢架山花園 (SS191)","lat":"22.341687","long":"114.167069"},{"id":"99EF4CA10B3E1F17","name":"豐力樓 (SS192)","lat":"22.343140","long":"114.172841"},{"id":"9FD865B00B2D54A1","name":"黃大仙轉車站 - 黃大仙廟","lat":"22.341855","long":"114.192100"},{"id":"96A6FE5F07BDF203","name":"黃大仙轉車站 - 沙田坳道","lat":"22.341856","long":"114.195281"},{"id":"9A0959AB68FA5E1F","name":"九龍灣臨華街 (KT123)","lat":"22.323512","long":"114.208973"},{"id":"91449853378E9F8F","name":"常悅道 (KT131)","lat":"22.321438","long":"114.207948"},{"id":"5D8FCEF2915882FD","name":"觀塘順業街 (KT200)","lat":"22.316313","long":"114.214785"},{"id":"C2605DED84199B84","name":"觀塘勵業街 (KT201)","lat":"22.314912","long":"114.216362"},{"id":"BF8E440F5584D39D","name":"觀塘巧明街 (KT202)","lat":"22.311960","long":"114.219656"},{"id":"8A928A173E67CD96","name":"觀塘駿業街 (KT203)","lat":"22.309675","long":"114.221690"},{"id":"9C839C3824F47A6A","name":"聖安當女書院 (LT367)","lat":"22.300362","long":"114.238520"},{"id":"CB4BB0008A87E4FC","name":"油塘邨 (LT368)","lat":"22.298144","long":"114.239225"},{"id":"3EAFE91BF6223FA6","name":"油塘巴士總站 (LT963)","lat":"22.295851","long":"114.238412"}],"routeId":"33","description":"正常班次"},{"company":"kmb","route":"33","routeType":"1","dir":"I","orig":"油塘","dest":"荃灣西站","stopList":[{"id":"3EAFE91BF6223FA6","name":"油塘巴士總站 (LT963)","lat":"22.295851","long":"114.238412"},{"id":"5309D748976029CB","name":"鯉魚門廣場 (LT601)","lat":"22.296392","long":"114.239676"},{"id":"3C6DAB7267F9E54F","name":"油塘邨 (LT602)","lat":"22.299326","long":"114.238661"},{"id":"73E85E88E124EF2C","name":"聖安當女書院 (LT605)","lat":"22.301615","long":"114.237487"},{"id":"2EF9764BE18FC290","name":"藍田站 (LT607)","lat":"22.305354","long":"114.234128"},{"id":"FF6E49051D6D9A8C","name":"麗港公園 (LT421)","lat":"22.307955","long":"114.226733"},{"id":"F8D908466E28E9C2","name":"觀塘駿業街 (KT571)","lat":"22.309844","long":"114.221264"},{"id":"70CD99F4D487740A","name":"觀塘巧明街 (KT572)","lat":"22.313431","long":"114.217776"},{"id":"992F89F2265F8D8D","name":"觀塘順業街 (KT573)","lat":"22.315896","long":"114.214922"},{"id":"A21BEB6F4E6D43E6","name":"九龍灣常悅道 (KT475)","lat":"22.321143","long":"114.208979"},{"id":"1E71CBFE8560B0EF","name":"九龍灣臨華街 (KT479)","lat":"22.322347","long":"114.208909"},{"id":"0EB21C27E769261B","name":"黃大仙轉車站 - 黃大仙廟","lat":"22.341470","long":"114.195370"},{"id":"E435F72ACB8438ED","name":"摩士公園泳池 (WT720)","lat":"22.341570","long":"114.191604"},{"id":"29A62A8FE112766B","name":"豐力樓 (SS730)","lat":"22.342585","long":"114.172991"},{"id":"2AB6DAEF7149F0FC","name":"荃灣龍德街 (TW234)","lat":"22.365203","long":"114.115002"},{"id":"65784B3D2E189B56","name":"荃灣聯仁街 (TW121)","lat":"22.367676","long":"114.117501"},{"id":"E5F3EF7B050DA88F","name":"荃灣鹹田街 (TW260)","lat":"22.369313","long":"114.117187"},{"id":"E8B842CC3AB62056","name":"戴麟趾夫人診所 (TW263)","lat":"22.369949","long":"114.116026"},{"id":"716D84D1B7EA256E","name":"荃灣西站巴士總站(落客站)","lat":"22.367802","long":"114.110950"}],"routeId":"33","description":"正常班次"},{"company":"gmb","route":"33","routeType":1,"orig":"康山","dest":"北角(馬寶道)","stopList":[{"id":20013702,"name":"康盛街,近康怡花園俱樂部","lat":22.280126907630095,"long":114.21400666236879},{"id":20013703,"name":"基利路,近南豐新邨第５座","lat":22.28162600265923,"long":114.2136472463608},{"id":20013704,"name":"基利路,近南豐新邨第４座","lat":22.282201809722824,"long":114.21365797519685},{"id":20018746,"name":"英皇道,近海山樓","lat":22.284652726507808,"long":114.21227998219082},{"id":20018747,"name":"英皇道,近太古坊","lat":22.28720991357442,"long":114.21020634733293},{"id":20002501,"name":"英皇道,近北角官立小學","lat":22.2890810358031,"long":114.2095569984142},{"id":20013705,"name":"模範里,近模範邨民祥樓","lat":22.29108928950595,"long":114.20816749334338},{"id":20013706,"name":"北角街市","lat":22.29140199143321,"long":114.20535922050477},{"id":20013707,"name":"兆華大廈","lat":22.29129775753519,"long":114.20406103134157},{"id":20000210,"name":"馬寶道,華禮大廈外","lat":22.292026411372348,"long":114.20171679018387}],"routeId":2005685,"description":"正常班次 "},{"company":"gmb","route":"33","routeType":2,"orig":"北角(馬寶道)","dest":"康山","stopList":[{"id":20000210,"name":"馬寶道,華禮大廈外","lat":22.292026411372348,"long":114.20171679018387},{"id":20013708,"name":"渣華道,近海璇第５Ａ座","lat":22.292719799010932,"long":114.20198768377305},{"id":20013709,"name":"渣華道,近柯達大廈（一期及二期）","lat":22.29242695395641,"long":114.20673787593843},{"id":20013710,"name":"渣華道,近香港中華煤氣有限公司","lat":22.291399509674637,"long":114.20935571193695},{"id":20013711,"name":"英皇道,近麗華樓","lat":22.289885628732662,"long":114.20948445796968},{"id":20013712,"name":"英皇道,近多寶樓","lat":22.287895222608928,"long":114.21019792556763},{"id":20005086,"name":"英皇道,近太古坊康橋大廈","lat":22.286805104890526,"long":114.21059476618228},{"id":20013713,"name":"英皇道,近新威園Ｂ座","lat":22.28577573156381,"long":114.21130299568178},{"id":20013714,"name":"基利路,近基利路休憩處","lat":22.2843288006025,"long":114.2135936021805},{"id":20013715,"name":"基利路,近南豐新邨第３座","lat":22.282246484309677,"long":114.21376258134843},{"id":20013716,"name":"基利路,近南豐新邨第５座","lat":22.281546580809202,"long":114.2137196660042},{"id":20013717,"name":"康愉街,近康怡花園Ｊ座","lat":22.282653518776797,"long":114.21618998050691},{"id":20013718,"name":"康盛街,近康怡花園Ｆ座","lat":22.28110479594507,"long":114.21605587005617},{"id":20013702,"name":"康盛街,近康怡花園俱樂部","lat":22.280126907630095,"long":114.21400666236879}],"routeId":2005685,"description":"正常班次 "},{"company":"gmb","route":"33","routeType":1,"orig":"元朗(泰豐街)","dest":"下白泥","stopList":[{"id":20001264,"name":"泰豐街, 近翠華樓","lat":22.44592323216435,"long":114.03003608034561},{"id":20001266,"name":"屏廈路, 近世紀中心","lat":22.442987858705433,"long":114.0108918536957},{"id":20001268,"name":"屏廈路, 近屏欣苑屏欣商場","lat":22.44596144689896,"long":114.00472918301013},{"id":20020329,"name":"屏廈路, 天盛苑對面","lat":22.44686073468876,"long":114.00307506322862},{"id":20001276,"name":"流浮山小巴總站","lat":22.467620012345918,"long":113.98399716561751},{"id":20003238,"name":"稔灣路, 近未命名通道","lat":22.438623039354685,"long":113.94907588325412},{"id":20003237,"name":"稔灣路, 近慈航佛恩堂","lat":22.4334275220433,"long":113.94693760772068},{"id":20001269,"name":"下白泥(稔灣路)小巴總站","lat":22.427064588213867,"long":113.94309187540634}],"routeId":2002321,"description":"正常班次"},{"company":"gmb","route":"33","routeType":2,"orig":"下白泥","dest":"元朗(泰豐街)","stopList":[{"id":20001269,"name":"下白泥(稔灣路)小巴總站","lat":22.427064588213867,"long":113.94309187540634},{"id":20003237,"name":"稔灣路, 近慈航佛恩堂","lat":22.4334275220433,"long":113.94693760772068},{"id":20003238,"name":"稔灣路, 近未命名通道","lat":22.438623039354685,"long":113.94907588325412},{"id":20001276,"name":"流浮山小巴總站","lat":22.467620012345918,"long":113.98399716561751},{"id":20009436,"name":"屏廈路, 近田廈花園","lat":22.44682107086038,"long":113.99449333548546},{"id":20020330,"name":"屏廈路, 近天盛苑","lat":22.4469735286387,"long":114.00290071964265},{"id":20001272,"name":"屏廈路, 近上章圍一號及二號雨水泵房","lat":22.445916636324505,"long":114.00504982396052},{"id":20001274,"name":"屏廈路, 近世紀中心","lat":22.442969887715392,"long":114.01097930569794},{"id":20020331,"name":"青山公路－屏山段, 近庸園路巴士站","lat":22.443150878156075,"long":114.0129590034485},{"id":20004135,"name":"青山公路－屏山段, 朗庭園外","lat":22.44429590745084,"long":114.01852597920235},{"id":20001263,"name":"青山公路－元朗段, 澤榮閣外","lat":22.444628527598113,"long":114.02639445471937},{"id":20001253,"name":"同樂街, 近金華樓","lat":22.445361450886523,"long":114.02796744336437},{"id":20001264,"name":"泰豐街, 近翠華樓","lat":22.44592323216435,"long":114.03003608034561}],"routeId":2002321,"description":"正常班次"}]