[{"company":"kmb","route":"33B","routeType":"1","dir":"O","orig":"荃灣西站","dest":"油塘","stopList":[{"id":"6296109576D60CBB","name":"荃灣西站巴士總站","lat":"22.368011","long":"114.110701"},{"id":"F9FB27004CA4B62B","name":"戴麟趾夫人診所","lat":"22.370484","long":"114.115478"},{"id":"73E530058FD534D3","name":"荃灣鹹田街","lat":"22.369482","long":"114.117352"},{"id":"3357B55DE2539CA3","name":"荃灣聯仁街","lat":"22.367588","long":"114.117633"},{"id":"A0C0A82ECC740D76","name":"荃灣馬頭壩道","lat":"22.366984","long":"114.116390"},{"id":"170375F0819EB588","name":"荃灣龍德街","lat":"22.365043","long":"114.115322"},{"id":"D198122830A4FDE3","name":"畢架山花園","lat":"22.341687","long":"114.167069"},{"id":"99EF4CA10B3E1F17","name":"豐力樓","lat":"22.343140","long":"114.172841"},{"id":"9FD865B00B2D54A1","name":"黃大仙轉車站 - 黃大仙廟 (B5)","lat":"22.341855","long":"114.192100"},{"id":"96A6FE5F07BDF203","name":"黃大仙轉車站 - 沙田坳道 (A1)","lat":"22.341856","long":"114.195281"},{"id":"D0F8772D043C207E","name":"九龍灣站","lat":"22.323713","long":"114.214493"},{"id":"BE36EF30B86ADD1D","name":"牛頭角下邨","lat":"22.321653","long":"114.214648"},{"id":"598F766175BE3EF3","name":"觀塘道休憩處","lat":"22.318159","long":"114.215070"},{"id":"38B86AC474D1060D","name":"創紀之城 (U5)","lat":"22.314442","long":"114.221302"},{"id":"EB177E95B39626AE","name":"觀塘轉車站 - 觀塘市中心 (T6)","lat":"22.313290","long":"114.224287"},{"id":"5AAC6A858427D04E","name":"觀塘游泳池 (R3)","lat":"22.310432","long":"114.229545"},{"id":"7459D3AB11AFD6B5","name":"藍田站","lat":"22.306525","long":"114.233772"},{"id":"9C839C3824F47A6A","name":"聖安當女書院","lat":"22.300362","long":"114.238520"},{"id":"CB4BB0008A87E4FC","name":"油塘邨","lat":"22.298144","long":"114.239225"},{"id":"3EAFE91BF6223FA6","name":"油塘巴士總站","lat":"22.295851","long":"114.238412"}],"routeId":"33B","description":"正常班次"},{"company":"kmb","route":"33B","routeType":"1","dir":"I","orig":"油塘","dest":"荃灣西站","stopList":[{"id":"3EAFE91BF6223FA6","name":"油塘巴士總站","lat":"22.295851","long":"114.238412"},{"id":"5309D748976029CB","name":"鯉魚門廣場","lat":"22.296392","long":"114.239676"},{"id":"3C6DAB7267F9E54F","name":"油塘邨","lat":"22.299326","long":"114.238661"},{"id":"73E85E88E124EF2C","name":"聖安當女書院","lat":"22.301615","long":"114.237487"},{"id":"2EF9764BE18FC290","name":"藍田站","lat":"22.305354","long":"114.234128"},{"id":"F1A90CEE2B8C40CC","name":"觀塘法院 (F2)","lat":"22.309991","long":"114.229553"},{"id":"84B384771F1CE484","name":"觀塘駿業里 (C7)","lat":"22.312853","long":"114.224609"},{"id":"671775E6AF279B42","name":"觀塘轉車站 - 創紀之城 (B2)","lat":"22.314310","long":"114.220732"},{"id":"4B17C55C032D3A37","name":"觀塘定富街","lat":"22.316726","long":"114.215543"},{"id":"266A4CDA19461A42","name":"牛頭角下邨","lat":"22.320432","long":"114.214418"},{"id":"A147FDE0CFB7A60D","name":"德福花園","lat":"22.323266","long":"114.214165"},{"id":"26A996F589C84844","name":"九龍灣站","lat":"22.325428","long":"114.213973"},{"id":"0EB21C27E769261B","name":"黃大仙轉車站 - 黃大仙廟 (D1)","lat":"22.341470","long":"114.195370"},{"id":"E435F72ACB8438ED","name":"摩士公園泳池","lat":"22.341570","long":"114.191604"},{"id":"29A62A8FE112766B","name":"豐力樓","lat":"22.342585","long":"114.172991"},{"id":"2AB6DAEF7149F0FC","name":"荃灣龍德街","lat":"22.365203","long":"114.115002"},{"id":"65784B3D2E189B56","name":"荃灣聯仁街","lat":"22.367676","long":"114.117501"},{"id":"E5F3EF7B050DA88F","name":"荃灣鹹田街","lat":"22.369313","long":"114.117187"},{"id":"E8B842CC3AB62056","name":"戴麟趾夫人診所","lat":"22.369949","long":"114.116026"},{"id":"716D84D1B7EA256E","name":"荃灣西站巴士總站(落客站)","lat":"22.367802","long":"114.110950"}],"routeId":"33B","description":"正常班次"}]