[{"company":"kmb","route":"34","routeType":"1","dir":"O","orig":"葵盛(中)","dest":"荃灣(灣景花園)","stopList":[{"id":"06990DFEA90A3147","name":"葵盛中巴士總站","lat":"22.361036","long":"114.122389"},{"id":"B3D81B76B30B1366","name":"葵盛東商場","lat":"22.363566","long":"114.126804"},{"id":"A1C3FAC9A09BDBC7","name":"葵盛邨盛強樓","lat":"22.364708","long":"114.127643"},{"id":"C97AC68CBB433F59","name":"葵盛邨盛安樓","lat":"22.364966","long":"114.125828"},{"id":"8F9E235D3D6081DB","name":"高盛臺","lat":"22.364852","long":"114.123984"},{"id":"EBEB497D57BB5B34","name":"盧光輝紀念學校","lat":"22.364312","long":"114.122830"},{"id":"C9B1C3B9D0BA0D14","name":"葵盛游泳池","lat":"22.359713","long":"114.122265"},{"id":"9F13E4D02222A819","name":"南葵涌分科診所","lat":"22.360978","long":"114.124826"},{"id":"65CC7FF852DEB184","name":"葵盛邨盛樂樓","lat":"22.362471","long":"114.127814"},{"id":"0968AEB32CDE49EE","name":"葵盛圍葵康苑","lat":"22.363287","long":"114.129881"},{"id":"698AD748223B2BEA","name":"葵涌邨夏葵樓","lat":"22.366133","long":"114.130921"},{"id":"9BEBB2D3B05DD529","name":"葵涌邨秋葵樓","lat":"22.368040","long":"114.130166"},{"id":"849062B1454057E3","name":"葵涌邨綠葵樓","lat":"22.368105","long":"114.128349"},{"id":"BEAAE3DA63C543BD","name":"葵涌邨芷葵樓","lat":"22.368079","long":"114.127197"},{"id":"FD3E79D1B5A2237F","name":"大窩口邨富華樓","lat":"22.366139","long":"114.125310"},{"id":"FFB21D12A61560FE","name":"大窩口邨富安樓","lat":"22.367596","long":"114.124611"},{"id":"B7039F29C48A3CC2","name":"尚翠苑","lat":"22.367563","long":"114.120435"},{"id":"1C179AC6FE83C808","name":"寶石大廈","lat":"22.368857","long":"114.118050"},{"id":"8CD6C24187EC56A6","name":"戴麟趾夫人診所","lat":"22.370328","long":"114.115334"},{"id":"D992534B2A407C74","name":"荃灣西站巴士總站","lat":"22.367802","long":"114.110950"},{"id":"4E224310C4B46C9A","name":"荃灣建明街","lat":"22.373608","long":"114.115574"},{"id":"3F545756160D7BEA","name":"福來邨永康樓","lat":"22.374433","long":"114.113771"},{"id":"BFA3460955AC820C","name":"荃景圍天橋","lat":"22.375396","long":"114.108571"},{"id":"5FB1FCAF80F3D97D","name":"荃灣柴灣角街","lat":"22.374766","long":"114.105738"},{"id":"FF4785270078B487","name":"麗城花園第三期","lat":"22.372105","long":"114.103000"},{"id":"76457B949CBCDE7B","name":"灣景花園總站","lat":"22.370104","long":"114.099484"}],"routeId":"34","description":"正常班次"},{"company":"kmb","route":"34","routeType":"1","dir":"I","orig":"荃灣(灣景花園)","dest":"葵盛(中)","stopList":[{"id":"76457B949CBCDE7B","name":"灣景花園總站","lat":"22.370104","long":"114.099484"},{"id":"93F4EA3D82B33BEF","name":"麗城花園第三期","lat":"22.371767","long":"114.101011"},{"id":"3DD784D9B2C30AFC","name":"麗城花園第一期","lat":"22.373295","long":"114.103022"},{"id":"939FE9A08B99174C","name":"荃景圍天橋","lat":"22.375776","long":"114.106972"},{"id":"CAEEAD91F339D3DA","name":"大涌道福來邨","lat":"22.374014","long":"114.111383"},{"id":"033CB7A21D6DC60C","name":"祈德尊新邨","lat":"22.371342","long":"114.109806"},{"id":"E8DD78B9A123158B","name":"荃灣西站巴士總站","lat":"22.367794","long":"114.110858"},{"id":"CDEB07C7C0841D5B","name":"戴麟趾夫人診所","lat":"22.370549","long":"114.115365"},{"id":"202E5866758484CB","name":"寶石大廈","lat":"22.368917","long":"114.118381"},{"id":"FE90421D0B82E691","name":"名逸居","lat":"22.367635","long":"114.120784"},{"id":"F0AE2D3C2589FC4F","name":"大窩口邨富安樓","lat":"22.367984","long":"114.124241"},{"id":"B9DFF2C142DCE309","name":"大窩口邨富貴樓","lat":"22.366933","long":"114.125107"},{"id":"5DE502617F887673","name":"葵涌邨曉葵樓","lat":"22.368295","long":"114.126954"},{"id":"299184738ADD432A","name":"葵涌邨秋葵樓","lat":"22.368256","long":"114.129965"},{"id":"B596DF51C1BDDB19","name":"林護紀念中學","lat":"22.365139","long":"114.130103"},{"id":"7FE0FCDBF45276EF","name":"葵盛邨盛豐樓","lat":"22.363759","long":"114.129266"},{"id":"D6E2F61E79C01350","name":"葵盛邨盛強樓","lat":"22.364662","long":"114.127762"},{"id":"00A61AE52C4EE28E","name":"葵盛邨盛安樓","lat":"22.365022","long":"114.125921"},{"id":"6E9E3D64C5F18B8D","name":"高盛臺","lat":"22.364849","long":"114.124127"},{"id":"556068A8E995DBE4","name":"盧光輝紀念學校","lat":"22.364225","long":"114.122803"},{"id":"A170898D024706AA","name":"葵盛邨六座","lat":"22.361881","long":"114.121471"},{"id":"49DA16A8D82DEE21","name":"葵盛游泳池","lat":"22.359739","long":"114.122393"},{"id":"EB3A699030AB371C","name":"南葵涌分科診所","lat":"22.361056","long":"114.124955"},{"id":"EC70552CECFD18F2","name":"葵盛邨盛樂樓","lat":"22.362693","long":"114.128283"},{"id":"7D41FC4EE12CB8FD","name":"葵盛東巴士總站","lat":"22.363364","long":"114.127104"},{"id":"9CF00A30796B6B2B","name":"葵聯邨","lat":"22.361595","long":"114.124451"},{"id":"06990DFEA90A3147","name":"葵盛中巴士總站","lat":"22.361036","long":"114.122389"}],"routeId":"34","description":"正常班次"},{"company":"nlb","route":"34","routeType":null,"dir":null,"orig":"東涌達東路巴士總站","dest":"石門甲","stopList":[{"id":"317","name":"東涌達東路巴士總站","lat":"22.29058000","long":"113.93935200","street":"達東路","fare":"4.9","fareHoliday":"4.9"},{"id":"80","name":"富東廣場","lat":"22.28887000","long":"113.94210500","street":"達東路","fare":"4.9","fareHoliday":"4.9"},{"id":"81","name":"裕東苑","lat":"22.28607700","long":"113.94160300","street":"順東路","fare":"4.9","fareHoliday":"4.9"},{"id":"185","name":"北大嶼山醫院(北行), 逸東邨美逸樓","lat":"22.28129500","long":"113.93882200","street":"松仁路","fare":"4.9","fareHoliday":"4.9"},{"id":"289","name":"逸東邨","lat":"22.28205300","long":"113.93586200","street":"逸東街","fare":"3.6","fareHoliday":"3.6"},{"id":"76","name":"北大嶼山醫院(南行)","lat":"22.28186100","long":"113.93880300","street":"松仁路","fare":"3.6","fareHoliday":"3.6"},{"id":"90","name":"裕泰苑","lat":"22.28056500","long":"113.94106400","street":"東涌道","fare":"3.6","fareHoliday":"3.6"},{"id":"91","name":"赤立角新村","lat":"22.27770400","long":"113.94199600","street":"黃龍坑道","fare":"3.6","fareHoliday":"3.6"},{"id":"94","name":"東涌鄉事委員會","lat":"22.27893600","long":"113.93879500","street":"東涌道","fare":"3.6","fareHoliday":"3.6"},{"id":"279","name":"上嶺皮","lat":"22.27879200","long":"113.93714800","street":"東涌道","fare":"3.6","fareHoliday":"3.6"},{"id":"280","name":"下嶺皮","lat":"22.27851200","long":"113.93542300","street":"東涌道","fare":"3.6","fareHoliday":"3.6"},{"id":"282","name":"黃家圍","lat":"22.27703800","long":"113.93397500","street":"東涌道","fare":"3.6","fareHoliday":"3.6"},{"id":"283","name":"龍井頭","lat":"22.27570700","long":"113.93370700","street":"東涌道","fare":"3.6","fareHoliday":"3.6"},{"id":"92","name":"石門甲村","lat":"22.26940400","long":"113.93199600","street":"石門甲道","fare":"3.6","fareHoliday":"3.6"},{"id":"291","name":"石門甲","lat":"22.26905700","long":"113.93118500","street":"石門甲道","fare":"0.0","fareHoliday":"0.0"}],"routeId":"23","description":"正常班次"},{"company":"nlb","route":"34","routeType":null,"dir":null,"orig":"石門甲","dest":"東涌達東路巴士總站","stopList":[{"id":"93","name":"石門甲","lat":"22.26905700","long":"113.93118500","street":"石門甲道","fare":"4.9","fareHoliday":"4.9"},{"id":"292","name":"石門甲村","lat":"22.26957500","long":"113.93197800","street":"石門甲道","fare":"4.9","fareHoliday":"4.9"},{"id":"68","name":"石門甲道","lat":"22.26991800","long":"113.93424300","street":"東涌道","fare":"4.9","fareHoliday":"4.9"},{"id":"69","name":"龍井頭","lat":"22.27597500","long":"113.93337700","street":"東涌道","fare":"4.9","fareHoliday":"4.9"},{"id":"70","name":"黃家圍","lat":"22.27716200","long":"113.93381200","street":"東涌道","fare":"4.9","fareHoliday":"4.9"},{"id":"71","name":"下嶺皮","lat":"22.27873100","long":"113.93547500","street":"東涌道","fare":"4.9","fareHoliday":"4.9"},{"id":"72","name":"上嶺皮","lat":"22.27891200","long":"113.93685600","street":"東涌道","fare":"4.9","fareHoliday":"4.9"},{"id":"73","name":"東涌鄉事委員會","lat":"22.27913800","long":"113.93929900","street":"東涌道","fare":"4.9","fareHoliday":"4.9"},{"id":"91","name":"赤立角新村","lat":"22.27770400","long":"113.94199600","street":"黃龍坑道","fare":"4.9","fareHoliday":"4.9"},{"id":"74","name":"馬灣新村","lat":"22.27986500","long":"113.94024300","street":"松仁路","fare":"4.9","fareHoliday":"4.9"},{"id":"185","name":"北大嶼山醫院(北行), 逸東邨美逸樓","lat":"22.28129500","long":"113.93882200","street":"松仁路","fare":"4.9","fareHoliday":"4.9"},{"id":"289","name":"逸東邨","lat":"22.28205300","long":"113.93586200","street":"逸東街","fare":"3.6","fareHoliday":"3.6"},{"id":"76","name":"北大嶼山醫院(南行)","lat":"22.28186100","long":"113.93880300","street":"松仁路","fare":"3.6","fareHoliday":"3.6"},{"id":"77","name":"東涌消防局","lat":"22.28603000","long":"113.94105700","street":"順東路","fare":"3.6","fareHoliday":"3.6"},{"id":"78","name":"東涌纜車站","lat":"22.28930100","long":"113.93873300","street":"達東路","fare":"3.6","fareHoliday":"3.6"},{"id":"318","name":"東涌達東路巴士總站","lat":"22.29058000","long":"113.93935200","street":"達東路","fare":"0.0","fareHoliday":"0.0"}],"routeId":"24","description":"正常班次"}]