[{"company":"kmb","route":"35X","routeType":"1","dir":"O","orig":"葵涌(安蔭邨)","dest":"尖沙咀東","stopList":[{"id":"DC99E9AAD0DFB39F","name":"安蔭巴士總站 (KW961)","lat":"22.370453","long":"114.142104"},{"id":"AE7C79C814E6BD95","name":"裘錦秋中學 (KW215)","lat":"22.369340","long":"114.140828"},{"id":"C5294C92C5C6E334","name":"石蔭東邨 (KW218)","lat":"22.372104","long":"114.139645"},{"id":"8CF45DD1D6B1FA4D","name":"葵涌石蔭路 (KW228)","lat":"22.369775","long":"114.139495"},{"id":"A91E6B3E8A9A7B34","name":"葵涌打磚坪街 (KW324)","lat":"22.367360","long":"114.138988"},{"id":"9FC37D4FEDD03944","name":"石籬(大隴街)總站 (KW972)","lat":"22.365694","long":"114.139197"},{"id":"A7516C49B99EFD78","name":"石籬邨石俊樓 (KW347)","lat":"22.363328","long":"114.137644"},{"id":"C3672D8D28801773","name":"葵涌業成街 (KW410)","lat":"22.360518","long":"114.135930"},{"id":"9A412252B10AD2FF","name":"華員邨 (KW411)","lat":"22.352084","long":"114.133181"},{"id":"5CCCA68A757E79D4","name":"石硤尾街 (SS745)","lat":"22.331039","long":"114.165451"},{"id":"C5AA13924C99532A","name":"西洋菜里 (SS747)","lat":"22.329026","long":"114.166703"},{"id":"A70DCB46EC98F43E","name":"太子站,旺角花墟 (MK503)","lat":"22.325459","long":"114.168234"},{"id":"8E3A5C15E42020BB","name":"旺角豉油街 (MK522)","lat":"22.316078","long":"114.170175"},{"id":"96442B84082D4DF5","name":"油麻地永星里 (YT544)","lat":"22.311247","long":"114.171112"},{"id":"508D99EBC9AB3A9B","name":"油麻地長樂街 (YT551)","lat":"22.306887","long":"114.171625"},{"id":"FE56DD70DEDE0395","name":"聖安德烈堂 (YT557)","lat":"22.301952","long":"114.172017"},{"id":"D2217D7746597D10","name":"尖沙咀轉車站 - 中間道 (YT563)","lat":"22.295794","long":"114.172446"},{"id":"576538E1395C8508","name":"尖東站 K11 MUSEA (YT215)","lat":"22.295226","long":"114.174647"},{"id":"1864222D8939BD69","name":"永安廣場 星光大道 (YT218)","lat":"22.296522","long":"114.176660"},{"id":"E1EC10CCBB722DA4","name":"尖沙咀東總站 (YT935)","lat":"22.302021","long":"114.178203"}],"routeId":"35X","description":"正常班次"},{"company":"kmb","route":"35X","routeType":"1","dir":"I","orig":"尖沙咀東","dest":"葵涌(安蔭邨)","stopList":[{"id":"E1EC10CCBB722DA4","name":"尖沙咀東總站 (YT935)","lat":"22.302021","long":"114.178203"},{"id":"F2508598F5A43655","name":"香港科學館 (YT621)","lat":"22.301061","long":"114.176514"},{"id":"3313287185163530","name":"尖沙咀麼地道 (YT623)","lat":"22.298540","long":"114.175858"},{"id":"89D32777124F4039","name":"尖東站 K11 MUSEA (YT631)","lat":"22.294828","long":"114.174540"},{"id":"1F2E60EDB4254D30","name":"尖沙咀轉車站 - 中間道 (YT101)","lat":"22.295816","long":"114.172187"},{"id":"EA4A3876639F21B4","name":"金巴利道 (YT110)","lat":"22.300253","long":"114.171866"},{"id":"B0F64FFFBECE8AA4","name":"寶靈街, 恆豐中心 (YT119)","lat":"22.304565","long":"114.171583"},{"id":"2DB47A3C263E4F5C","name":"九龍中央郵政局 (YT129)","lat":"22.308904","long":"114.171181"},{"id":"6DFEED7F0DB44298","name":"旺角登打士街 (MK160)","lat":"22.315026","long":"114.170087"},{"id":"A6ACEA5D8F32521D","name":"旺角奶路臣街 (MK170)","lat":"22.317916","long":"114.169527"},{"id":"30FEA8A7071EDE48","name":"弼街,始創中心 (MK181)","lat":"22.321778","long":"114.168699"},{"id":"3CE4A2049409A6DD","name":"太子站,旺角花墟 (MK186)","lat":"22.325598","long":"114.167935"},{"id":"75C0DF6C7724CEEA","name":"鐘山台 (KW121)","lat":"22.343708","long":"114.139414"},{"id":"EBF4EB34B96BC242","name":"華員邨 (KW122)","lat":"22.351321","long":"114.132856"},{"id":"3FE93821145B65F5","name":"葵涌業成街 (KW123)","lat":"22.360158","long":"114.135190"},{"id":"264B29FD223D9C4E","name":"葵涌打磚坪街 (KW486)","lat":"22.365984","long":"114.136723"},{"id":"26C0B01357752657","name":"石籬(大隴街)總站 (KW973)","lat":"22.365660","long":"114.139265"},{"id":"C84CAD6CCD18F87F","name":"石籬邨石佳樓 (KW204)","lat":"22.364913","long":"114.140057"},{"id":"478ACE8A8C9A2705","name":"石籬天主教小學 (KW207)","lat":"22.366854","long":"114.142021"},{"id":"A13C2C1D5D3EE0D7","name":"石排街石歡樓 (KW209)","lat":"22.368603","long":"114.141870"},{"id":"F718BAC64885E69E","name":"北葵涌街市 (KW226)","lat":"22.370613","long":"114.138854"},{"id":"C95751DB2112F279","name":"石蔭東邨 (KW340)","lat":"22.372348","long":"114.139503"},{"id":"F7AD8DE682AD5BB3","name":"安蔭邨豐蔭樓 (KW345)","lat":"22.368957","long":"114.141586"},{"id":"DC99E9AAD0DFB39F","name":"安蔭巴士總站 (KW961)","lat":"22.370453","long":"114.142104"}],"routeId":"35X","description":"正常班次"}]