[{"company":"kmb","route":"35X","routeType":"1","dir":"O","orig":"葵涌(安蔭邨)","dest":"尖沙咀東","stopList":[{"id":"DC99E9AAD0DFB39F","name":"安蔭巴士總站","lat":"22.370453","long":"114.142104"},{"id":"AE7C79C814E6BD95","name":"裘錦秋中學","lat":"22.369340","long":"114.140828"},{"id":"C5294C92C5C6E334","name":"石蔭東邨","lat":"22.372104","long":"114.139645"},{"id":"8CF45DD1D6B1FA4D","name":"葵涌石蔭路","lat":"22.369775","long":"114.139495"},{"id":"A91E6B3E8A9A7B34","name":"葵涌打磚坪街","lat":"22.367360","long":"114.138988"},{"id":"9FC37D4FEDD03944","name":"石籬(大隴街)總站","lat":"22.365694","long":"114.139197"},{"id":"A7516C49B99EFD78","name":"石籬邨石俊樓","lat":"22.363328","long":"114.137644"},{"id":"C3672D8D28801773","name":"葵涌業成街","lat":"22.360518","long":"114.135930"},{"id":"9A412252B10AD2FF","name":"華員邨","lat":"22.352084","long":"114.133181"},{"id":"5CCCA68A757E79D4","name":"石硤尾街","lat":"22.331039","long":"114.165451"},{"id":"C5AA13924C99532A","name":"西洋菜里","lat":"22.329026","long":"114.166703"},{"id":"A70DCB46EC98F43E","name":"太子站 (S4)","lat":"22.325459","long":"114.168234"},{"id":"783CE18C333C6069","name":"旺角站 (S13)","lat":"22.319834","long":"114.169353"},{"id":"8E3A5C15E42020BB","name":"旺角豉油街 (S23)","lat":"22.316078","long":"114.170175"},{"id":"96442B84082D4DF5","name":"油麻地永星里 (S35)","lat":"22.311247","long":"114.171112"},{"id":"508D99EBC9AB3A9B","name":"油麻地長樂街 (S42)","lat":"22.306887","long":"114.171625"},{"id":"FE56DD70DEDE0395","name":"聖安德烈堂 (S48)","lat":"22.301952","long":"114.172017"},{"id":"D2217D7746597D10","name":"尖沙咀轉車站 - 中間道 (S54)","lat":"22.295794","long":"114.172446"},{"id":"576538E1395C8508","name":"尖東站","lat":"22.295226","long":"114.174647"},{"id":"1864222D8939BD69","name":"永安廣場","lat":"22.296522","long":"114.176660"},{"id":"E1EC10CCBB722DA4","name":"尖沙咀東總站","lat":"22.302021","long":"114.178203"}],"routeId":"35X","description":"正常班次"},{"company":"kmb","route":"35X","routeType":"1","dir":"I","orig":"尖沙咀東","dest":"葵涌(安蔭邨)","stopList":[{"id":"E1EC10CCBB722DA4","name":"尖沙咀東總站","lat":"22.302021","long":"114.178203"},{"id":"F2508598F5A43655","name":"香港科學館","lat":"22.301061","long":"114.176514"},{"id":"3313287185163530","name":"尖沙咀麼地道","lat":"22.298540","long":"114.175858"},{"id":"89D32777124F4039","name":"尖東站","lat":"22.294828","long":"114.174540"},{"id":"1F2E60EDB4254D30","name":"尖沙咀轉車站 - 中間道 (N2)","lat":"22.295816","long":"114.172187"},{"id":"EA4A3876639F21B4","name":"金巴利道 (N11)","lat":"22.300253","long":"114.171866"},{"id":"B0F64FFFBECE8AA4","name":"油麻地寶靈街 (N20)","lat":"22.304565","long":"114.171583"},{"id":"2DB47A3C263E4F5C","name":"九龍中央郵政局 (N30)","lat":"22.308904","long":"114.171181"},{"id":"6DFEED7F0DB44298","name":"旺角登打士街 (N51)","lat":"22.315026","long":"114.170087"},{"id":"A6ACEA5D8F32521D","name":"旺角奶路臣街 (N61)","lat":"22.317916","long":"114.169527"},{"id":"30FEA8A7071EDE48","name":"旺角弼街 (N72)","lat":"22.321778","long":"114.168699"},{"id":"3CE4A2049409A6DD","name":"太子站 (N76)","lat":"22.325598","long":"114.167935"},{"id":"75C0DF6C7724CEEA","name":"鐘山台","lat":"22.343708","long":"114.139414"},{"id":"EBF4EB34B96BC242","name":"華員邨","lat":"22.351321","long":"114.132856"},{"id":"3FE93821145B65F5","name":"葵涌業成街","lat":"22.360158","long":"114.135190"},{"id":"264B29FD223D9C4E","name":"葵涌打磚坪街","lat":"22.365984","long":"114.136723"},{"id":"26C0B01357752657","name":"石籬(大隴街)總站","lat":"22.365660","long":"114.139265"},{"id":"C84CAD6CCD18F87F","name":"石籬邨石佳樓","lat":"22.364913","long":"114.140057"},{"id":"478ACE8A8C9A2705","name":"石籬天主教小學","lat":"22.366854","long":"114.142021"},{"id":"A13C2C1D5D3EE0D7","name":"石排街石歡樓","lat":"22.368603","long":"114.141870"},{"id":"F718BAC64885E69E","name":"北葵涌街市","lat":"22.370613","long":"114.138854"},{"id":"C95751DB2112F279","name":"石蔭東邨","lat":"22.372348","long":"114.139503"},{"id":"F7AD8DE682AD5BB3","name":"安蔭邨豐蔭樓","lat":"22.368957","long":"114.141586"},{"id":"DC99E9AAD0DFB39F","name":"安蔭巴士總站","lat":"22.370453","long":"114.142104"}],"routeId":"35X","description":"正常班次"}]