[{"company":"kmb","route":"36","routeType":"1","dir":"O","orig":"荃灣西站","dest":"梨木樹(循環線)","stopList":[{"id":"EDD3C420910A50CA","name":"荃灣西站巴士總站 (TW976)","lat":"22.368116","long":"114.110443"},{"id":"A23B54EC3487EF41","name":"戴麟趾夫人診所 (TW553)","lat":"22.370525","long":"114.115412"},{"id":"D21D129C5E4F402C","name":"荃灣鹹田街 (TW557)","lat":"22.369533","long":"114.117252"},{"id":"81BBDC83713D1C2F","name":"名逸居 (TW564)","lat":"22.367780","long":"114.120500"},{"id":"FD80BB497E0791CA","name":"荃富街公園 (TW597)","lat":"22.368853","long":"114.121667"},{"id":"CAF9395414DBD090","name":"綠楊新邨 (TW396)","lat":"22.371592","long":"114.121036"},{"id":"48CD423F78F6FA22","name":"石圍角邨石蓮樓 (TW401)","lat":"22.374750","long":"114.122830"},{"id":"B18C8718C0B7904F","name":"石圍角邨石菊樓 (TW402)","lat":"22.376118","long":"114.124570"},{"id":"D1A1DF2BDC842EE5","name":"東普陀 (TW405)","lat":"22.378716","long":"114.126958"},{"id":"33A7AB58611A0F6D","name":"三棟屋村 (TW410)","lat":"22.379813","long":"114.129474"},{"id":"B1D6CA16EE22225D","name":"象山邨秀山樓 (TW415)","lat":"22.378878","long":"114.131633"},{"id":"97BB9CE7A058E809","name":"可風中學 (TW311)","lat":"22.380443","long":"114.135135"},{"id":"30000427BD163F84","name":"梨木樹巴士總站 (TW903)","lat":"22.377516","long":"114.136640"},{"id":"03A5552B84E8214B","name":"和宜合道運動場 (TW314)","lat":"22.374165","long":"114.136527"},{"id":"0B4807A5C0DAF24A","name":"昌榮路 (KW330)","lat":"22.370602","long":"114.134772"},{"id":"4C7927148D79A446","name":"昌榮路迴旋處 (KW240)","lat":"22.370199","long":"114.133106"},{"id":"CA4777DC41555D2C","name":"國瑞路公園 (KW241)","lat":"22.371634","long":"114.129941"},{"id":"A958EF1ECDA5CC4A","name":"大窩口站 (KW242)","lat":"22.371109","long":"114.126402"},{"id":"2BDB51D5618D546F","name":"荃灣荃富街 (TW232)","lat":"22.367579","long":"114.121947"},{"id":"3A99869DB9D31D45","name":"尚翠苑 (TW255)","lat":"22.367524","long":"114.120504"},{"id":"1C179AC6FE83C808","name":"寶石大廈 (TW259)","lat":"22.368857","long":"114.118050"},{"id":"E8B842CC3AB62056","name":"戴麟趾夫人診所 (TW263)","lat":"22.369949","long":"114.116026"},{"id":"716D84D1B7EA256E","name":"荃灣西站巴士總站(落客站)","lat":"22.367802","long":"114.110950"}],"routeId":"36","description":"正常班次"},{"company":"kmb","route":"36","routeType":"2","dir":"O","orig":"梨木樹","dest":"荃灣西站","stopList":[{"id":"30000427BD163F84","name":"梨木樹巴士總站 (TW903)","lat":"22.377516","long":"114.136640"},{"id":"03A5552B84E8214B","name":"和宜合道運動場 (TW314)","lat":"22.374165","long":"114.136527"},{"id":"0B4807A5C0DAF24A","name":"昌榮路 (KW330)","lat":"22.370602","long":"114.134772"},{"id":"4C7927148D79A446","name":"昌榮路迴旋處 (KW240)","lat":"22.370199","long":"114.133106"},{"id":"CA4777DC41555D2C","name":"國瑞路公園 (KW241)","lat":"22.371634","long":"114.129941"},{"id":"A958EF1ECDA5CC4A","name":"大窩口站 (KW242)","lat":"22.371109","long":"114.126402"},{"id":"2BDB51D5618D546F","name":"荃灣荃富街 (TW232)","lat":"22.367579","long":"114.121947"},{"id":"3A99869DB9D31D45","name":"尚翠苑 (TW255)","lat":"22.367524","long":"114.120504"},{"id":"1C179AC6FE83C808","name":"寶石大廈 (TW259)","lat":"22.368857","long":"114.118050"},{"id":"E8B842CC3AB62056","name":"戴麟趾夫人診所 (TW263)","lat":"22.369949","long":"114.116026"},{"id":"716D84D1B7EA256E","name":"荃灣西站巴士總站(落客站)","lat":"22.367802","long":"114.110950"}],"routeId":"36","description":"特別班次"},{"company":"nlb","route":"36","routeType":null,"dir":null,"orig":"東涌達東路巴士總站","dest":"迪士尼樂園","stopList":[{"id":"317","name":"東涌達東路巴士總站","lat":"22.290580","long":"113.939352","street":"達東路","fare":"10.7","fareHoliday":"10.7"},{"id":"100","name":"東薈城","lat":"22.290136","long":"113.941474","street":"達東路","fare":"10.7","fareHoliday":"10.7"},{"id":"295","name":"白芒","lat":"22.297964","long":"113.967580","street":"翔東路","fare":"10.7","fareHoliday":"10.7"},{"id":"98","name":"政府維修廠","lat":"22.308935","long":"113.989451","street":"翔東路","fare":"10.7","fareHoliday":"10.7"},{"id":"95","name":"小蠔灣","lat":"22.315519","long":"113.997975","street":"深豐路","fare":"10.7","fareHoliday":"10.7"},{"id":"327","name":"迪士尼樂園","lat":"22.316356","long":"114.045732","street":"幻想道","fare":"0.0","fareHoliday":"0.0"}],"routeId":"101","description":"正常班次"},{"company":"nlb","route":"36","routeType":null,"dir":null,"orig":"迪士尼樂園","dest":"東涌達東路巴士總站","stopList":[{"id":"328","name":"迪士尼樂園","lat":"22.316356","long":"114.045732","street":"幻想道","fare":"10.7","fareHoliday":"10.7"},{"id":"293","name":"小蠔灣","lat":"22.315519","long":"113.997975","street":"深豐路","fare":"5.1","fareHoliday":"5.1"},{"id":"96","name":"小蠔灣濾水廠","lat":"22.313595","long":"113.995734","street":"翔東路","fare":"5.1","fareHoliday":"5.1"},{"id":"97","name":"愉景灣隧道","lat":"22.310022","long":"113.990584","street":"翔東路","fare":"5.1","fareHoliday":"5.1"},{"id":"294","name":"政府維修廠","lat":"22.309283","long":"113.989254","street":"翔東路","fare":"5.1","fareHoliday":"5.1"},{"id":"99","name":"白芒","lat":"22.297964","long":"113.967580","street":"翔東路","fare":"5.1","fareHoliday":"5.1"},{"id":"80","name":"富東廣場","lat":"22.288870","long":"113.942105","street":"達東路","fare":"5.1","fareHoliday":"5.1"},{"id":"78","name":"東涌纜車站","lat":"22.289301","long":"113.938733","street":"達東路","fare":"5.1","fareHoliday":"5.1"},{"id":"318","name":"東涌達東路巴士總站","lat":"22.290580","long":"113.939352","street":"達東路","fare":"0.0","fareHoliday":"0.0"}],"routeId":"102","description":"正常班次"},{"company":"gmb","route":"36","routeType":1,"orig":"元朗(福康街)","dest":"大生圍村公所","stopList":[{"id":20015409,"name":"福康街, 近金寶樓","lat":"22.445104","long":"114.028575"},{"id":20001281,"name":"青山公路－元朗段, 近金豐大廈","lat":"22.444569","long":"114.030805"},{"id":20001282,"name":"元朗站(北)公共運輸交匯處","lat":"22.446451","long":"114.034281"},{"id":20001283,"name":"青山公路－元朗段, 近東成里路","lat":"22.444391","long":"114.043599"},{"id":20015411,"name":"青山公路－潭尾段, 近元朗菜聯聯誼會有限公司天光墟蔬菜批發市場","lat":"22.447261","long":"114.049349"},{"id":20016803,"name":"新潭路, 近沙埔污水泵房","lat":"22.457627","long":"114.052346"},{"id":20016804,"name":"新潭路, 近金翠軒","lat":"22.462012","long":"114.053300"},{"id":20016805,"name":"新潭路, 近雅麗花園","lat":"22.464567","long":"114.053909"},{"id":20016806,"name":"新潭路, 近朗廈","lat":"22.469443","long":"114.055384"},{"id":20016807,"name":"錦綉花園大道, 近首譽A座","lat":"22.471441","long":"114.053947"},{"id":20016808,"name":"錦綉花園大道, 近錦宇花園C座","lat":"22.472016","long":"114.052747"},{"id":20016809,"name":"錦綉花園大道, 近文苑村","lat":"22.472636","long":"114.051445"},{"id":20016810,"name":"攸壆路, 近錦綉花園","lat":"22.472968","long":"114.050277"},{"id":20016811,"name":"未命名通道, 近文苑村","lat":"22.472442","long":"114.049791"},{"id":20016812,"name":"未命名通道, 近神樂院牛奶廠有限公司","lat":"22.472013","long":"114.048224"},{"id":20016813,"name":"大生圍村公所小巴總站","lat":"22.470988","long":"114.044157"}],"routeId":2008622,"description":"正常班次"},{"company":"gmb","route":"36","routeType":2,"orig":"大生圍村公所","dest":"元朗(福康街)","stopList":[{"id":20016813,"name":"大生圍村公所小巴總站","lat":"22.470988","long":"114.044157"},{"id":20016814,"name":"未命名通道, 近錦綉花園","lat":"22.472053","long":"114.048278"},{"id":20016815,"name":"未命名通道, 近港澳信義會黃陳淑英紀念學校","lat":"22.472456","long":"114.049702"},{"id":20016816,"name":"錦綉花園大道, 近錦綉花園","lat":"22.473087","long":"114.050250"},{"id":20016817,"name":"錦綉花園大道, 近明珠花園第一座","lat":"22.472759","long":"114.051499"},{"id":20016818,"name":"錦綉花園大道, 近海錦花園19","lat":"22.472184","long":"114.052701"},{"id":20016819,"name":"錦綉花園大道, 近首譽A座","lat":"22.471599","long":"114.053929"},{"id":20016820,"name":"青山公路－潭尾段, 近悅富豪苑Merry Garden House 1","lat":"22.466786","long":"114.054069"},{"id":20016821,"name":"青山公路－潭尾段, 近雅麗花園","lat":"22.464298","long":"114.053495"},{"id":20016822,"name":"青山公路－潭尾段, 近金翠軒","lat":"22.461554","long":"114.052843"},{"id":20016823,"name":"青山公路－潭尾段, 近冠珍興記醬園有限公司","lat":"22.458114","long":"114.051787"},{"id":20016824,"name":"青山公路－潭尾段, 近Park Yoho","lat":"22.452025","long":"114.049649"},{"id":20016825,"name":"青山公路－潭尾段, 近山水盈","lat":"22.447005","long":"114.049495"},{"id":20001286,"name":"青山公路－元朗段, 近楊屋村","lat":"22.444173","long":"114.042589"},{"id":20001287,"name":"青山公路－元朗段, 近YOHO Midtown","lat":"22.444311","long":"114.034351"},{"id":20001288,"name":"青山公路－元朗段, 近又新街","lat":"22.444335","long":"114.031223"},{"id":20001289,"name":"青山公路, 大棠路","lat":"22.444369","long":"114.028901"},{"id":20015426,"name":"擊壤路, 近擊壤路五人足球場","lat":"22.445469","long":"114.025085"},{"id":20015427,"name":"元朗安寧路, 近大橋","lat":"22.446154","long":"114.026573"},{"id":20015409,"name":"福康街, 近金寶樓","lat":"22.445104","long":"114.028575"}],"routeId":2008622,"description":"正常班次"},{"company":"gmb","route":"36","routeType":1,"orig":"大生圍村公所","dest":"元朗(福康街)","stopList":[{"id":20016813,"name":"大生圍村公所小巴總站","lat":"22.470988","long":"114.044157"},{"id":20016814,"name":"未命名通道, 近錦綉花園","lat":"22.472053","long":"114.048278"},{"id":20016815,"name":"未命名通道, 近港澳信義會黃陳淑英紀念學校","lat":"22.472456","long":"114.049702"},{"id":20016816,"name":"錦綉花園大道, 近錦綉花園","lat":"22.473087","long":"114.050250"},{"id":20016817,"name":"錦綉花園大道, 近明珠花園第一座","lat":"22.472759","long":"114.051499"},{"id":20016818,"name":"錦綉花園大道, 近海錦花園19","lat":"22.472184","long":"114.052701"},{"id":20016819,"name":"錦綉花園大道, 近首譽A座","lat":"22.471599","long":"114.053929"},{"id":20016820,"name":"青山公路－潭尾段, 近悅富豪苑Merry Garden House 1","lat":"22.466786","long":"114.054069"},{"id":20016831,"name":"青山公路－潭尾段, 近雅麗花園","lat":"22.464534","long":"114.053461"},{"id":20015412,"name":"青山公路－潭尾段, 近金翠軒","lat":"22.461769","long":"114.052805"},{"id":20016823,"name":"青山公路－潭尾段, 近冠珍興記醬園有限公司","lat":"22.458114","long":"114.051787"},{"id":20016824,"name":"青山公路－潭尾段, 近Park Yoho","lat":"22.452025","long":"114.049649"},{"id":20016825,"name":"青山公路－潭尾段, 近山水盈","lat":"22.447005","long":"114.049495"},{"id":20001286,"name":"青山公路－元朗段, 近楊屋村","lat":"22.444173","long":"114.042589"},{"id":20001287,"name":"青山公路－元朗段, 近YOHO Midtown","lat":"22.444311","long":"114.034351"},{"id":20015409,"name":"福康街, 近金寶樓","lat":"22.445104","long":"114.028575"}],"routeId":2008630,"description":"黃昏班次 (不經擊壤路)"},{"company":"gmb","route":"36","routeType":1,"orig":"元朗(福康街)","dest":"大生圍村公所 (經攸壆路簡約公屋)","stopList":[{"id":20015409,"name":"福康街, 近金寶樓","lat":"22.445104","long":"114.028575"},{"id":20001281,"name":"青山公路－元朗段, 近金豐大廈","lat":"22.444569","long":"114.030805"},{"id":20001282,"name":"元朗站(北)公共運輸交匯處","lat":"22.446451","long":"114.034281"},{"id":20001283,"name":"青山公路－元朗段, 近東成里路","lat":"22.444391","long":"114.043599"},{"id":20015411,"name":"青山公路－潭尾段, 近元朗菜聯聯誼會有限公司天光墟蔬菜批發市場","lat":"22.447261","long":"114.049349"},{"id":20016803,"name":"新潭路, 近沙埔污水泵房","lat":"22.457627","long":"114.052346"},{"id":20016804,"name":"新潭路, 近金翠軒","lat":"22.462012","long":"114.053300"},{"id":20016805,"name":"新潭路, 近雅麗花園","lat":"22.464567","long":"114.053909"},{"id":20016806,"name":"新潭路, 近朗廈","lat":"22.469443","long":"114.055384"},{"id":20022339,"name":"攸壆路簡約公屋（北）","lat":"22.479563","long":"114.053417"},{"id":20021418,"name":"攸壆路簡約公屋（南）","lat":"22.475600","long":"114.050668"},{"id":20016813,"name":"大生圍村公所小巴總站","lat":"22.470988","long":"114.044157"},{"id":20016814,"name":"未命名通道, 近錦綉花園","lat":"22.472053","long":"114.048278"},{"id":20016815,"name":"未命名通道, 近港澳信義會黃陳淑英紀念學校","lat":"22.472456","long":"114.049702"},{"id":20016816,"name":"錦綉花園大道, 近錦綉花園","lat":"22.473087","long":"114.050250"},{"id":20016817,"name":"錦綉花園大道, 近明珠花園第一座","lat":"22.472759","long":"114.051499"},{"id":20016818,"name":"錦綉花園大道, 近海錦花園19","lat":"22.472184","long":"114.052701"},{"id":20016819,"name":"錦綉花園大道, 近首譽A座","lat":"22.471599","long":"114.053929"},{"id":20016820,"name":"青山公路－潭尾段, 近悅富豪苑Merry Garden House 1","lat":"22.466786","long":"114.054069"},{"id":20016821,"name":"青山公路－潭尾段, 近雅麗花園","lat":"22.464298","long":"114.053495"},{"id":20016822,"name":"青山公路－潭尾段, 近金翠軒","lat":"22.461554","long":"114.052843"},{"id":20016823,"name":"青山公路－潭尾段, 近冠珍興記醬園有限公司","lat":"22.458114","long":"114.051787"},{"id":20016824,"name":"青山公路－潭尾段, 近Park Yoho","lat":"22.452025","long":"114.049649"},{"id":20016825,"name":"青山公路－潭尾段, 近山水盈","lat":"22.447005","long":"114.049495"},{"id":20001286,"name":"青山公路－元朗段, 近楊屋村","lat":"22.444173","long":"114.042589"},{"id":20001287,"name":"青山公路－元朗段, 近YOHO Midtown","lat":"22.444311","long":"114.034351"},{"id":20001288,"name":"青山公路－元朗段, 近又新街","lat":"22.444335","long":"114.031223"},{"id":20001289,"name":"青山公路, 大棠路","lat":"22.444369","long":"114.028901"},{"id":20015426,"name":"擊壤路, 近擊壤路五人足球場","lat":"22.445469","long":"114.025085"},{"id":20015427,"name":"元朗安寧路, 近大橋","lat":"22.446154","long":"114.026573"},{"id":20015409,"name":"福康街, 近金寶樓","lat":"22.445104","long":"114.028575"}],"routeId":2011193,"description":"夜間特別班次(經攸壆路簡約公屋)"}]