[{"company":"kmb","route":"36","routeType":"1","dir":"O","orig":"荃灣西站","dest":"梨木樹(循環線)","stopList":[{"id":"EDD3C420910A50CA","name":"荃灣西站巴士總站","lat":"22.368116","long":"114.110443"},{"id":"A23B54EC3487EF41","name":"戴麟趾夫人診所","lat":"22.370525","long":"114.115412"},{"id":"D21D129C5E4F402C","name":"荃灣鹹田街","lat":"22.369533","long":"114.117252"},{"id":"81BBDC83713D1C2F","name":"名逸居","lat":"22.367780","long":"114.120500"},{"id":"FD80BB497E0791CA","name":"荃富街公園","lat":"22.368853","long":"114.121667"},{"id":"CAF9395414DBD090","name":"綠楊新邨","lat":"22.371592","long":"114.121036"},{"id":"48CD423F78F6FA22","name":"石圍角邨石蓮樓","lat":"22.374750","long":"114.122830"},{"id":"B18C8718C0B7904F","name":"石圍角邨石菊樓","lat":"22.376118","long":"114.124570"},{"id":"D1A1DF2BDC842EE5","name":"東普陀","lat":"22.378716","long":"114.126958"},{"id":"33A7AB58611A0F6D","name":"三棟屋村","lat":"22.379813","long":"114.129474"},{"id":"B1D6CA16EE22225D","name":"象山邨秀山樓","lat":"22.378878","long":"114.131633"},{"id":"97BB9CE7A058E809","name":"可風中學","lat":"22.380443","long":"114.135135"},{"id":"30000427BD163F84","name":"梨木樹巴士總站","lat":"22.377516","long":"114.136640"},{"id":"03A5552B84E8214B","name":"和宜合道運動場","lat":"22.374165","long":"114.136527"},{"id":"0B4807A5C0DAF24A","name":"昌榮路","lat":"22.370602","long":"114.134772"},{"id":"4C7927148D79A446","name":"昌榮路迴旋處","lat":"22.370199","long":"114.133106"},{"id":"CA4777DC41555D2C","name":"國瑞路公園","lat":"22.371634","long":"114.129941"},{"id":"A958EF1ECDA5CC4A","name":"大窩口站","lat":"22.371109","long":"114.126402"},{"id":"2BDB51D5618D546F","name":"荃灣荃富街","lat":"22.367579","long":"114.121947"},{"id":"3A99869DB9D31D45","name":"尚翠苑","lat":"22.367524","long":"114.120504"},{"id":"1C179AC6FE83C808","name":"寶石大廈","lat":"22.368857","long":"114.118050"},{"id":"E8B842CC3AB62056","name":"戴麟趾夫人診所","lat":"22.369949","long":"114.116026"},{"id":"716D84D1B7EA256E","name":"荃灣西站巴士總站(落客站)","lat":"22.367802","long":"114.110950"}],"routeId":"36","description":"正常班次"},{"company":"kmb","route":"36","routeType":"2","dir":"O","orig":"梨木樹","dest":"荃灣西站","stopList":[{"id":"30000427BD163F84","name":"梨木樹巴士總站","lat":"22.377516","long":"114.136640"},{"id":"03A5552B84E8214B","name":"和宜合道運動場","lat":"22.374165","long":"114.136527"},{"id":"0B4807A5C0DAF24A","name":"昌榮路","lat":"22.370602","long":"114.134772"},{"id":"4C7927148D79A446","name":"昌榮路迴旋處","lat":"22.370199","long":"114.133106"},{"id":"CA4777DC41555D2C","name":"國瑞路公園","lat":"22.371634","long":"114.129941"},{"id":"A958EF1ECDA5CC4A","name":"大窩口站","lat":"22.371109","long":"114.126402"},{"id":"2BDB51D5618D546F","name":"荃灣荃富街","lat":"22.367579","long":"114.121947"},{"id":"3A99869DB9D31D45","name":"尚翠苑","lat":"22.367524","long":"114.120504"},{"id":"1C179AC6FE83C808","name":"寶石大廈","lat":"22.368857","long":"114.118050"},{"id":"E8B842CC3AB62056","name":"戴麟趾夫人診所","lat":"22.369949","long":"114.116026"},{"id":"716D84D1B7EA256E","name":"荃灣西站巴士總站(落客站)","lat":"22.367802","long":"114.110950"}],"routeId":"36","description":"特別班次"},{"company":"nlb","route":"36","routeType":null,"dir":null,"orig":"東涌達東路巴士總站","dest":"迪士尼樂園","stopList":[{"id":"317","name":"東涌達東路巴士總站","lat":"22.29058000","long":"113.93935200","street":"達東路","fare":"10.2","fareHoliday":"10.2"},{"id":"100","name":"東薈城","lat":"22.29013600","long":"113.94147400","street":"達東路","fare":"10.2","fareHoliday":"10.2"},{"id":"295","name":"白芒","lat":"22.29796400","long":"113.96758000","street":"翔東路","fare":"10.2","fareHoliday":"10.2"},{"id":"98","name":"政府維修廠","lat":"22.30893500","long":"113.98945100","street":"翔東路","fare":"10.2","fareHoliday":"10.2"},{"id":"95","name":"小蠔灣","lat":"22.31551900","long":"113.99797500","street":"深豐路","fare":"10.2","fareHoliday":"10.2"},{"id":"327","name":"迪士尼樂園","lat":"22.31635600","long":"114.04573200","street":"幻想道","fare":"0.0","fareHoliday":"0.0"}],"routeId":"101","description":"正常班次"},{"company":"nlb","route":"36","routeType":null,"dir":null,"orig":"迪士尼樂園","dest":"東涌達東路巴士總站","stopList":[{"id":"328","name":"迪士尼樂園","lat":"22.31635600","long":"114.04573200","street":"幻想道","fare":"10.2","fareHoliday":"10.2"},{"id":"293","name":"小蠔灣","lat":"22.31551900","long":"113.99797500","street":"深豐路","fare":"4.9","fareHoliday":"4.9"},{"id":"96","name":"小蠔灣濾水廠","lat":"22.31359500","long":"113.99573400","street":"翔東路","fare":"4.9","fareHoliday":"4.9"},{"id":"97","name":"愉景灣隧道","lat":"22.31002200","long":"113.99058400","street":"翔東路","fare":"4.9","fareHoliday":"4.9"},{"id":"294","name":"政府維修廠","lat":"22.30928300","long":"113.98925400","street":"翔東路","fare":"4.9","fareHoliday":"4.9"},{"id":"99","name":"白芒","lat":"22.29796400","long":"113.96758000","street":"翔東路","fare":"4.9","fareHoliday":"4.9"},{"id":"80","name":"富東廣場","lat":"22.28887000","long":"113.94210500","street":"達東路","fare":"4.9","fareHoliday":"4.9"},{"id":"78","name":"東涌纜車站","lat":"22.28930100","long":"113.93873300","street":"達東路","fare":"4.9","fareHoliday":"4.9"},{"id":"318","name":"東涌達東路巴士總站","lat":"22.29058000","long":"113.93935200","street":"達東路","fare":"0.0","fareHoliday":"0.0"}],"routeId":"102","description":"正常班次"},{"company":"gmb","route":"36","routeType":1,"orig":"元朗(福康街)","dest":"大生圍村公所","stopList":[{"id":20015409,"name":"福康街, 近金寶樓","lat":22.445104359918382,"long":114.02857482433319},{"id":20001281,"name":"青山公路元朗段, 金豐大廈外","lat":22.44456936461265,"long":114.03080496109742},{"id":20002436,"name":"朗日路(近元朗站)","lat":22.446613991219326,"long":114.03500931805169},{"id":20001283,"name":"青山公路, 元朗東成里路","lat":22.444390792321386,"long":114.04359930444288},{"id":20015411,"name":"青山公路－潭尾段, 近元朗菜聯聯誼會有限公司天光墟蔬菜批發市場","lat":22.447261090821325,"long":114.04934853315356},{"id":20016803,"name":"新潭路, 近沙埔污水泵房","lat":22.457627490441414,"long":114.05234609748882},{"id":20016804,"name":"新潭路, 近金翠軒","lat":22.462012163014325,"long":114.0532996708381},{"id":20016805,"name":"新潭路, 近雅麗花園","lat":22.464567293196094,"long":114.0539093957372},{"id":20016806,"name":"新潭路, 近朗廈","lat":22.46944316589874,"long":114.05538426404867},{"id":20016807,"name":"錦綉花園大道, 近首譽A座","lat":22.47144119467184,"long":114.05394697101316},{"id":20016808,"name":"錦綉花園大道, 近錦宇花園C座","lat":22.472015502409874,"long":114.05274717681826},{"id":20016809,"name":"錦綉花園大道, 近文苑村","lat":22.472635952395944,"long":114.05144535323912},{"id":20016810,"name":"攸壆路, 近錦綉花園","lat":22.47296769783332,"long":114.05027737691098},{"id":20016811,"name":"未命名通道, 近文苑村","lat":22.472442406173577,"long":114.04979114931679},{"id":20016812,"name":"未命名通道, 近神樂院牛奶廠有限公司","lat":22.472012627118914,"long":114.04822392887182},{"id":20016813,"name":"大生圍村公所小巴總站","lat":22.470987612096767,"long":114.04415695051857}],"routeId":2008622,"description":"正常班次"},{"company":"gmb","route":"36","routeType":2,"orig":"大生圍村公所","dest":"元朗(福康街)","stopList":[{"id":20016813,"name":"大生圍村公所小巴總站","lat":22.470987612096767,"long":114.04415695051857},{"id":20016814,"name":"未命名通道, 近錦綉花園","lat":22.472053360180837,"long":114.04827823592284},{"id":20016815,"name":"未命名通道, 近港澳信義會黃陳淑英紀念學校","lat":22.472456260080794,"long":114.04970244086522},{"id":20016816,"name":"錦綉花園大道, 近錦綉花園","lat":22.4730871811549,"long":114.05025044839664},{"id":20016817,"name":"錦綉花園大道, 近明珠花園第一座","lat":22.472758652427057,"long":114.05149897479382},{"id":20016818,"name":"錦綉花園大道, 近海錦花園19","lat":22.472183609119995,"long":114.0527008572248},{"id":20016819,"name":"錦綉花園大道, 近首譽A座","lat":22.471599050787084,"long":114.05392862510917},{"id":20016820,"name":"青山公路－潭尾段, 近悅富豪苑Merry Garden House 1","lat":22.46678624036583,"long":114.05406908991831},{"id":20016821,"name":"青山公路－潭尾段, 近雅麗花園","lat":22.464297588998267,"long":114.05349488941684},{"id":20016822,"name":"青山公路－潭尾段, 近金翠軒","lat":22.4615539406029,"long":114.05284282016923},{"id":20016823,"name":"青山公路－潭尾段, 近冠珍興記醬園有限公司","lat":22.458106150974043,"long":114.05180579429141},{"id":20016824,"name":"青山公路－潭尾段, 近Park Yoho","lat":22.452024642047828,"long":114.04964930341102},{"id":20016825,"name":"青山公路－潭尾段, 近山水盈","lat":22.44700509333506,"long":114.04949468226003},{"id":20001286,"name":"青山公路, 近楊屋村","lat":22.444173224968,"long":114.04258919301918},{"id":20001287,"name":"青山公路元朗段, 近 YOHO Midtown","lat":22.444310650896895,"long":114.03435106620873},{"id":20001288,"name":"青山公路, 又新街","lat":22.44433495089039,"long":114.03122293497171},{"id":20001289,"name":"青山公路, 大棠路","lat":22.444368961604518,"long":114.02890110583391},{"id":20015426,"name":"擊壤路, 近擊壤路五人足球場","lat":22.445468775425574,"long":114.02508527040484},{"id":20015427,"name":"元朗安寧路, 近大橋","lat":22.44615422104725,"long":114.02657255530357},{"id":20015409,"name":"福康街, 近金寶樓","lat":22.445104359918382,"long":114.02857482433319}],"routeId":2008622,"description":"正常班次"},{"company":"gmb","route":"36","routeType":1,"orig":"大生圍村公所","dest":"元朗(福康街)","stopList":[{"id":20016813,"name":"大生圍村公所小巴總站","lat":22.470987612096767,"long":114.04415695051857},{"id":20016814,"name":"未命名通道, 近錦綉花園","lat":22.472053360180837,"long":114.04827823592284},{"id":20016815,"name":"未命名通道, 近港澳信義會黃陳淑英紀念學校","lat":22.472456260080794,"long":114.04970244086522},{"id":20016816,"name":"錦綉花園大道, 近錦綉花園","lat":22.4730871811549,"long":114.05025044839664},{"id":20016817,"name":"錦綉花園大道, 近明珠花園第一座","lat":22.472758652427057,"long":114.05149897479382},{"id":20016818,"name":"錦綉花園大道, 近海錦花園19","lat":22.472183609119995,"long":114.0527008572248},{"id":20016819,"name":"錦綉花園大道, 近首譽A座","lat":22.471599050787084,"long":114.05392862510917},{"id":20016820,"name":"青山公路－潭尾段, 近悅富豪苑Merry Garden House 1","lat":22.46678624036583,"long":114.05406908991831},{"id":20016831,"name":"青山公路－潭尾段, 近雅麗花園","lat":22.464534036634486,"long":114.05346060873444},{"id":20015412,"name":"青山公路－潭尾段, 近金翠軒","lat":22.46176857258612,"long":114.05280455946922},{"id":20016823,"name":"青山公路－潭尾段, 近冠珍興記醬園有限公司","lat":22.458106150974043,"long":114.05180579429141},{"id":20016824,"name":"青山公路－潭尾段, 近Park Yoho","lat":22.452024642047828,"long":114.04964930341102},{"id":20016825,"name":"青山公路－潭尾段, 近山水盈","lat":22.44700509333506,"long":114.04949468226003},{"id":20001286,"name":"青山公路, 近楊屋村","lat":22.444173224968,"long":114.04258919301918},{"id":20001287,"name":"青山公路元朗段, 近 YOHO Midtown","lat":22.444310650896895,"long":114.03435106620873},{"id":20015409,"name":"福康街, 近金寶樓","lat":22.445104359918382,"long":114.02857482433319}],"routeId":2008630,"description":"黃昏班次 (不經擊壤路)"}]