[{"company":"kmb","route":"36A","routeType":"1","dir":"O","orig":"梨木樹","dest":"長沙灣(海達邨)(循環線)","stopList":[{"id":"122AB077C55A383F","name":"梨木樹巴士總站 (TW902)","lat":"22.377605","long":"114.136635"},{"id":"066AA1A504714A20","name":"和宜合道運動場 (TW316)","lat":"22.374018","long":"114.136465"},{"id":"1423FCFF61709EAC","name":"昌榮路 (KW331)","lat":"22.370511","long":"114.134739"},{"id":"898337E6181E5E66","name":"葵俊苑 (KW452)","lat":"22.364416","long":"114.132751"},{"id":"4E3FEA4E559A5D16","name":"新葵興花園 (KW458)","lat":"22.362423","long":"114.132128"},{"id":"BB04686A2E0D7578","name":"葵芳邨 (KW461)","lat":"22.359821","long":"114.131178"},{"id":"88658D10545F9014","name":"葵涌道荔景邨 (KW463)","lat":"22.352528","long":"114.126528"},{"id":"F36F422FDC6B9D3F","name":"葵涌交滙處 (KW465)","lat":"22.339640","long":"114.132619"},{"id":"62E0E61D5250535A","name":"美孚轉車站 (D2) (SS460)","lat":"22.337485","long":"114.140456"},{"id":"E980FEE337B950D0","name":"通州西街 (SS510)","lat":"22.337922","long":"114.146698"},{"id":"0C44BAE327DB4A8A","name":"汝州西街 (SS514)","lat":"22.338965","long":"114.149766"},{"id":"26CEAEF7BD0F6F59","name":"集輝街 (SS521)","lat":"22.339908","long":"114.152533"},{"id":"0CF7F9E4042E1BCB","name":"發祥街 (SS528)","lat":"22.338340","long":"114.156628"},{"id":"9FCD49E531B1E1F3","name":"東京街 (SS533)","lat":"22.336953","long":"114.158411"},{"id":"C749CD95D1D4CDE5","name":"營盤街 (SS541)","lat":"22.335440","long":"114.160361"},{"id":"16D37394ECACA7AD","name":"深水埗福榮街 (SS180)","lat":"22.332816","long":"114.162115"},{"id":"D81EA700D73BBEB0","name":"深水埗基隆街 (SS182)","lat":"22.330547","long":"114.160068"},{"id":"CC14CF9E8A163F34","name":"通州街公園 (SS184)","lat":"22.327741","long":"114.157546"},{"id":"CC9AE3EF28E5725F","name":"富昌邨 (SS662)","lat":"22.327310","long":"114.154421"},{"id":"7A98D182671B86E1","name":"長沙灣(海達邨)總站 (SS953)","lat":"22.329105","long":"114.151082"},{"id":"F1DE119543E382D9","name":"碧海藍天 (SS671)","lat":"22.332482","long":"114.149092"},{"id":"D355B700FF30B3D7","name":"長沙灣興華街 (X28) (SS229)","lat":"22.337744","long":"114.152954"},{"id":"4A1EEF2271FA16D3","name":"荔枝角站 (X38) (SS239)","lat":"22.337258","long":"114.148408"},{"id":"91C7F46612ADD9EF","name":"美孚轉車站 (A2) (SS323)","lat":"22.336723","long":"114.139795"},{"id":"F39F638D34947E40","name":"葵涌交滙處 (KW101)","lat":"22.340537","long":"114.131551"},{"id":"246ECB0F3B94855D","name":"葵涌道荔景邨 (KW102)","lat":"22.352823","long":"114.126548"},{"id":"D17DA49D5EFC6DD4","name":"葵芳廣場 (KW103)","lat":"22.357804","long":"114.130111"},{"id":"6BCA27BE4E0F904D","name":"光輝圍 (KW112)","lat":"22.367857","long":"114.133641"},{"id":"8C6EF1266E4EE05B","name":"昌榮路 (KW480)","lat":"22.370532","long":"114.134301"},{"id":"257A6E19DD7F156C","name":"和宜合道運動場 (TW490)","lat":"22.373954","long":"114.136349"},{"id":"28A57C043C111604","name":"石圍角新村 (TW493)","lat":"22.375875","long":"114.136250"},{"id":"122AB077C55A383F","name":"梨木樹巴士總站 (TW902)","lat":"22.377605","long":"114.136635"}],"routeId":"36A","description":"正常班次"},{"company":"gmb","route":"36A","routeType":1,"orig":"鱷魚山(康利苑)","dest":"裕民坊公共運輸交匯處","stopList":[{"id":20013869,"name":"康利道, 聖傑靈女子中學外","lat":22.318979052099362,"long":114.2200791835785},{"id":20014069,"name":"康利道, 南康大廈對面","lat":22.317852551620547,"long":114.22080338001253},{"id":20014056,"name":"康利道, 樂意園對面","lat":22.31759945995381,"long":114.2213559150696},{"id":20014072,"name":"裕民坊公共運輸交匯處","lat":22.3146764660778,"long":114.22522366046907},{"id":20000633,"name":"康寧道, 康寧閣外","lat":22.315490338298364,"long":114.22352313995363},{"id":20013869,"name":"康利道, 聖傑靈女子中學外","lat":22.318979052099362,"long":114.2200791835785}],"routeId":2005913,"description":"額外班次"},{"company":"gmb","route":"36A","routeType":1,"orig":"鱷魚山(康利苑)","dest":"裕民坊公共運輸交匯處","stopList":[{"id":20013869,"name":"康利道, 聖傑靈女子中學外","lat":22.318979052099362,"long":114.2200791835785},{"id":20014069,"name":"康利道, 南康大廈對面","lat":22.317852551620547,"long":114.22080338001253},{"id":20014056,"name":"康利道, 樂意園對面","lat":22.31759945995381,"long":114.2213559150696},{"id":20014070,"name":"功樂道, 鳳儀大廈對面","lat":22.318949276873294,"long":114.22116816043855},{"id":20014058,"name":"功樂道, 林景閣對面","lat":22.319435604770327,"long":114.22047078609468},{"id":20014059,"name":"功樂道, 功樂大廈外","lat":22.318237150823812,"long":114.2193067073822},{"id":20014071,"name":"功樂道, 景興閣外","lat":22.317574647020592,"long":114.2199531197548},{"id":20014072,"name":"裕民坊公共運輸交匯處","lat":22.3146764660778,"long":114.22522366046907},{"id":20000633,"name":"康寧道, 康寧閣外","lat":22.315490338298364,"long":114.22352313995363},{"id":20013869,"name":"康利道, 聖傑靈女子中學外","lat":22.318979052099362,"long":114.2200791835785}],"routeId":2005914,"description":"正常班次"},{"company":"gmb","route":"36A","routeType":1,"orig":"元朗(福康街)","dest":"攸壆路簡約公屋","stopList":[{"id":20015409,"name":"福康街, 近金寶樓","lat":22.445104359918382,"long":114.02857482433319},{"id":20001281,"name":"青山公路－元朗段, 近金豐大廈","lat":22.44456936461265,"long":114.03080496109742},{"id":20001282,"name":"元朗站(北)公共運輸交匯處","lat":22.446450801758296,"long":114.03428087667947},{"id":20001283,"name":"青山公路－元朗段, 元朗東成里路","lat":22.444390792321386,"long":114.04359930444288},{"id":20015411,"name":"青山公路－潭尾段, 近元朗菜聯聯誼會有限公司天光墟蔬菜批發市場","lat":22.447261090821325,"long":114.04934853315356},{"id":20016803,"name":"新潭路, 近沙埔污水泵房","lat":22.457627490441414,"long":114.05234609748882},{"id":20016804,"name":"新潭路, 近金翠軒","lat":22.462012163014325,"long":114.0532996708381},{"id":20016805,"name":"新潭路, 近雅麗花園","lat":22.464567293196094,"long":114.0539093957372},{"id":20016806,"name":"新潭路, 近朗廈","lat":22.46944316589874,"long":114.05538426404867},{"id":20021415,"name":"青山公路－潭尾段, 近下新圍","lat":22.473154115972594,"long":114.05548810958864},{"id":20021416,"name":"青山公路－潭尾段, 近下竹園","lat":22.475662354159585,"long":114.0563464164734},{"id":20021417,"name":"攸壆路簡約公屋（北）","lat":22.479107389874766,"long":114.05313044786455},{"id":20021418,"name":"攸壆路簡約公屋（南）","lat":22.475600392300997,"long":114.05066817998888}],"routeId":2010830,"description":"正常班次"},{"company":"gmb","route":"36A","routeType":2,"orig":"攸壆路簡約公屋","dest":"元朗(福康街)","stopList":[{"id":20021418,"name":"攸壆路簡約公屋（南）","lat":22.475600392300997,"long":114.05066817998888},{"id":20021417,"name":"攸壆路簡約公屋（北）","lat":22.479107389874766,"long":114.05313044786455},{"id":20021419,"name":"青山公路－潭尾段, 近下竹園","lat":22.475682181948493,"long":114.05645906925203},{"id":20021420,"name":"青山公路－潭尾段, 近下新圍","lat":22.47315659449124,"long":114.05560612678528},{"id":20016820,"name":"青山公路－潭尾段, 近悅富豪苑Merry Garden House 1","lat":22.46678624036583,"long":114.05406908991831},{"id":20016821,"name":"青山公路－潭尾段, 近雅麗花園","lat":22.464297588998267,"long":114.05349488941684},{"id":20016822,"name":"青山公路－潭尾段, 近金翠軒","lat":22.4615539406029,"long":114.05284282016923},{"id":20016823,"name":"青山公路－潭尾段, 近冠珍興記醬園有限公司","lat":22.45811364826835,"long":114.05178666114807},{"id":20016824,"name":"青山公路－潭尾段, 近Park Yoho","lat":22.452024642047828,"long":114.04964930341102},{"id":20016825,"name":"青山公路－潭尾段, 近山水盈","lat":22.44700509333506,"long":114.04949468226003},{"id":20001286,"name":"青山公路－元朗段, 近楊屋村","lat":22.444173224968,"long":114.04258919301918},{"id":20001287,"name":"青山公路－元朗段, 近YOHO Midtown","lat":22.444310650896895,"long":114.03435106620873},{"id":20001288,"name":"青山公路－元朗段, 近又新街","lat":22.44433495089039,"long":114.03122293497171},{"id":20001289,"name":"青山公路－元朗段, 大棠路","lat":22.444368961604518,"long":114.02890110583391},{"id":20015426,"name":"擊壤路, 近擊壤路五人足球場","lat":22.445468775425574,"long":114.02508527040484},{"id":20015427,"name":"元朗安寧路, 近大橋","lat":22.44615422104725,"long":114.02657255530357},{"id":20015409,"name":"福康街, 近金寶樓","lat":22.445104359918382,"long":114.02857482433319}],"routeId":2010830,"description":"正常班次"},{"company":"gmb","route":"36A","routeType":1,"orig":"攸壆路簡約公屋","dest":"元朗(福康街)","stopList":[{"id":20021418,"name":"攸壆路簡約公屋（南）","lat":22.475600392300997,"long":114.05066817998888},{"id":20021417,"name":"攸壆路簡約公屋（北）","lat":22.479107389874766,"long":114.05313044786455},{"id":20021419,"name":"青山公路－潭尾段, 近下竹園","lat":22.475682181948493,"long":114.05645906925203},{"id":20021420,"name":"青山公路－潭尾段, 近下新圍","lat":22.47315659449124,"long":114.05560612678528},{"id":20016820,"name":"青山公路－潭尾段, 近悅富豪苑Merry Garden House 1","lat":22.46678624036583,"long":114.05406908991831},{"id":20016821,"name":"青山公路－潭尾段, 近雅麗花園","lat":22.464297588998267,"long":114.05349488941684},{"id":20016822,"name":"青山公路－潭尾段, 近金翠軒","lat":22.4615539406029,"long":114.05284282016923},{"id":20016823,"name":"青山公路－潭尾段, 近冠珍興記醬園有限公司","lat":22.45811364826835,"long":114.05178666114807},{"id":20016824,"name":"青山公路－潭尾段, 近Park Yoho","lat":22.452024642047828,"long":114.04964930341102},{"id":20016825,"name":"青山公路－潭尾段, 近山水盈","lat":22.44700509333506,"long":114.04949468226003},{"id":20001286,"name":"青山公路－元朗段, 近楊屋村","lat":22.444173224968,"long":114.04258919301918},{"id":20001287,"name":"青山公路－元朗段, 近YOHO Midtown","lat":22.444310650896895,"long":114.03435106620873},{"id":20015409,"name":"福康街, 近金寶樓","lat":22.445104359918382,"long":114.02857482433319}],"routeId":2010863,"description":"黃昏班次 (不經擊壤路)"}]