[{"company":"kmb","route":"38","routeType":"1","dir":"O","orig":"葵盛(東)","dest":"平田","stopList":[{"id":"7CB0618D76B5F553","name":"葵盛東巴士總站 (KW945)","lat":"22.363534","long":"114.127069"},{"id":"9CF00A30796B6B2B","name":"葵聯邨 (KW247)","lat":"22.361595","long":"114.124451"},{"id":"3350CE851FCC56A3","name":"葵盛西邨 (KW248)","lat":"22.361200","long":"114.122477"},{"id":"2F82535CF1C5BF3A","name":"盧光輝紀念學校 (KW261)","lat":"22.363418","long":"114.122642"},{"id":"EA43CFAD630C4690","name":"高盛臺 (KW262)","lat":"22.365017","long":"114.123639"},{"id":"1C4E76186CEFBCB7","name":"葵盛邨盛安樓 (KW265)","lat":"22.365357","long":"114.125988"},{"id":"7CA9FF2CDD3C4EE1","name":"葵盛葵葉街 (KW267)","lat":"22.365187","long":"114.127629"},{"id":"6DAB37A3FC9475C3","name":"林護紀念中學 (KW268)","lat":"22.365373","long":"114.130073"},{"id":"0393E099E78BEB94","name":"葵康苑 (KW508)","lat":"22.363259","long":"114.130687"},{"id":"6A5061ED084A2E4E","name":"葵興站 (KW150)","lat":"22.363696","long":"114.131384"},{"id":"6F29E09A140E6F54","name":"葵興路葵興邨 (KW151)","lat":"22.366378","long":"114.131735"},{"id":"FD782C97D1FD97E0","name":"禾葵里 (KW196)","lat":"22.367107","long":"114.133083"},{"id":"2658CCFAB79763B6","name":"葵涌屏麗徑 (KW405)","lat":"22.367360","long":"114.134946"},{"id":"E615D61C588B8F9D","name":"葵涌石英徑 (KW409)","lat":"22.364472","long":"114.135869"},{"id":"C3672D8D28801773","name":"葵涌業成街 (KW410)","lat":"22.360518","long":"114.135930"},{"id":"34FBE7E973FE5EF5","name":"華員邨 (KW412)","lat":"22.351973","long":"114.133190"},{"id":"66FB0FCA51BFD6A3","name":"鐘山台 (KW413)","lat":"22.344134","long":"114.139258"},{"id":"D198122830A4FDE3","name":"畢架山花園 (SS191)","lat":"22.341687","long":"114.167069"},{"id":"99EF4CA10B3E1F17","name":"豐力樓 (SS192)","lat":"22.343140","long":"114.172841"},{"id":"326199D24220A42B","name":"天馬苑 (WT200)","lat":"22.342707","long":"114.186638"},{"id":"F893C6ABC2743F64","name":"龍翔官立中學 (WT202)","lat":"22.342344","long":"114.189898"},{"id":"38330C642568FE3F","name":"黃大仙轉車站-黃大仙廟 (WT205)","lat":"22.341855","long":"114.192179"},{"id":"A15FFC3149FB92A0","name":"黃大仙轉車站-沙田坳道 (WT209)","lat":"22.341856","long":"114.195204"},{"id":"9DE875FD17C67097","name":"鑽石山站 (WT191)","lat":"22.339553","long":"114.202743"},{"id":"68B207DDC9A182AB","name":"牛池灣轉車站-牛池灣村 (WT211)","lat":"22.336630","long":"114.207400"},{"id":"4BD5CE5106BB0697","name":"九龍灣站(東九文化中心) (KT317)","lat":"22.325601","long":"114.214336"},{"id":"6465DE9EE57F6C94","name":"牛頭角下邨 (KT323)","lat":"22.321984","long":"114.214628"},{"id":"3E73B73B12E25DCF","name":"觀塘道休憩處 (KT330)","lat":"22.318039","long":"114.215032"},{"id":"CF579AAA2A4E506C","name":"牛頭角站 (KT336)","lat":"22.315213","long":"114.219514"},{"id":"0B8C52E4C34E3B64","name":"觀塘轉車站-觀塘市中心 (KT348)","lat":"22.313264","long":"114.224346"},{"id":"144E9479168069DD","name":"觀塘游泳池 (KT361)","lat":"22.310432","long":"114.229545"},{"id":"7459D3AB11AFD6B5","name":"藍田站 (LT911)","lat":"22.306525","long":"114.233772"},{"id":"2E2AD8BFE00F9FAB","name":"基孝中學 (LT135)","lat":"22.306249","long":"114.235296"},{"id":"3CB982FBC9E50AAA","name":"康田苑 (LT136)","lat":"22.307071","long":"114.235116"},{"id":"F49FA120DE5E6582","name":"啟仁樓 (LT138)","lat":"22.309246","long":"114.233601"},{"id":"1EF0671DB830C59D","name":"啟田邨 (LT145)","lat":"22.310086","long":"114.234467"},{"id":"23727783D2D3E994","name":"藍田綜合大樓 (LT146)","lat":"22.309953","long":"114.237311"},{"id":"EF17FDCDDF170D38","name":"平真樓 (LT150)","lat":"22.307422","long":"114.237626"},{"id":"C1E7742780E828E9","name":"平田 (LT932)","lat":"22.308254","long":"114.235514"}],"routeId":"38","description":"正常班次"},{"company":"kmb","route":"38","routeType":"1","dir":"I","orig":"平田","dest":"葵盛(東)","stopList":[{"id":"C1E7742780E828E9","name":"平田 (LT932)","lat":"22.308254","long":"114.235514"},{"id":"80C801672D7D560D","name":"藍田(北) (LT940)","lat":"22.309154","long":"114.237253"},{"id":"6491C7B3E4DAD76D","name":"啟旺樓 (LT520)","lat":"22.309732","long":"114.234902"},{"id":"1107CC28F2631CCB","name":"啟田商場 (LT532)","lat":"22.308382","long":"114.234675"},{"id":"3EF537320681EE89","name":"基孝中學 (LT534)","lat":"22.305787","long":"114.235572"},{"id":"2EF9764BE18FC290","name":"藍田站 (LT607)","lat":"22.305354","long":"114.234128"},{"id":"F1A90CEE2B8C40CC","name":"觀塘法院 (KT611)","lat":"22.309991","long":"114.229553"},{"id":"84B384771F1CE484","name":"觀塘駿業里 (KT627)","lat":"22.312853","long":"114.224609"},{"id":"671775E6AF279B42","name":"觀塘轉車站 - 創紀之城 (KT642)","lat":"22.314310","long":"114.220732"},{"id":"4B17C55C032D3A37","name":"觀塘定富街 (KT650)","lat":"22.316726","long":"114.215543"},{"id":"266A4CDA19461A42","name":"牛頭角下邨 (KT656)","lat":"22.320432","long":"114.214418"},{"id":"A147FDE0CFB7A60D","name":"德福花園 (KT667)","lat":"22.323266","long":"114.214165"},{"id":"26A996F589C84844","name":"九龍灣站 (KT675)","lat":"22.325428","long":"114.213973"},{"id":"F374B56E275194D8","name":"啟泰苑 (KT677)","lat":"22.328563","long":"114.212227"},{"id":"58584BC1AC41723C","name":"牛池灣轉車站-紅萼樓 (WT704)","lat":"22.336895","long":"114.206268"},{"id":"52A8DA8958AFCCA6","name":"鑽石山站 (WT712)","lat":"22.339246","long":"114.202191"},{"id":"62A1C8EFAC876BDB","name":"黃大仙轉車站-黃大仙廟 (WT714)","lat":"22.341470","long":"114.195370"},{"id":"E435F72ACB8438ED","name":"摩士公園泳池 (WT720)","lat":"22.341570","long":"114.191604"},{"id":"65842E04BFE99758","name":"永光書院 (WT722)","lat":"22.342338","long":"114.188530"},{"id":"EFED59E880B693F5","name":"天馬苑 (WT725)","lat":"22.342418","long":"114.186220"},{"id":"29A62A8FE112766B","name":"豐力樓 (SS730)","lat":"22.342585","long":"114.172991"},{"id":"9751EE79B103C9B8","name":"畢架山花園 (SS732)","lat":"22.341649","long":"114.166733"},{"id":"75C0DF6C7724CEEA","name":"鐘山台 (KW121)","lat":"22.343708","long":"114.139414"},{"id":"EBF4EB34B96BC242","name":"華員邨 (KW122)","lat":"22.351321","long":"114.132856"},{"id":"3FE93821145B65F5","name":"葵涌業成街 (KW123)","lat":"22.360158","long":"114.135190"},{"id":"9161A6E5DCECCF39","name":"葵涌屏麗徑 (KW124)","lat":"22.365890","long":"114.134913"},{"id":"898337E6181E5E66","name":"葵俊苑 (KW452)","lat":"22.364416","long":"114.132751"},{"id":"9217F5E1950F12BF","name":"新葵興花園 (KW456)","lat":"22.361948","long":"114.131856"},{"id":"E6FB42A68818D9F4","name":"葵芳智芳街 (KW141)","lat":"22.359261","long":"114.127747"},{"id":"45A499CD3132E90A","name":"林士德體育館 (KW146)","lat":"22.361069","long":"114.129536"},{"id":"434BB67EF7BCA912","name":"葵康苑 (KW165)","lat":"22.363164","long":"114.130480"},{"id":"5A850F8739B82EA6","name":"葵盛圍葵康苑 (KW255)","lat":"22.363877","long":"114.130262"},{"id":"198229EF878137DD","name":"葵盛邨盛樂樓 (KW256)","lat":"22.362536","long":"114.128125"},{"id":"7E43C30824FE61FA","name":"南葵涌分科診所 (KW257)","lat":"22.360959","long":"114.125158"},{"id":"D32CA1C4A94A6AAD","name":"葵盛游泳池 (KW258)","lat":"22.359828","long":"114.123328"},{"id":"DB5F02A65173A2D1","name":"葵盛邨六座 (KW259)","lat":"22.361831","long":"114.120895"},{"id":"4C5AD92665CBCF5D","name":"盧光輝紀念學校 (KW260)","lat":"22.363288","long":"114.122631"},{"id":"29EC0D6F48E5BCDA","name":"高盛臺 (KW263)","lat":"22.365010","long":"114.123767"},{"id":"4242A06B3D8849D9","name":"葵盛邨盛安樓 (KW264)","lat":"22.365246","long":"114.125892"},{"id":"DDAAE7806271F21A","name":"葵盛葵葉街 (KW266)","lat":"22.365167","long":"114.127570"},{"id":"7CB0618D76B5F553","name":"葵盛東巴士總站 (KW945)","lat":"22.363534","long":"114.127069"}],"routeId":"38","description":"正常班次"},{"company":"ctb","route":"38","routeType":null,"dir":"I","orig":"北角碼頭","dest":"置富花園","stopList":[{"id":"001249","name":"北角碼頭","lat":"22.293288","long":"114.201498"},{"id":"001279","name":"琴行街, 英皇道","lat":"22.291204","long":"114.200959"},{"id":"001281","name":"美麗閣, 英皇道","lat":"22.290568","long":"114.197884"},{"id":"001282","name":"新時代廣場, 英皇道","lat":"22.289910","long":"114.195157"},{"id":"001286","name":"清風街, 英皇道","lat":"22.284714","long":"114.192917"},{"id":"001215","name":"香港中央圖書館, 高士威道","lat":"22.280082","long":"114.188878"},{"id":"002439","name":"銅鑼灣 - 希慎廣場, 軒尼詩道","lat":"22.280000","long":"114.183359"},{"id":"002404","name":"堅拿道巴士專用線","lat":"22.278044","long":"114.181207"},{"id":"002470","name":"跑馬地馬場, 摩理臣山道","lat":"22.275361","long":"114.180421"},{"id":"002348","name":"香港仔隧道巴士轉乘站","lat":"22.249770","long":"114.175336"},{"id":"002355","name":"黃竹坑遊樂場, 黃竹坑道","lat":"22.250123","long":"114.169851"},{"id":"002357","name":"南朗山道, 黃竹坑道","lat":"22.248328","long":"114.166062"},{"id":"002358","name":"勝利工廠大廈, 黃竹坑道","lat":"22.248392","long":"114.163149"},{"id":"002160","name":"逸港居, 香港仔海傍道","lat":"22.247488","long":"114.159026"},{"id":"002161","name":"香港仔海濱公園, 香港仔海傍道","lat":"22.247000","long":"114.155783"},{"id":"002162","name":"香港仔魚類批發市場, 香港仔海傍道","lat":"22.247980","long":"114.152431"},{"id":"002163","name":"田灣街, 香港仔海傍道","lat":"22.248633","long":"114.148091"},{"id":"002333","name":"華富邨華樂樓, 華富道","lat":"22.251702","long":"114.138544"},{"id":"002334","name":"華富商場, 華富道","lat":"22.250931","long":"114.137351"},{"id":"002335","name":"華富邨華清樓, 華富道","lat":"22.251956","long":"114.136024"},{"id":"002336","name":"培英中學, 華富道","lat":"22.253517","long":"114.135647"},{"id":"002338","name":"華富 (北)","lat":"22.254020","long":"114.136387"},{"id":"002261","name":"華富道, 石排灣道","lat":"22.252557","long":"114.140248"},{"id":"002226","name":"余振強紀念第二中學, 薄扶林道","lat":"22.256090","long":"114.137535"},{"id":"002183","name":"置富徑, 置富道","lat":"22.255735","long":"114.138435"},{"id":"002184","name":"置富花園 1- 7 座, 置富道","lat":"22.255954","long":"114.139746"},{"id":"002186","name":"置富","lat":"22.257523","long":"114.139118"}],"routeId":"38","description":"正常班次"},{"company":"ctb","route":"38","routeType":null,"dir":"O","orig":"置富花園","dest":"北角碼頭","stopList":[{"id":"002186","name":"置富","lat":"22.257523","long":"114.139118"},{"id":"002190","name":"雅緻洋房, 置富道","lat":"22.255220","long":"114.139878"},{"id":"002328","name":"薄扶林消防局, 域多利道","lat":"22.253384","long":"114.138273"},{"id":"002339","name":"華富邨華生樓, 華富道","lat":"22.252877","long":"114.135963"},{"id":"002341","name":"華富 (南)","lat":"22.251168","long":"114.136485"},{"id":"002342","name":"華富邨華安樓, 華富道","lat":"22.251818","long":"114.138664"},{"id":"002260","name":"華富道, 石排灣道","lat":"22.252239","long":"114.140805"},{"id":"002259","name":"田灣街, 石排灣道","lat":"22.249420","long":"114.148415"},{"id":"002363","name":"香港仔","lat":"22.247404","long":"114.155496"},{"id":"002159","name":"業漁大廈, 香港仔大道","lat":"22.247579","long":"114.158491"},{"id":"002343","name":"香港仔工業學校, 黃竹坑道","lat":"22.248700","long":"114.162534"},{"id":"002344","name":"甄沾記大廈, 黃竹坑道","lat":"22.248523","long":"114.163625"},{"id":"002383","name":"業興街, 黃竹坑道","lat":"22.249541","long":"114.168112"},{"id":"002345","name":"黃竹坑遊樂場, 黃竹坑道","lat":"22.250546","long":"114.170570"},{"id":"002347","name":"香港仔隧道巴士轉乘站","lat":"22.249961","long":"114.175855"},{"id":"002467","name":"立德里, 摩理臣山道","lat":"22.276064","long":"114.180208"},{"id":"002436","name":"馬師道, 軒尼詩道","lat":"22.279099","long":"114.180221"},{"id":"002438","name":"銅鑼灣 - 崇光百貨, 軒尼詩道","lat":"22.280208","long":"114.184178"},{"id":"001213","name":"維多利亞公園, 高士威道","lat":"22.281133","long":"114.190066"},{"id":"001259","name":"銀幕街, 英皇道","lat":"22.283616","long":"114.192460"},{"id":"001260","name":"七海商業中心, 英皇道","lat":"22.287743","long":"114.192966"},{"id":"001261","name":"電廠街, 英皇道","lat":"22.290057","long":"114.195058"},{"id":"001262","name":"糖水道, 英皇道","lat":"22.290808","long":"114.198106"},{"id":"001310","name":"馬寶道, 書局街","lat":"22.291616","long":"114.200125"},{"id":"001249","name":"北角碼頭","lat":"22.293288","long":"114.201498"}],"routeId":"38","description":"正常班次"},{"company":"nlb","route":"38","routeType":null,"dir":null,"orig":"逸東邨","dest":"東涌站巴士總站 (循環線)","stopList":[{"id":"289","name":"逸東邨","lat":"22.282053","long":"113.935862","street":"逸東街","fare":"3.8","fareHoliday":"3.8"},{"id":"76","name":"北大嶼山醫院(南行)","lat":"22.281861","long":"113.938803","street":"松仁路","fare":"3.8","fareHoliday":"3.8"},{"id":"77","name":"東涌消防局","lat":"22.286030","long":"113.941057","street":"順東路","fare":"3.8","fareHoliday":"3.8"},{"id":"78","name":"東涌纜車站","lat":"22.289301","long":"113.938733","street":"達東路","fare":"3.8","fareHoliday":"3.8"},{"id":"105","name":"東涌港鐵站","lat":"22.289613","long":"113.940210","street":"達東路","fare":"3.8","fareHoliday":"3.8"},{"id":"81","name":"裕東苑","lat":"22.286077","long":"113.941603","street":"順東路","fare":"3.8","fareHoliday":"3.8"},{"id":"185","name":"北大嶼山醫院(北行), 逸東邨美逸樓","lat":"22.281295","long":"113.938822","street":"松仁路","fare":"3.8","fareHoliday":"3.8"},{"id":"88","name":"逸東邨居逸樓","lat":"22.282369","long":"113.936576","street":"逸東街","fare":"3.8","fareHoliday":"3.8"},{"id":"89","name":"逸東邨","lat":"22.282053","long":"113.935862","street":"逸東街","fare":"0.0","fareHoliday":"0.0"}],"routeId":"30","description":"正常班次"},{"company":"gmb","route":"38","routeType":1,"orig":"元朗(福康街)","dest":"攸潭尾西(近何生農場)","stopList":[{"id":20015409,"name":"福康街, 近金寶樓","lat":"22.445104","long":"114.028575"},{"id":20001281,"name":"青山公路－元朗段, 近金豐大廈","lat":"22.444569","long":"114.030805"},{"id":20001282,"name":"元朗站(北)公共運輸交匯處","lat":"22.446451","long":"114.034281"},{"id":20001283,"name":"青山公路－元朗段, 近東成里路","lat":"22.444391","long":"114.043599"},{"id":20015411,"name":"青山公路－潭尾段, 近元朗菜聯聯誼會有限公司天光墟蔬菜批發市場","lat":"22.447261","long":"114.049349"},{"id":20016829,"name":"青山公路－潭尾段, 近Park Yoho","lat":"22.452247","long":"114.049513"},{"id":20016830,"name":"青山公路－潭尾段, 近沙埔污水泵房","lat":"22.458212","long":"114.051740"},{"id":20015412,"name":"青山公路－潭尾段, 近金翠軒","lat":"22.461769","long":"114.052805"},{"id":20016831,"name":"青山公路－潭尾段, 近雅麗花園","lat":"22.464534","long":"114.053461"},{"id":20016832,"name":"青山公路－潭尾段, 近悅富豪苑Merry Garden House 1","lat":"22.466857","long":"114.054003"},{"id":20015414,"name":"青山公路－潭尾段, 近首譽３座","lat":"22.470459","long":"114.054309"},{"id":20016833,"name":"新潭路, 近怡安苑1座","lat":"22.472427","long":"114.056187"},{"id":20016834,"name":"新潭路, 近加多利園1","lat":"22.475052","long":"114.056758"},{"id":20016861,"name":"竹攸路, 近康泰護老院","lat":"22.474703","long":"114.060997"},{"id":20016862,"name":"竹攸路, 近香港政府環境保護署牛潭尾堆肥廠","lat":"22.472686","long":"114.066690"}],"routeId":2008652,"description":"正常班次"},{"company":"gmb","route":"38","routeType":2,"orig":"攸潭尾西(近何生農場)","dest":"元朗(福康街)","stopList":[{"id":20016862,"name":"竹攸路, 近香港政府環境保護署牛潭尾堆肥廠","lat":"22.472686","long":"114.066690"},{"id":20016861,"name":"竹攸路, 近康泰護老院","lat":"22.474703","long":"114.060997"},{"id":20016842,"name":"新潭路, 近加多利園31","lat":"22.475556","long":"114.057043"},{"id":20016843,"name":"新潭路, 近怡安苑1座","lat":"22.472522","long":"114.056277"},{"id":20016844,"name":"新潭路, 近朗廈","lat":"22.469439","long":"114.055495"},{"id":20016845,"name":"新潭路, 近雅麗花園","lat":"22.464154","long":"114.053907"},{"id":20016846,"name":"新潭路, 近金翠軒","lat":"22.462179","long":"114.053431"},{"id":20016847,"name":"新潭路, 近沙埔污水泵房","lat":"22.457338","long":"114.052418"},{"id":20016848,"name":"新潭路, 近Park Yoho Venezia","lat":"22.451926","long":"114.050809"},{"id":20016825,"name":"青山公路－潭尾段, 近山水盈","lat":"22.447005","long":"114.049495"},{"id":20001286,"name":"青山公路－元朗段, 近楊屋村","lat":"22.444173","long":"114.042589"},{"id":20001287,"name":"青山公路－元朗段, 近YOHO Midtown","lat":"22.444311","long":"114.034351"},{"id":20001288,"name":"青山公路－元朗段, 近又新街","lat":"22.444335","long":"114.031223"},{"id":20001289,"name":"青山公路, 大棠路","lat":"22.444369","long":"114.028901"},{"id":20015426,"name":"擊壤路, 近擊壤路五人足球場","lat":"22.445469","long":"114.025085"},{"id":20015427,"name":"元朗安寧路, 近大橋","lat":"22.446154","long":"114.026573"},{"id":20015409,"name":"福康街, 近金寶樓","lat":"22.445104","long":"114.028575"}],"routeId":2008652,"description":"正常班次"},{"company":"gmb","route":"38","routeType":1,"orig":"攸潭尾西(近何生農場)","dest":"元朗(福康街)","stopList":[{"id":20016862,"name":"竹攸路, 近香港政府環境保護署牛潭尾堆肥廠","lat":"22.472686","long":"114.066690"},{"id":20016861,"name":"竹攸路, 近康泰護老院","lat":"22.474703","long":"114.060997"},{"id":20016842,"name":"新潭路, 近加多利園31","lat":"22.475556","long":"114.057043"},{"id":20016843,"name":"新潭路, 近怡安苑1座","lat":"22.472522","long":"114.056277"},{"id":20016844,"name":"新潭路, 近朗廈","lat":"22.469439","long":"114.055495"},{"id":20016845,"name":"新潭路, 近雅麗花園","lat":"22.464154","long":"114.053907"},{"id":20016846,"name":"新潭路, 近金翠軒","lat":"22.462179","long":"114.053431"},{"id":20016847,"name":"新潭路, 近沙埔污水泵房","lat":"22.457338","long":"114.052418"},{"id":20016848,"name":"新潭路, 近Park Yoho Venezia","lat":"22.451926","long":"114.050809"},{"id":20016825,"name":"青山公路－潭尾段, 近山水盈","lat":"22.447005","long":"114.049495"},{"id":20001286,"name":"青山公路－元朗段, 近楊屋村\t","lat":"22.444173","long":"114.042589"},{"id":20001287,"name":"青山公路－元朗段, 近YOHO Midtown","lat":"22.444311","long":"114.034351"},{"id":20015409,"name":"福康街, 近金寶樓","lat":"22.445104","long":"114.028575"}],"routeId":2008686,"description":"黃昏班次 (不經擊壤路)"}]