[{"company":"ctb","route":"382","routeType":null,"dir":"I","orig":"泥涌","dest":"柴灣 (東)","stopList":[{"id":"003456","name":"泥涌","lat":"22.431360","long":"114.255370"},{"id":"003457","name":"樟木頭帝琴灣, 西沙路","lat":"22.430093","long":"114.251157"},{"id":"003582","name":"雲海, 耀沙路","lat":"22.433211","long":"114.241451"},{"id":"003583","name":"迎海 (第四期), 烏溪沙路","lat":"22.430877","long":"114.240759"},{"id":"003345","name":"烏溪沙站","lat":"22.428280","long":"114.243818"},{"id":"001986","name":"大老山隧道巴士轉乘站","lat":"22.377149","long":"114.212566"},{"id":"001463","name":"東區海底隧道巴士轉乘站","lat":"22.300498","long":"114.233513"},{"id":"001265","name":"健康村, 英皇道","lat":"22.292090","long":"114.206523"},{"id":"001266","name":"模範邨, 英皇道","lat":"22.291272","long":"114.208720"},{"id":"001267","name":"北角官立小學, 英皇道","lat":"22.288826","long":"114.209867"},{"id":"001268","name":"新威園, 英皇道","lat":"22.285544","long":"114.211338"},{"id":"001393","name":"船塢里, 英皇道","lat":"22.284774","long":"114.214208"},{"id":"001270","name":"太古城中心, 英皇道","lat":"22.285288","long":"114.217584"},{"id":"001296","name":"太安樓, 筲箕灣道","lat":"22.282504","long":"114.221706"},{"id":"001297","name":"海晏街, 筲箕灣道","lat":"22.280776","long":"114.223639"},{"id":"001298","name":"愛秩序灣道, 筲箕灣道","lat":"22.280350","long":"114.225041"},{"id":"001299","name":"南安里, 筲箕灣道","lat":"22.277850","long":"114.226907"},{"id":"001216","name":"阿公岩道, 柴灣道","lat":"22.274448","long":"114.231216"},{"id":"001217","name":"鯉魚門公園, 柴灣道","lat":"22.273215","long":"114.232422"},{"id":"001218","name":"大潭道, 柴灣道","lat":"22.271470","long":"114.233236"},{"id":"001219","name":"東區醫院, 柴灣道","lat":"22.268522","long":"114.233625"},{"id":"001220","name":"高威閣, 柴灣道","lat":"22.266777","long":"114.233706"},{"id":"001221","name":"康民街, 柴灣道","lat":"22.264455","long":"114.234649"},{"id":"001222","name":"怡泰街, 柴灣道","lat":"22.263309","long":"114.238970"},{"id":"001224","name":"漁灣邨, 柴灣道","lat":"22.265263","long":"114.241807"},{"id":"002591","name":"柴灣 (東)","lat":"22.266863","long":"114.245386"}],"routeId":"382","description":"正常班次"},{"company":"ctb","route":"382","routeType":null,"dir":"O","orig":"柴灣 (東)","dest":"泥涌","stopList":[{"id":"002591","name":"柴灣 (東)","lat":"22.266863","long":"114.245386"},{"id":"001227","name":"樂軒臺, 柴灣道","lat":"22.264884","long":"114.241569"},{"id":"001228","name":"環翠商場, 柴灣道","lat":"22.263138","long":"114.238786"},{"id":"001372","name":"張振興伉儷書院, 東區走廊","lat":"22.267973","long":"114.237575"},{"id":"001301","name":"新成街, 筲箕灣道","lat":"22.278725","long":"114.226225"},{"id":"001302","name":"海晏街, 筲箕灣道","lat":"22.280717","long":"114.223456"},{"id":"001303","name":"西灣河文娛中心, 筲箕灣道","lat":"22.281795","long":"114.222021"},{"id":"001367","name":"太富街, 筲箕灣道","lat":"22.283157","long":"114.220949"},{"id":"001288","name":"康怡廣場, 康山道","lat":"22.284500","long":"114.216717"},{"id":"001271","name":"寶峰園, 英皇道","lat":"22.284595","long":"114.214170"},{"id":"001273","name":"太古坊, 英皇道","lat":"22.286668","long":"114.210397"},{"id":"001274","name":"民新街, 英皇道","lat":"22.289926","long":"114.209303"},{"id":"001276","name":"健康村, 英皇道","lat":"22.291913","long":"114.206341"},{"id":"001628","name":"西區海底隧道巴士轉乘站","lat":"22.305020","long":"114.159204"},{"id":"003850","name":"錦駿苑, 馬鞍山路","lat":"22.411839","long":"114.224100"},{"id":"003584","name":"耀安邨耀遜樓, 馬鞍山路","lat":"22.419372","long":"114.232199"},{"id":"003077","name":"新港城, 馬鞍山路","lat":"22.422633","long":"114.232890"},{"id":"003094","name":"雅典居, 西沙路","lat":"22.425906","long":"114.236413"},{"id":"003344","name":"烏溪沙村, 西沙路","lat":"22.427591","long":"114.240302"},{"id":"003345","name":"烏溪沙站","lat":"22.428280","long":"114.243818"},{"id":"003582","name":"雲海, 耀沙路","lat":"22.433211","long":"114.241451"},{"id":"003583","name":"迎海 (第四期), 烏溪沙路","lat":"22.430877","long":"114.240759"},{"id":"003455","name":"樟木頭帝琴灣, 西沙路","lat":"22.430263","long":"114.251189"},{"id":"003456","name":"泥涌","lat":"22.431360","long":"114.255370"}],"routeId":"382","description":"正常班次"}]