[{"company":"nlb","route":"38X","routeType":null,"dir":null,"orig":"逸東邨 (裕東路)","dest":"東涌站巴士總站 (循環線)","stopList":[{"id":"104","name":"逸東邨雍逸樓","lat":"22.279592","long":"113.936712","street":"裕東路","fare":"3.8","fareHoliday":"0.0"},{"id":"185","name":"北大嶼山醫院(北行), 逸東邨美逸樓","lat":"22.281295","long":"113.938822","street":"松仁路","fare":"3.8","fareHoliday":"0.0"},{"id":"76","name":"北大嶼山醫院(南行)","lat":"22.281861","long":"113.938803","street":"松仁路","fare":"3.8","fareHoliday":"0.0"},{"id":"77","name":"東涌消防局","lat":"22.286030","long":"113.941057","street":"順東路","fare":"3.8","fareHoliday":"0.0"},{"id":"78","name":"東涌纜車站","lat":"22.289301","long":"113.938733","street":"達東路","fare":"3.8","fareHoliday":"0.0"},{"id":"105","name":"東涌港鐵站","lat":"22.289613","long":"113.940210","street":"達東路","fare":"3.8","fareHoliday":"0.0"},{"id":"80","name":"富東廣場","lat":"22.288870","long":"113.942105","street":"達東路","fare":"3.8","fareHoliday":"0.0"},{"id":"81","name":"裕東苑","lat":"22.286077","long":"113.941603","street":"順東路","fare":"3.8","fareHoliday":"0.0"},{"id":"101","name":"松逸街","lat":"22.276164","long":"113.931823","street":"松逸街","fare":"3.8","fareHoliday":"0.0"},{"id":"102","name":"松滿路","lat":"22.277201","long":"113.931700","street":"松滿路","fare":"3.8","fareHoliday":"0.0"},{"id":"103","name":"逸東邨福逸樓","lat":"22.279216","long":"113.934651","street":"裕東路","fare":"3.8","fareHoliday":"0.0"},{"id":"306","name":"逸東邨雍逸樓","lat":"22.279744","long":"113.936995","street":"裕東路","fare":"0.0","fareHoliday":"0.0"}],"routeId":"29","description":"正常班次"}]