[{"company":"kmb","route":"39M","routeType":"1","dir":"O","orig":"荃灣(荃威花園)","dest":"荃灣站(循環線)","stopList":[{"id":"A6DCDE5BE439B179","name":"荃威花園總站 (TW933)","lat":"22.377435","long":"114.104131"},{"id":"FE30EA565CC9ADBE","name":"荃景圍街巿 (TW443)","lat":"22.378755","long":"114.104288"},{"id":"D1CAF0CE0129B0E6","name":"荃灣中心 (TW444)","lat":"22.378619","long":"114.107064"},{"id":"CF2B9E9382183398","name":"荃景花園第二期 (TW447)","lat":"22.377698","long":"114.110250"},{"id":"C5C940CF1281B923","name":"美環街 (TW449)","lat":"22.376370","long":"114.110711"},{"id":"9429666D064419BE","name":"愉景新城 (TW380)","lat":"22.375047","long":"114.112821"},{"id":"EF4016702D714B33","name":"荃灣站 (TW465)","lat":"22.374488","long":"114.115819"},{"id":"D711AFA9658D51E9","name":"荃灣富華街 (TW142)","lat":"22.373486","long":"114.115860"},{"id":"3F545756160D7BEA","name":"福來邨永康樓 (TW151)","lat":"22.374433","long":"114.113771"},{"id":"50C0A622B149C308","name":"美環街 (TW210)","lat":"22.376345","long":"114.110501"},{"id":"A73739F6D37090EE","name":"荃景花園 (TW212)","lat":"22.378110","long":"114.109520"},{"id":"07814531B88CD829","name":"荃灣中心 (TW214)","lat":"22.378635","long":"114.108257"},{"id":"A722DAAC99CE03D4","name":"聖母領報堂 (TW221)","lat":"22.377067","long":"114.105443"},{"id":"5FD70A34C55CE590","name":"荃灣港安醫院 (TW217)","lat":"22.376212","long":"114.104470"},{"id":"A6DCDE5BE439B179","name":"荃威花園總站 (TW933)","lat":"22.377435","long":"114.104131"}],"routeId":"39M","description":"正常班次"},{"company":"nlb","route":"39M","routeType":null,"dir":null,"orig":"東涌站巴士總站","dest":"滿東邨 (循環線)","stopList":[{"id":"278","name":"東涌站巴士總站","lat":"22.289862","long":"113.939616","street":"達東路","fare":"3.9","fareHoliday":"3.9"},{"id":"81","name":"裕東苑","lat":"22.286077","long":"113.941603","street":"順東路","fare":"3.9","fareHoliday":"3.9"},{"id":"309","name":"滿東邨","lat":"22.278653","long":"113.933203","street":"裕東路","fare":"3.9","fareHoliday":"3.9"},{"id":"103","name":"逸東邨福逸樓","lat":"22.279216","long":"113.934651","street":"裕東路","fare":"3.9","fareHoliday":"3.9"},{"id":"306","name":"逸東邨雍逸樓","lat":"22.279744","long":"113.936995","street":"裕東路","fare":"3.9","fareHoliday":"3.9"},{"id":"77","name":"東涌消防局","lat":"22.286030","long":"113.941057","street":"順東路","fare":"3.9","fareHoliday":"3.9"},{"id":"78","name":"東涌纜車站","lat":"22.289301","long":"113.938733","street":"達東路","fare":"3.9","fareHoliday":"3.9"},{"id":"79","name":"東涌站巴士總站","lat":"22.289862","long":"113.939616","street":"達東路","fare":"0.0","fareHoliday":"0.0"}],"routeId":"95","description":"正常班次"},{"company":"gmb","route":"39M","routeType":1,"orig":"鴨脷洲漁安苑","dest":"天后公共運輸交匯處","stopList":[{"id":20000238,"name":"漁安苑道, 彩安閣對面","lat":"22.243216","long":"114.156542"},{"id":20004568,"name":"利東邨道, 漁安苑","lat":"22.243054","long":"114.157812"},{"id":20000239,"name":"黃竹坑道, 甄沾記大廈","lat":"22.248530","long":"114.163742"},{"id":20000240,"name":"黃竹坑道, 近塘邊徑","lat":"22.249367","long":"114.167707"},{"id":20002495,"name":"黃竹坑道, 香港仔隧道收費廣場","lat":"22.249973","long":"114.175652"},{"id":20002496,"name":"摩理臣山道, 近禮頓道","lat":"22.276279","long":"114.180474"},{"id":20002497,"name":"禮頓道, 禮頓中心","lat":"22.277480","long":"114.182939"},{"id":20000311,"name":"邊寧頓街, 利園二期","lat":"22.278536","long":"114.185995"},{"id":20000242,"name":"高士威道, 維多利亞公園","lat":"22.280929","long":"114.189683"},{"id":20000243,"name":"天后站公共運輸交匯處","lat":"22.282672","long":"114.191459"}],"routeId":2001261,"description":"正常班次"},{"company":"gmb","route":"39M","routeType":2,"orig":"天后公共運輸交匯處","dest":"鴨脷洲漁安苑","stopList":[{"id":20000243,"name":"天后站公共運輸交匯處 ","lat":"22.282672","long":"114.191459"},{"id":20008100,"name":"興發街, 維多利亞公園網球場","lat":"22.283238","long":"114.191118"},{"id":20004572,"name":"告士打道, 中糧大廈","lat":"22.281733","long":"114.182910"},{"id":20006906,"name":"黃竹坑道, 香港仔隧道收費廣場","lat":"22.249765","long":"114.175545"},{"id":20000057,"name":"黃竹坑道, 黃竹坑遊樂場","lat":"22.250280","long":"114.170481"},{"id":20002735,"name":"黃竹坑道, 近南朗山道","lat":"22.248379","long":"114.166247"},{"id":20000058,"name":"黃竹坑道, 勝利工廠大廈","lat":"22.248365","long":"114.163341"},{"id":20004573,"name":"利東邨道, 香港真光書院","lat":"22.242937","long":"114.157929"},{"id":20000238,"name":"漁安苑道, 彩安閣對面","lat":"22.243216","long":"114.156542"}],"routeId":2001261,"description":"正常班次"},{"company":"gmb","route":"39M","routeType":1,"orig":"樂富","dest":"東頭(循環線)","stopList":[{"id":20000831,"name":" 港鐵樂富站小巴總站","lat":"22.337641","long":"114.188164"},{"id":20012381,"name":"東頭村道, 近侯王古廟","lat":"22.332514","long":"114.187508"},{"id":20012382,"name":"東頭村道, 美東邨美東樓外","lat":"22.333212","long":"114.190444"},{"id":20012383,"name":"東隆道, 柏東樓外","lat":"22.334639","long":"114.191409"},{"id":20012384,"name":"彩虹道, 近新蒲崗休憩處","lat":"22.334500","long":"114.194205"},{"id":20012385,"name":"大成街, 聖公會基德小學外","lat":"22.337299","long":"114.194297"},{"id":20012386,"name":"富美街, 宏安樓外","lat":"22.340589","long":"114.187512"},{"id":20012387,"name":" 富美街, 近橫頭磡邨宏偉樓","lat":"22.340612","long":"114.185781"},{"id":20012388,"name":" 橫頭磡中道, 近橫頭磡邨宏顯樓","lat":"22.339710","long":"114.187144"},{"id":20000831,"name":"港鐵樂富站小巴總站","lat":"22.337641","long":"114.188164"}],"routeId":2004660,"description":"正常班次"},{"company":"gmb","route":"39M","routeType":1,"orig":"樂富","dest":"東頭(循環線)","stopList":[{"id":20000831,"name":"港鐵樂富站小巴總站\t","lat":"22.337641","long":"114.188164"},{"id":20012381,"name":"東頭村道, 近侯王古廟\t","lat":"22.332514","long":"114.187508"},{"id":20012382,"name":"東頭村道, 美東邨美東樓外","lat":"22.333212","long":"114.190444"},{"id":20012390,"name":"培民街, 福德學校外","lat":"22.334432","long":"114.189452"},{"id":20012383,"name":"東隆道, 柏東樓外","lat":"22.334639","long":"114.191409"},{"id":20012384,"name":"彩虹道, 近新蒲崗休憩處\t","lat":"22.334500","long":"114.194205"},{"id":20012385,"name":"大成街, 聖公會基德小學外","lat":"22.337299","long":"114.194297"},{"id":20012386,"name":"富美街, 宏安樓外","lat":"22.340589","long":"114.187512"},{"id":20012387,"name":"富美街, 近橫頭磡邨宏偉樓\t","lat":"22.340612","long":"114.185781"},{"id":20012388,"name":"橫頭磡中道, 近橫頭磡邨宏顯樓","lat":"22.339710","long":"114.187144"},{"id":20000831,"name":"港鐵樂富站小巴總站","lat":"22.337641","long":"114.188164"}],"routeId":2004661,"description":"正常班次 (經培民街)"}]