[{"company":"kmb","route":"3B","routeType":"1","dir":"O","orig":"慈雲山(中)","dest":"紅磡(紅鸞道)","stopList":[{"id":"CA866CBB3EC92B9F","name":"慈雲山(中)巴士總站 (WT945)","lat":"22.348635","long":"114.200408"},{"id":"31317843D8BA833F","name":"正暉樓 (WT381)","lat":"22.350255","long":"114.201077"},{"id":"FDFC87BC94515900","name":"正康樓 (WT384)","lat":"22.348703","long":"114.202724"},{"id":"E778E67CBC095B0C","name":"德愛中學 (WT386)","lat":"22.348039","long":"114.204250"},{"id":"43EE0C39CD39BA06","name":"保良局第一張永慶中學 (WT355)","lat":"22.346282","long":"114.205390"},{"id":"EF01999C9F909553","name":"鑽石山火葬場 (WT356)","lat":"22.345108","long":"114.206879"},{"id":"B337148DB333E5C4","name":"富山邨 (WT357)","lat":"22.342384","long":"114.208108"},{"id":"711A39D02DB2B4D8","name":"斧山道運動場 (WT365)","lat":"22.339659","long":"114.207353"},{"id":"AFB03B10416E2199","name":"志蓮淨苑 (WT131)","lat":"22.339894","long":"114.204371"},{"id":"4B9D547F0F450784","name":"龍蟠苑 (WT133)","lat":"22.342920","long":"114.200382"},{"id":"23362ED34834C5F0","name":"黃大仙警署 (WT547)","lat":"22.338933","long":"114.197161"},{"id":"38BDB19C8D7B8DF8","name":"彩虹道遊樂場 (WT550)","lat":"22.337502","long":"114.195595"},{"id":"319CA16456A9010D","name":"新蒲崗寧遠街 (WT557)","lat":"22.333911","long":"114.195054"},{"id":"2A01E3163DF9A954","name":"九龍城轉車站 - 宋皇臺公園 (C1)","lat":"22.326393","long":"114.189921"},{"id":"F6E296480D3481A2","name":"宋皇臺道 (KC717)","lat":"22.323933","long":"114.188588"},{"id":"25455FDE268CF605","name":"北帝街 (KC751)","lat":"22.323055","long":"114.189914"},{"id":"C1AFF00AC64F457A","name":"香港盲人輔導會 (KC753)","lat":"22.321487","long":"114.193520"},{"id":"5396072459507B7F","name":"翔龍灣 (KC760)","lat":"22.319619","long":"114.192985"},{"id":"C048D4CF6ED36C7A","name":"貴州街 (KC762)","lat":"22.318206","long":"114.191623"},{"id":"68A8F08ABC5C90F0","name":"落山道 (KC766)","lat":"22.316874","long":"114.190332"},{"id":"AFEFDF25A955C72C","name":"鴻福街 (KC769)","lat":"22.314625","long":"114.188176"},{"id":"97B7EC0354E020B7","name":"紅磡庇利街 (HH781)","lat":"22.311523","long":"114.187652"},{"id":"ED03E689B88CE0E8","name":"紅磡鶴園街 (HH785)","lat":"22.309978","long":"114.187750"},{"id":"3D47C2B2D3342C85","name":"寶其利街 (HH620)","lat":"22.306788","long":"114.185672"},{"id":"EB1702F877E4D077","name":"機利士南路 (HH335)","lat":"22.306414","long":"114.184083"},{"id":"C39037A588387F32","name":"紅磡南道 (HH635)","lat":"22.305437","long":"114.185238"},{"id":"95BC0F9FBDCCC62B","name":"紅磡(紅鸞道) 嘉里酒店 (HH909)","lat":"22.301743","long":"114.188848"}],"routeId":"3B","description":"正常班次"},{"company":"kmb","route":"3B","routeType":"1","dir":"I","orig":"紅磡(紅鸞道)","dest":"慈雲山(中)","stopList":[{"id":"95BC0F9FBDCCC62B","name":"紅磡(紅鸞道) 嘉里酒店 (HH909)","lat":"22.301743","long":"114.188848"},{"id":"EF5A5CD9C3A038C9","name":"紅磡南道 (HH320)","lat":"22.305067","long":"114.185185"},{"id":"AC48794DF1F3332C","name":"機利士南路 (HH332)","lat":"22.307406","long":"114.184489"},{"id":"DC74D0FA83E25E8D","name":"紅磡家維邨 (HH242)","lat":"22.307932","long":"114.187326"},{"id":"BEB1BBD9E816FA59","name":"北拱街 (HH246)","lat":"22.311515","long":"114.187545"},{"id":"E80A3E968CCEEFF7","name":"石塘街 (HH249)","lat":"22.313788","long":"114.187494"},{"id":"4960882151DB05E0","name":"浙江街 (KC260)","lat":"22.316089","long":"114.189221"},{"id":"590E23621FD23B6C","name":"上鄉道 (KC264)","lat":"22.317557","long":"114.190641"},{"id":"F4B357B11344180D","name":"中華煤氣公司 (KC271)","lat":"22.320656","long":"114.192572"},{"id":"5C6534DD562AEF61","name":"欣榮花園 (KC273)","lat":"22.322112","long":"114.189244"},{"id":"B9BC3DE30A48F08B","name":"馬頭角道 (KC198)","lat":"22.323651","long":"114.188219"},{"id":"3FB80081AB2FF6FB","name":"亞皆老街球場 (KC204)","lat":"22.326257","long":"114.189390"},{"id":"7F25B423230F5BEE","name":"九龍城轉車站- 富豪東方酒店(A2)","lat":"22.328940","long":"114.192314"},{"id":"CFCA63CAF4C25D2B","name":"天主教伍華中學 (WT320)","lat":"22.333001","long":"114.195586"},{"id":"D446D1EA79502BF2","name":"泰東樓 (WT323)","lat":"22.336357","long":"114.194529"},{"id":"DE9BE04046C197C4","name":"黃大仙警署 (WT328)","lat":"22.339206","long":"114.197196"},{"id":"A0FDF34B2D278750","name":"鳳德商場 (WT408)","lat":"22.343311","long":"114.199551"},{"id":"951CE3B3EB98BA3A","name":"志蓮淨苑 (WT409)","lat":"22.340105","long":"114.204311"},{"id":"DB6981B82045B45C","name":"真鐸學校 (WT500)","lat":"22.339786","long":"114.207218"},{"id":"ACE23D880D07ABB1","name":"宏景花園 (WT505)","lat":"22.342399","long":"114.207911"},{"id":"1DA57A1376E99AC6","name":"蒲崗村道學校村 (WT506)","lat":"22.345557","long":"114.206232"},{"id":"964AA1DCAAD06512","name":"德愛中學 (WT515)","lat":"22.347594","long":"114.204096"},{"id":"D237B30F94B6065D","name":"慈民邨 (WT517)","lat":"22.348542","long":"114.202610"},{"id":"7D025E77F4B35266","name":"慈安苑 (WT525)","lat":"22.348661","long":"114.201216"},{"id":"EE3B5ABCB87027E7","name":"正暉樓 (WT382)","lat":"22.350378","long":"114.200715"},{"id":"CA866CBB3EC92B9F","name":"慈雲山(中)巴士總站 (WT945)","lat":"22.348635","long":"114.200408"}],"routeId":"3B","description":"正常班次"},{"company":"kmb","route":"3B","routeType":"2","dir":"I","orig":"紅磡(紅鸞道)","dest":"慈雲山(中)","stopList":[{"id":"95BC0F9FBDCCC62B","name":"紅磡(紅鸞道) 嘉里酒店 (HH909)","lat":"22.301743","long":"114.188848"},{"id":"EF5A5CD9C3A038C9","name":"紅磡南道 (HH320)","lat":"22.305067","long":"114.185185"},{"id":"AC48794DF1F3332C","name":"機利士南路 (HH332)","lat":"22.307406","long":"114.184489"},{"id":"DC74D0FA83E25E8D","name":"紅磡家維邨 (HH242)","lat":"22.307932","long":"114.187326"},{"id":"BEB1BBD9E816FA59","name":"北拱街 (HH246)","lat":"22.311515","long":"114.187545"},{"id":"E80A3E968CCEEFF7","name":"石塘街 (HH249)","lat":"22.313788","long":"114.187494"},{"id":"4960882151DB05E0","name":"浙江街 (KC260)","lat":"22.316089","long":"114.189221"},{"id":"590E23621FD23B6C","name":"上鄉道 (KC264)","lat":"22.317557","long":"114.190641"},{"id":"F4B357B11344180D","name":"中華煤氣公司 (KC271)","lat":"22.320656","long":"114.192572"},{"id":"5C6534DD562AEF61","name":"欣榮花園 (KC273)","lat":"22.322112","long":"114.189244"},{"id":"B9BC3DE30A48F08B","name":"馬頭角道 (KC198)","lat":"22.323651","long":"114.188219"},{"id":"3FB80081AB2FF6FB","name":"亞皆老街球場 (KC204)","lat":"22.326257","long":"114.189390"},{"id":"7F25B423230F5BEE","name":"九龍城轉車站- 富豪東方酒店(A2)","lat":"22.328940","long":"114.192314"},{"id":"CFCA63CAF4C25D2B","name":"天主教伍華中學 (WT320)","lat":"22.333001","long":"114.195586"},{"id":"D446D1EA79502BF2","name":"泰東樓 (WT323)","lat":"22.336357","long":"114.194529"},{"id":"DE9BE04046C197C4","name":"黃大仙警署 (WT328)","lat":"22.339206","long":"114.197196"},{"id":"A0FDF34B2D278750","name":"鳳德商場 (WT408)","lat":"22.343311","long":"114.199551"},{"id":"951CE3B3EB98BA3A","name":"志蓮淨苑 (WT409)","lat":"22.340105","long":"114.204311"},{"id":"DB6981B82045B45C","name":"真鐸學校 (WT500)","lat":"22.339786","long":"114.207218"},{"id":"ACE23D880D07ABB1","name":"宏景花園 (WT505)","lat":"22.342399","long":"114.207911"},{"id":"1DA57A1376E99AC6","name":"蒲崗村道學校村 (WT506)","lat":"22.345557","long":"114.206232"},{"id":"964AA1DCAAD06512","name":"德愛中學 (WT515)","lat":"22.347594","long":"114.204096"},{"id":"D237B30F94B6065D","name":"慈民邨 (WT517)","lat":"22.348542","long":"114.202610"},{"id":"7D025E77F4B35266","name":"慈安苑 (WT525)","lat":"22.348661","long":"114.201216"},{"id":"CA866CBB3EC92B9F","name":"慈雲山(中)巴士總站 (WT945)","lat":"22.348635","long":"114.200408"}],"routeId":"3B","description":"特別班次"}]