[{"company":"kmb","route":"3M","routeType":"1","dir":"O","orig":"慈雲山(北)","dest":"彩雲","stopList":[{"id":"94780B40412261CE","name":"慈雲山(北)總站 (WT950)","lat":"22.351133","long":"114.198268"},{"id":"31317843D8BA833F","name":"正暉樓 (WT381)","lat":"22.350255","long":"114.201077"},{"id":"C185612B431B197A","name":"正康樓 (WT385)","lat":"22.348672","long":"114.202907"},{"id":"A4C9136D18013389","name":"德愛中學 (WT387)","lat":"22.347293","long":"114.204339"},{"id":"63E6DD5119A301AD","name":"保良局第一張永慶中學 (WT354)","lat":"22.346370","long":"114.205219"},{"id":"EF01999C9F909553","name":"鑽石山火葬場 (WT356)","lat":"22.345108","long":"114.206879"},{"id":"CF89BD775D2ABDC9","name":"富山邨 (WT359)","lat":"22.341572","long":"114.208418"},{"id":"711A39D02DB2B4D8","name":"斧山道運動場 (WT365)","lat":"22.339659","long":"114.207353"},{"id":"64CE8117895E8FAD","name":"牛池灣轉車站-牛池灣村 (WT213)","lat":"22.336431","long":"114.207548"},{"id":"5CD4C77378D3A4AE","name":"牛池灣轉車站-牛池灣街市","lat":"22.334351","long":"114.209490"},{"id":"942E95B4336BDFA7","name":"白虹樓 (WT230)","lat":"22.332599","long":"114.215269"},{"id":"33BA3785390F1457","name":"觀日樓 (WT241)","lat":"22.333521","long":"114.216390"},{"id":"6D1FFB57C26F1108","name":"彩雲總站 (WT985)","lat":"22.333413","long":"114.214870"}],"routeId":"3M","description":"正常班次"},{"company":"kmb","route":"3M","routeType":"1","dir":"I","orig":"彩雲","dest":"慈雲山(北)","stopList":[{"id":"6D1FFB57C26F1108","name":"彩雲總站 (WT985)","lat":"22.333413","long":"114.214870"},{"id":"93E0033436973DA7","name":"牛池灣轉車站 - 彩虹站 (WT892)","lat":"22.334161","long":"114.210132"},{"id":"917DF4AF0ED7B258","name":"牛池灣轉車站-丹鳳樓 (WT701)","lat":"22.335294","long":"114.207582"},{"id":"7FB952821E3FCAD2","name":"彩虹轉車站 - 彩虹總站 (WT995)","lat":"22.335721","long":"114.204285"},{"id":"DB6981B82045B45C","name":"真鐸學校 (WT500)","lat":"22.339786","long":"114.207218"},{"id":"ACE23D880D07ABB1","name":"宏景花園 (WT505)","lat":"22.342399","long":"114.207911"},{"id":"A8054881B534B00A","name":"蒲崗村道學校村 (WT507)","lat":"22.345888","long":"114.205889"},{"id":"E51BB6A7525BA679","name":"慈雲山(南)總站 (WT936)","lat":"22.346858","long":"114.203314"},{"id":"76F0BFCC3D78F888","name":"慈民邨 (WT516)","lat":"22.348543","long":"114.203268"},{"id":"BA55DB38DEF14AD4","name":"慈雲山邨中央遊樂場 (WT518)","lat":"22.349523","long":"114.201694"},{"id":"6B582CAEDE8FBDEF","name":"愛富閣 (WT519)","lat":"22.350631","long":"114.199302"},{"id":"94780B40412261CE","name":"慈雲山(北)總站 (WT950)","lat":"22.351133","long":"114.198268"}],"routeId":"3M","description":"正常班次"},{"company":"kmb","route":"3M","routeType":"2","dir":"I","orig":"彩雲","dest":"慈雲山(南)","stopList":[{"id":"6D1FFB57C26F1108","name":"彩雲總站 (WT985)","lat":"22.333413","long":"114.214870"},{"id":"93E0033436973DA7","name":"牛池灣轉車站 - 彩虹站 (WT892)","lat":"22.334161","long":"114.210132"},{"id":"917DF4AF0ED7B258","name":"牛池灣轉車站-丹鳳樓 (WT701)","lat":"22.335294","long":"114.207582"},{"id":"7FB952821E3FCAD2","name":"彩虹轉車站 - 彩虹總站 (WT995)","lat":"22.335721","long":"114.204285"},{"id":"DB6981B82045B45C","name":"真鐸學校 (WT500)","lat":"22.339786","long":"114.207218"},{"id":"ACE23D880D07ABB1","name":"宏景花園 (WT505)","lat":"22.342399","long":"114.207911"},{"id":"A8054881B534B00A","name":"蒲崗村道學校村 (WT507)","lat":"22.345888","long":"114.205889"},{"id":"E51BB6A7525BA679","name":"慈雲山(南)總站 (WT936)","lat":"22.346858","long":"114.203314"}],"routeId":"3M","description":"特別班次"},{"company":"nlb","route":"3M","routeType":null,"dir":null,"orig":"東涌站巴士總站","dest":"梅窩碼頭","stopList":[{"id":"278","name":"東涌站巴士總站","lat":"22.289862","long":"113.939616","street":"達東路","fare":"12.5","fareHoliday":"19.6"},{"id":"80","name":"富東廣場","lat":"22.288870","long":"113.942105","street":"達東路","fare":"12.5","fareHoliday":"19.6"},{"id":"81","name":"裕東苑","lat":"22.286077","long":"113.941603","street":"順東路","fare":"12.5","fareHoliday":"19.6"},{"id":"185","name":"北大嶼山醫院(北行), 逸東邨美逸樓","lat":"22.281295","long":"113.938822","street":"松仁路","fare":"12.5","fareHoliday":"19.6"},{"id":"76","name":"北大嶼山醫院(南行)","lat":"22.281861","long":"113.938803","street":"松仁路","fare":"12.5","fareHoliday":"19.6"},{"id":"338","name":"裕泰苑(松仁路)","lat":"22.280194","long":"113.940306","street":"松仁路","fare":"12.5","fareHoliday":"19.6"},{"id":"94","name":"東涌鄉事委員會","lat":"22.278936","long":"113.938795","street":"東涌道","fare":"12.5","fareHoliday":"19.6"},{"id":"279","name":"上嶺皮","lat":"22.278792","long":"113.937148","street":"東涌道","fare":"12.5","fareHoliday":"19.6"},{"id":"280","name":"下嶺皮","lat":"22.278512","long":"113.935423","street":"東涌道","fare":"12.5","fareHoliday":"19.6"},{"id":"282","name":"黃家圍","lat":"22.277038","long":"113.933975","street":"東涌道","fare":"12.5","fareHoliday":"19.6"},{"id":"283","name":"龍井頭","lat":"22.275707","long":"113.933707","street":"東涌道","fare":"12.5","fareHoliday":"19.6"},{"id":"284","name":"石門甲道","lat":"22.270470","long":"113.934465","street":"東涌道","fare":"12.5","fareHoliday":"19.6"},{"id":"286","name":"十八區墳場","lat":"22.265678","long":"113.936740","street":"東涌道","fare":"12.5","fareHoliday":"19.6"},{"id":"287","name":"東涌坳管理站","lat":"22.264104","long":"113.937552","street":"東涌道","fare":"12.5","fareHoliday":"19.6"},{"id":"288","name":"伯公坳","lat":"22.248939","long":"113.942597","street":"東涌道","fare":"12.5","fareHoliday":"19.6"},{"id":"273","name":"長沙引水道","lat":"22.240007","long":"113.957339","street":"東涌道","fare":"6.6","fareHoliday":"13.0"},{"id":"256","name":"女青年會梁紹榮度假村","lat":"22.237768","long":"113.963973","street":"嶼南道","fare":"5.0","fareHoliday":"7.4"},{"id":"257","name":"散石灣村","lat":"22.239024","long":"113.966526","street":"嶼南道","fare":"5.0","fareHoliday":"7.4"},{"id":"258","name":"散石灣中蘆","lat":"22.241255","long":"113.968666","street":"嶼南道","fare":"5.0","fareHoliday":"7.4"},{"id":"259","name":"羅屋村","lat":"22.243375","long":"113.974832","street":"嶼南道","fare":"3.7","fareHoliday":"6.1"},{"id":"260","name":"新圍村","lat":"22.243476","long":"113.977322","street":"嶼南道","fare":"3.7","fareHoliday":"6.1"},{"id":"261","name":"老圍村","lat":"22.244440","long":"113.979000","street":"嶼南道","fare":"3.7","fareHoliday":"6.1"},{"id":"262","name":"貝澳油站","lat":"22.247501","long":"113.980770","street":"嶼南道","fare":"3.7","fareHoliday":"6.1"},{"id":"263","name":"太古職員宿舍","lat":"22.252120","long":"113.984745","street":"嶼南道","fare":"3.7","fareHoliday":"6.1"},{"id":"264","name":"南山營地","lat":"22.256067","long":"113.987470","street":"嶼南道","fare":"3.7","fareHoliday":"6.1"},{"id":"265","name":"南山三屋村","lat":"22.257327","long":"113.989901","street":"嶼南道","fare":"3.7","fareHoliday":"6.1"},{"id":"56","name":"禮智園墳場","lat":"22.259327","long":"113.993993","street":"嶼南道","fare":"3.7","fareHoliday":"6.1"},{"id":"266","name":"荔枝園","lat":"22.260667","long":"113.996268","street":"嶼南道","fare":"3.7","fareHoliday":"6.1"},{"id":"57","name":"梅窩警署","lat":"22.264093","long":"113.998906","street":"嶼南道","fare":"3.7","fareHoliday":"6.1"},{"id":"2","name":"梅窩熟食市場","lat":"22.266143","long":"114.000049","street":"銀礦灣道","fare":"3.7","fareHoliday":"6.1"},{"id":"3","name":"銀灣邨","lat":"22.265406","long":"113.997074","street":"銀礦灣道","fare":"3.7","fareHoliday":"6.1"},{"id":"4","name":"梅窩街市","lat":"22.266759","long":"113.996999","street":"銀石街","fare":"3.7","fareHoliday":"6.1"},{"id":"5","name":"銀景中心","lat":"22.265537","long":"113.996965","street":"銀礦灣道","fare":"3.7","fareHoliday":"6.1"},{"id":"305","name":"梅窩碼頭","lat":"22.264664","long":"114.001554","street":"梅窩碼頭","fare":"0.0","fareHoliday":"0.0"}],"routeId":"6","description":"正常班次"},{"company":"nlb","route":"3M","routeType":null,"dir":null,"orig":"梅窩碼頭","dest":"東涌站巴士總站","stopList":[{"id":"1","name":"梅窩碼頭","lat":"22.264664","long":"114.001554","street":"梅窩碼頭","fare":"12.5","fareHoliday":"19.6"},{"id":"2","name":"梅窩熟食市場","lat":"22.266143","long":"114.000049","street":"銀礦灣道","fare":"12.5","fareHoliday":"19.6"},{"id":"3","name":"銀灣邨","lat":"22.265406","long":"113.997074","street":"銀礦灣道","fare":"12.5","fareHoliday":"19.6"},{"id":"4","name":"梅窩街市","lat":"22.266759","long":"113.996999","street":"銀石街","fare":"12.5","fareHoliday":"19.6"},{"id":"5","name":"銀景中心","lat":"22.265537","long":"113.996965","street":"銀礦灣道","fare":"12.5","fareHoliday":"19.6"},{"id":"6","name":"銀鑛灣濾水廠","lat":"22.262966","long":"113.997826","street":"嶼南道","fare":"12.5","fareHoliday":"19.6"},{"id":"7","name":"荔枝園","lat":"22.260758","long":"113.996477","street":"嶼南道","fare":"12.5","fareHoliday":"19.6"},{"id":"8","name":"南山三屋村","lat":"22.257072","long":"113.990108","street":"嶼南道","fare":"12.5","fareHoliday":"19.6"},{"id":"9","name":"南山營地","lat":"22.255451","long":"113.986811","street":"嶼南道","fare":"12.5","fareHoliday":"19.6"},{"id":"10","name":"太古職員宿舍","lat":"22.251918","long":"113.984887","street":"嶼南道","fare":"12.5","fareHoliday":"19.6"},{"id":"11","name":"貝澳油站","lat":"22.247311","long":"113.980985","street":"嶼南道","fare":"10.2","fareHoliday":"16.9"},{"id":"12","name":"老圍村","lat":"22.244252","long":"113.979236","street":"嶼南道","fare":"10.2","fareHoliday":"16.9"},{"id":"13","name":"新圍村","lat":"22.243476","long":"113.978178","street":"嶼南道","fare":"10.2","fareHoliday":"16.9"},{"id":"14","name":"羅屋村","lat":"22.243192","long":"113.974885","street":"嶼南道","fare":"10.2","fareHoliday":"16.9"},{"id":"15","name":"牛坳園","lat":"22.243041","long":"113.972545","street":"嶼南道","fare":"10.2","fareHoliday":"16.9"},{"id":"16","name":"散石灣中蘆","lat":"22.241244","long":"113.969105","street":"嶼南道","fare":"7.1","fareHoliday":"14.2"},{"id":"17","name":"散石灣村","lat":"22.238928","long":"113.966772","street":"嶼南道","fare":"7.1","fareHoliday":"14.2"},{"id":"18","name":"女青年會梁紹榮度假村","lat":"22.237484","long":"113.964001","street":"嶼南道","fare":"7.1","fareHoliday":"14.2"},{"id":"179","name":"東涌道","lat":"22.237918","long":"113.962920","street":"嶼南道","fare":"7.1","fareHoliday":"14.2"},{"id":"64","name":"長沙引水道","lat":"22.239814","long":"113.957216","street":"東涌道","fare":"7.1","fareHoliday":"14.2"},{"id":"65","name":"伯公坳","lat":"22.248054","long":"113.943139","street":"東涌道","fare":"7.1","fareHoliday":"14.2"},{"id":"66","name":"東涌坳管理站","lat":"22.264006","long":"113.937155","street":"東涌道","fare":"7.1","fareHoliday":"14.2"},{"id":"67","name":"十八區墳場","lat":"22.265466","long":"113.936463","street":"東涌道","fare":"7.1","fareHoliday":"14.2"},{"id":"68","name":"石門甲道","lat":"22.269918","long":"113.934243","street":"東涌道","fare":"2.8","fareHoliday":"5.6"},{"id":"69","name":"龍井頭","lat":"22.275975","long":"113.933377","street":"東涌道","fare":"2.8","fareHoliday":"5.6"},{"id":"70","name":"黃家圍","lat":"22.277162","long":"113.933812","street":"東涌道","fare":"2.8","fareHoliday":"5.6"},{"id":"71","name":"下嶺皮","lat":"22.278731","long":"113.935475","street":"東涌道","fare":"2.8","fareHoliday":"5.6"},{"id":"72","name":"上嶺皮","lat":"22.278912","long":"113.936856","street":"東涌道","fare":"2.8","fareHoliday":"5.6"},{"id":"73","name":"東涌鄉事委員會","lat":"22.279138","long":"113.939299","street":"東涌道","fare":"2.8","fareHoliday":"5.6"},{"id":"74","name":"馬灣新村","lat":"22.279865","long":"113.940243","street":"松仁路","fare":"2.8","fareHoliday":"5.6"},{"id":"185","name":"北大嶼山醫院(北行), 逸東邨美逸樓","lat":"22.281295","long":"113.938822","street":"松仁路","fare":"2.8","fareHoliday":"5.6"},{"id":"76","name":"北大嶼山醫院(南行)","lat":"22.281861","long":"113.938803","street":"松仁路","fare":"2.8","fareHoliday":"5.6"},{"id":"77","name":"東涌消防局","lat":"22.286030","long":"113.941057","street":"順東路","fare":"2.8","fareHoliday":"5.6"},{"id":"78","name":"東涌纜車站","lat":"22.289301","long":"113.938733","street":"達東路","fare":"2.8","fareHoliday":"5.6"},{"id":"79","name":"東涌站巴士總站","lat":"22.289862","long":"113.939616","street":"達東路","fare":"0.0","fareHoliday":"0.0"}],"routeId":"7","description":"正常班次"},{"company":"nlb","route":"3M","routeType":null,"dir":null,"orig":"梅窩 (貝澳開)","dest":"東涌站巴士總站","stopList":[{"id":"12","name":"老圍村","lat":"22.244252","long":"113.979236","street":"嶼南道","fare":"10.2","fareHoliday":"0.0"},{"id":"13","name":"新圍村","lat":"22.243476","long":"113.978178","street":"嶼南道","fare":"10.2","fareHoliday":"0.0"},{"id":"14","name":"羅屋村","lat":"22.243192","long":"113.974885","street":"嶼南道","fare":"10.2","fareHoliday":"0.0"},{"id":"15","name":"牛坳園","lat":"22.243041","long":"113.972545","street":"嶼南道","fare":"10.2","fareHoliday":"0.0"},{"id":"16","name":"散石灣中蘆","lat":"22.241244","long":"113.969105","street":"嶼南道","fare":"7.1","fareHoliday":"0.0"},{"id":"17","name":"散石灣村","lat":"22.238928","long":"113.966772","street":"嶼南道","fare":"7.1","fareHoliday":"0.0"},{"id":"18","name":"女青年會梁紹榮度假村","lat":"22.237484","long":"113.964001","street":"嶼南道","fare":"7.1","fareHoliday":"0.0"},{"id":"179","name":"東涌道","lat":"22.237918","long":"113.962920","street":"嶼南道","fare":"7.1","fareHoliday":"0.0"},{"id":"64","name":"長沙引水道","lat":"22.239814","long":"113.957216","street":"東涌道","fare":"7.1","fareHoliday":"0.0"},{"id":"65","name":"伯公坳","lat":"22.248054","long":"113.943139","street":"東涌道","fare":"7.1","fareHoliday":"0.0"},{"id":"66","name":"東涌坳管理站","lat":"22.264006","long":"113.937155","street":"東涌道","fare":"7.1","fareHoliday":"0.0"},{"id":"67","name":"十八區墳場","lat":"22.265466","long":"113.936463","street":"東涌道","fare":"7.1","fareHoliday":"0.0"},{"id":"68","name":"石門甲道","lat":"22.269918","long":"113.934243","street":"東涌道","fare":"2.8","fareHoliday":"0.0"},{"id":"69","name":"龍井頭","lat":"22.275975","long":"113.933377","street":"東涌道","fare":"2.8","fareHoliday":"0.0"},{"id":"70","name":"黃家圍","lat":"22.277162","long":"113.933812","street":"東涌道","fare":"2.8","fareHoliday":"0.0"},{"id":"71","name":"下嶺皮","lat":"22.278731","long":"113.935475","street":"東涌道","fare":"2.8","fareHoliday":"0.0"},{"id":"72","name":"上嶺皮","lat":"22.278912","long":"113.936856","street":"東涌道","fare":"2.8","fareHoliday":"0.0"},{"id":"73","name":"東涌鄉事委員會","lat":"22.279138","long":"113.939299","street":"東涌道","fare":"2.8","fareHoliday":"0.0"},{"id":"74","name":"馬灣新村","lat":"22.279865","long":"113.940243","street":"松仁路","fare":"2.8","fareHoliday":"0.0"},{"id":"77","name":"東涌消防局","lat":"22.286030","long":"113.941057","street":"順東路","fare":"2.8","fareHoliday":"0.0"},{"id":"78","name":"東涌纜車站","lat":"22.289301","long":"113.938733","street":"達東路","fare":"2.8","fareHoliday":"0.0"},{"id":"79","name":"東涌站巴士總站","lat":"22.289862","long":"113.939616","street":"達東路","fare":"0.0","fareHoliday":"0.0"}],"routeId":"8","description":"正常班次"}]