[{"company":"kmb","route":"3S","routeType":"1","dir":"O","orig":"鑽石山站","dest":"鑽石山墳場(循環線)","stopList":[{"id":"046E0C931956561B","name":"鑽石山站(龍蟠街)","lat":"22.341459","long":"114.201054"},{"id":"88E23CD2F1AB7AF9","name":"富祐大廈","lat":"22.344130","long":"114.198779"},{"id":"63E6DD5119A301AD","name":"保良局第一張永慶中學","lat":"22.346370","long":"114.205219"},{"id":"0E418F17EB45AC02","name":"富山邨總站","lat":"22.343649","long":"114.207982"},{"id":"AFB03B10416E2199","name":"志蓮淨苑","lat":"22.339894","long":"114.204371"},{"id":"046E0C931956561B","name":"鑽石山站(龍蟠街)","lat":"22.341459","long":"114.201054"}],"routeId":"3S","description":"正常班次"}]