[{"company":"gmb","route":"403A","routeType":1,"orig":"安足街安蔭邨","dest":"沙田担杆莆街","stopList":[{"id":20002125,"name":"安蔭邨巴士總站","lat":22.370373840087574,"long":114.14174541167888},{"id":20002126,"name":"石排街近安蔭邨盛蔭樓的巴士停車灣","lat":22.368856654974994,"long":114.14149334769442},{"id":20008096,"name":"大白田街近石籬聖若望天主教小學的巴士停車灣","lat":22.369517531900996,"long":114.1405874773409},{"id":20002141,"name":"大白田街石蔭邨勇石樓對出的巴士停車灣","lat":22.37160161558766,"long":114.14004592704838},{"id":20001658,"name":"梨木道近石蔭商場","lat":22.37184511158082,"long":114.13862826158574},{"id":20001680,"name":"和宜合道157號, 勝利工業大廈外","lat":22.371139113133726,"long":114.13669744229995},{"id":20001861,"name":"和宜合道, 和宜合道運動場對面","lat":22.37321718815912,"long":114.1363072702253},{"id":20001862,"name":"和宜合道近梨樹路的巴士停車灣","lat":22.376052784517416,"long":114.1363452888225},{"id":20001864,"name":"和宜合道, 梨木樹邨竹樹樓外","lat":22.379195669436054,"long":114.1374027814692},{"id":20001569,"name":"担杆莆街沙田大會堂外","lat":22.38190004979475,"long":114.1901969090841},{"id":20001848,"name":"和宜合道, 嗇色園可風中學外","lat":22.38039614703303,"long":114.13508170729996},{"id":20008089,"name":"和宜合道,梨木樹邨楓樹樓對面","lat":22.376880718025028,"long":114.13672813578161},{"id":20001851,"name":"和宜合道, 北葵涌賽馬會公眾泳池外","lat":22.372738606340565,"long":114.13645305368483},{"id":20002122,"name":"和宜合道近梨木道的巴士站","lat":22.371172488118173,"long":114.13693117314325},{"id":20001670,"name":"梨木道石蔭梨木道公園對出","lat":22.370987016220273,"long":114.1378128944291},{"id":20002663,"name":"梨木道寧峰苑對出的停車灣","lat":22.3720341740908,"long":114.13854582148022},{"id":20001671,"name":"大白田街近石蔭東邨蔭恆樓的巴士停車灣","lat":22.37228784519896,"long":114.13964765189833},{"id":20008097,"name":"大白田街東華三院伍若瑜夫人紀念中學對出","lat":22.370989155411863,"long":114.14028028058966},{"id":20001672,"name":"石排街安蔭邨盛蔭樓外的巴士停車灣","lat":22.368883793085,"long":114.1417069475127},{"id":20002125,"name":"安蔭邨巴士總站","lat":22.370373840087574,"long":114.14174541167888}],"routeId":2001270,"description":"正常班次"},{"company":"gmb","route":"403A","routeType":1,"orig":"石蔭商場","dest":"沙田担杆莆街","stopList":[{"id":20001658,"name":"梨木道近石蔭商場","lat":22.37184511158082,"long":114.13862826158574},{"id":20001680,"name":"和宜合道157號, 勝利工業大廈外","lat":22.371139113133726,"long":114.13669744229995},{"id":20001861,"name":"和宜合道, 和宜合道運動場對面","lat":22.37321718815912,"long":114.1363072702253},{"id":20001862,"name":"和宜合道近梨樹路的巴士停車灣","lat":22.376052784517416,"long":114.1363452888225},{"id":20001864,"name":"和宜合道, 梨木樹邨竹樹樓外","lat":22.379195669436054,"long":114.1374027814692},{"id":20001569,"name":"担杆莆街沙田大會堂外","lat":22.38190004979475,"long":114.1901969090841},{"id":20001848,"name":"和宜合道, 嗇色園可風中學外","lat":22.38039614703303,"long":114.13508170729996},{"id":20008089,"name":"和宜合道,梨木樹邨楓樹樓對面","lat":22.376880718025028,"long":114.13672813578161},{"id":20001851,"name":"和宜合道, 北葵涌賽馬會公眾泳池外","lat":22.372738606340565,"long":114.13645305368483},{"id":20002122,"name":"和宜合道近梨木道的巴士站","lat":22.371172488118173,"long":114.13693117314325},{"id":20001670,"name":"梨木道石蔭梨木道公園對出","lat":22.370987016220273,"long":114.1378128944291},{"id":20002663,"name":"梨木道寧峰苑對出的停車灣","lat":22.3720341740908,"long":114.13854582148022},{"id":20001671,"name":"大白田街近石蔭東邨蔭恆樓的巴士停車灣","lat":22.37228784519896,"long":114.13964765189833},{"id":20008097,"name":"大白田街東華三院伍若瑜夫人紀念中學對出","lat":22.370989155411863,"long":114.14028028058966},{"id":20002126,"name":"石排街近安蔭邨盛蔭樓的巴士停車灣","lat":22.368856654974994,"long":114.14149334769442},{"id":20002125,"name":"安蔭邨巴士總站","lat":22.370373840087574,"long":114.14174541167888}],"routeId":2001271,"description":"特別班次"}]