[{"company":"gmb","route":"403A","routeType":1,"orig":"安足街安蔭邨","dest":"沙田担杆莆街","stopList":[{"id":20002125,"name":"安蔭邨巴士總站","lat":"22.370374","long":"114.141745"},{"id":20002126,"name":"石排街近安蔭邨盛蔭樓的巴士停車灣","lat":"22.368857","long":"114.141493"},{"id":20008096,"name":"大白田街近石籬聖若望天主教小學的巴士停車灣","lat":"22.369518","long":"114.140587"},{"id":20002141,"name":"大白田街石蔭邨勇石樓對出的巴士停車灣","lat":"22.371602","long":"114.140046"},{"id":20001658,"name":"梨木道近石蔭商場","lat":"22.371845","long":"114.138628"},{"id":20001680,"name":"和宜合道157號, 勝利工業大廈外","lat":"22.371009","long":"114.136861"},{"id":20001861,"name":"和宜合道, 和宜合道運動場對面","lat":"22.373217","long":"114.136307"},{"id":20001862,"name":"和宜合道近梨樹路的巴士停車灣","lat":"22.376053","long":"114.136345"},{"id":20001864,"name":"和宜合道, 梨木樹邨竹樹樓外","lat":"22.379196","long":"114.137403"},{"id":20001569,"name":"担杆莆街沙田大會堂外","lat":"22.381900","long":"114.190197"},{"id":20001848,"name":"和宜合道, 嗇色園可風中學外","lat":"22.380396","long":"114.135082"},{"id":20008089,"name":"和宜合道,梨木樹邨楓樹樓對面","lat":"22.376881","long":"114.136728"},{"id":20001851,"name":"和宜合道, 北葵涌賽馬會公眾泳池外","lat":"22.372739","long":"114.136453"},{"id":20002122,"name":"和宜合道近梨木道的巴士站","lat":"22.371172","long":"114.136931"},{"id":20001670,"name":"梨木道石蔭梨木道公園對出","lat":"22.370987","long":"114.137813"},{"id":20002663,"name":"梨木道寧峰苑對出的停車灣","lat":"22.372034","long":"114.138546"},{"id":20001671,"name":"大白田街近石蔭東邨蔭恆樓的巴士停車灣","lat":"22.372288","long":"114.139648"},{"id":20008097,"name":"大白田街東華三院伍若瑜夫人紀念中學對出","lat":"22.370989","long":"114.140280"},{"id":20001672,"name":"石排街安蔭邨盛蔭樓外的巴士停車灣","lat":"22.368884","long":"114.141707"},{"id":20002125,"name":"安蔭邨巴士總站","lat":"22.370374","long":"114.141745"}],"routeId":2001270,"description":"正常班次"},{"company":"gmb","route":"403A","routeType":1,"orig":"石蔭商場","dest":"沙田担杆莆街","stopList":[{"id":20001658,"name":"梨木道近石蔭商場","lat":"22.371845","long":"114.138628"},{"id":20001680,"name":"和宜合道157號, 勝利工業大廈外","lat":"22.371009","long":"114.136861"},{"id":20001861,"name":"和宜合道, 和宜合道運動場對面","lat":"22.373217","long":"114.136307"},{"id":20001862,"name":"和宜合道近梨樹路的巴士停車灣","lat":"22.376053","long":"114.136345"},{"id":20001864,"name":"和宜合道, 梨木樹邨竹樹樓外","lat":"22.379196","long":"114.137403"},{"id":20001569,"name":"担杆莆街沙田大會堂外","lat":"22.381900","long":"114.190197"},{"id":20001848,"name":"和宜合道, 嗇色園可風中學外","lat":"22.380396","long":"114.135082"},{"id":20008089,"name":"和宜合道,梨木樹邨楓樹樓對面","lat":"22.376881","long":"114.136728"},{"id":20001851,"name":"和宜合道, 北葵涌賽馬會公眾泳池外","lat":"22.372739","long":"114.136453"},{"id":20002122,"name":"和宜合道近梨木道的巴士站","lat":"22.371172","long":"114.136931"},{"id":20001670,"name":"梨木道石蔭梨木道公園對出","lat":"22.370987","long":"114.137813"},{"id":20002663,"name":"梨木道寧峰苑對出的停車灣","lat":"22.372034","long":"114.138546"},{"id":20001671,"name":"大白田街近石蔭東邨蔭恆樓的巴士停車灣","lat":"22.372288","long":"114.139648"},{"id":20008097,"name":"大白田街東華三院伍若瑜夫人紀念中學對出","lat":"22.370989","long":"114.140280"},{"id":20002126,"name":"石排街近安蔭邨盛蔭樓的巴士停車灣","lat":"22.368857","long":"114.141493"},{"id":20002125,"name":"安蔭邨巴士總站","lat":"22.370374","long":"114.141745"}],"routeId":2001271,"description":"特別班次"}]