[{"company":"gmb","route":"403X","routeType":1,"orig":"大圍站公共運輸交匯處","dest":"東北葵涌","stopList":[{"id":20001573,"name":"港鐵大圍站公共運輸交匯處","lat":"22.372789","long":"114.179302"},{"id":20003166,"name":"美田路北行海福花園外的巴士停車灣","lat":"22.373493","long":"114.176923"},{"id":20007375,"name":"大圍道, 美林邨美楓樓外","lat":"22.376365","long":"114.176234"},{"id":20001848,"name":"和宜合道, 嗇色園可風中學外","lat":"22.380396","long":"114.135082"},{"id":20008089,"name":"和宜合道,梨木樹邨楓樹樓對面","lat":"22.376881","long":"114.136728"},{"id":20001851,"name":"和宜合道, 北葵涌賽馬會公眾泳池外","lat":"22.372739","long":"114.136453"},{"id":20002122,"name":"和宜合道近梨木道的巴士站","lat":"22.371172","long":"114.136931"},{"id":20001670,"name":"梨木道石蔭梨木道公園對出","lat":"22.370987","long":"114.137813"},{"id":20002663,"name":"梨木道寧峰苑對出的停車灣","lat":"22.372034","long":"114.138546"},{"id":20001671,"name":"大白田街近石蔭東邨蔭恆樓的巴士停車灣","lat":"22.372288","long":"114.139648"},{"id":20002125,"name":"安蔭邨巴士總站","lat":"22.370374","long":"114.141745"},{"id":20020268,"name":"石排街停車灣(石梨街網球場對面)","lat":"22.367844","long":"114.142365"},{"id":20001675,"name":"梨貝街巴士總站","lat":"22.362689","long":"114.138447"},{"id":20001655,"name":"和宜合道33號","lat":"22.366312","long":"114.137242"},{"id":20008050,"name":"和宜合道109-115號","lat":"22.368977","long":"114.139232"},{"id":20001679,"name":"和宜合道143號","lat":"22.370183","long":"114.137891"},{"id":20001680,"name":"和宜合道157號, 勝利工業大廈外","lat":"22.371009","long":"114.136861"},{"id":20001861,"name":"和宜合道, 和宜合道運動場對面","lat":"22.373217","long":"114.136307"},{"id":20001862,"name":"和宜合道近梨樹路的巴士停車灣","lat":"22.376053","long":"114.136345"},{"id":20001864,"name":"和宜合道, 梨木樹邨竹樹樓外","lat":"22.379196","long":"114.137403"},{"id":20002180,"name":"大圍道1號","lat":"22.376157","long":"114.176622"},{"id":20003167,"name":"美田路大圍街市外的巴士停車灣","lat":"22.373863","long":"114.177020"},{"id":20001573,"name":"港鐵大圍站公共運輸交匯處","lat":"22.372789","long":"114.179302"}],"routeId":2001272,"description":"正常班次"},{"company":"gmb","route":"403X","routeType":1,"orig":"大圍站公共運輸交匯處","dest":"雍雅軒","stopList":[{"id":20001573,"name":"港鐵大圍站公共運輸交匯處","lat":"22.372789","long":"114.179302"},{"id":20003166,"name":"美田路北行海福花園外的巴士停車灣","lat":"22.373493","long":"114.176923"},{"id":20007375,"name":"大圍道, 美林邨美楓樓外","lat":"22.376365","long":"114.176234"},{"id":20001848,"name":"和宜合道, 嗇色園可風中學外","lat":"22.380396","long":"114.135082"},{"id":20001851,"name":"和宜合道, 北葵涌賽馬會公眾泳池外","lat":"22.372739","long":"114.136453"},{"id":20003233,"name":"和宜合道華寶工業大廈對面","lat":"22.371393","long":"114.136696"},{"id":20002663,"name":"梨木道寧峰苑對出的停車灣","lat":"22.372034","long":"114.138546"},{"id":20002125,"name":"安蔭邨巴士總站","lat":"22.370374","long":"114.141745"},{"id":20001675,"name":"梨貝街巴士總站","lat":"22.362689","long":"114.138447"},{"id":20001676,"name":"梨貝街近石籬(二)邨石佳樓","lat":"22.364206","long":"114.140747"},{"id":20002116,"name":"大隴街, 石籬商場外","lat":"22.365208","long":"114.137950"},{"id":20001655,"name":"和宜合道33號","lat":"22.366312","long":"114.137242"}],"routeId":2001273,"description":"特別班次(至和宜合路)"},{"company":"gmb","route":"403X","routeType":1,"orig":"石蔭梨木道","dest":"大圍","stopList":[{"id":20002663,"name":"梨木道寧峰苑對出的停車灣","lat":"22.372034","long":"114.138546"},{"id":20001671,"name":"大白田街近石蔭東邨蔭恆樓的巴士停車灣","lat":"22.372288","long":"114.139648"},{"id":20002125,"name":"安蔭邨巴士總站","lat":"22.370374","long":"114.141745"},{"id":20008090,"name":"石排街近安足街的停車灣","lat":"22.367817","long":"114.142347"},{"id":20001675,"name":"梨貝街巴士總站","lat":"22.362689","long":"114.138447"},{"id":20001676,"name":"梨貝街近石籬(二)邨石佳樓","lat":"22.364206","long":"114.140747"},{"id":20002116,"name":"大隴街, 石籬商場外","lat":"22.365208","long":"114.137950"},{"id":20001655,"name":"和宜合道33號","lat":"22.366312","long":"114.137242"},{"id":20008050,"name":"和宜合道109-115號","lat":"22.368977","long":"114.139232"},{"id":20001679,"name":"和宜合道143號","lat":"22.370183","long":"114.137891"},{"id":20001680,"name":"和宜合道157號, 勝利工業大廈外","lat":"22.371009","long":"114.136861"},{"id":20001861,"name":"和宜合道, 和宜合道運動場對面","lat":"22.373217","long":"114.136307"},{"id":20001862,"name":"和宜合道近梨樹路的巴士停車灣","lat":"22.376053","long":"114.136345"},{"id":20001864,"name":"和宜合道, 梨木樹邨竹樹樓外","lat":"22.379196","long":"114.137403"},{"id":20002180,"name":"大圍道1號","lat":"22.376157","long":"114.176622"},{"id":20003167,"name":"美田路大圍街市外的巴士停車灣","lat":"22.373863","long":"114.177020"},{"id":20001573,"name":"港鐵大圍站公共運輸交匯處","lat":"22.372789","long":"114.179302"}],"routeId":2001274,"description":"特別班次(由梨木道)"}]