[{"company":"kmb","route":"40B","routeType":"1","dir":"O","orig":"葵涌邨","dest":"平田","stopList":[{"id":"8956F5FA7B620297","name":"葵涌邨總站","lat":"22.367183","long":"114.128695"},{"id":"299184738ADD432A","name":"葵涌邨秋葵樓","lat":"22.368256","long":"114.129965"},{"id":"0393E099E78BEB94","name":"葵康苑","lat":"22.363259","long":"114.130687"},{"id":"6A5061ED084A2E4E","name":"葵興站","lat":"22.363696","long":"114.131384"},{"id":"6BF47953BB775A15","name":"葵芳邨葵信樓","lat":"22.361025","long":"114.129805"},{"id":"DB0A398B6B890051","name":"新都會廣場","lat":"22.357671","long":"114.126023"},{"id":"7467287ACB876529","name":"葵青劇院","lat":"22.356258","long":"114.125948"},{"id":"952DD8539E6DAC75","name":"聯接街","lat":"22.351458","long":"114.127456"},{"id":"E3AB394138EDE467","name":"荔景站","lat":"22.348013","long":"114.126872"},{"id":"F275A85A9CF9BBC4","name":"荔景邨樂景樓","lat":"22.345552","long":"114.127175"},{"id":"FA343B97309B84B4","name":"晨輝學校","lat":"22.344327","long":"114.129664"},{"id":"E7E5E3C1F761966F","name":"葵涌醫院","lat":"22.343414","long":"114.131617"},{"id":"647AB0AD358F10DF","name":"美孚轉車站 (C1)","lat":"22.337132","long":"114.141718"},{"id":"B4F2BAAED2470D0A","name":"饒宗頤文化館","lat":"22.337160","long":"114.142131"},{"id":"D198122830A4FDE3","name":"畢架山花園","lat":"22.341687","long":"114.167069"},{"id":"99EF4CA10B3E1F17","name":"豐力樓","lat":"22.343140","long":"114.172841"},{"id":"326199D24220A42B","name":"天馬苑","lat":"22.342707","long":"114.186638"},{"id":"F893C6ABC2743F64","name":"龍翔官立中學","lat":"22.342344","long":"114.189898"},{"id":"5536C9E3A0CE1228","name":"黃大仙轉車站 - 黃大仙廟 (B6)","lat":"22.341855","long":"114.192100"},{"id":"96A6FE5F07BDF203","name":"黃大仙轉車站 - 沙田坳道 (A1)","lat":"22.341856","long":"114.195281"},{"id":"9DE875FD17C67097","name":"鑽石山站","lat":"22.339809","long":"114.202618"},{"id":"68B207DDC9A182AB","name":"牛池灣轉車站 - 牛池灣村 (G1)","lat":"22.336630","long":"114.207400"},{"id":"66B78B49B8E626C9","name":"九龍灣站","lat":"22.325485","long":"114.214337"},{"id":"6216EE509BD55B09","name":"牛頭角下邨","lat":"22.321766","long":"114.214645"},{"id":"4D3C6D74F6AE8C7D","name":"觀塘道休憩處","lat":"22.317953","long":"114.215055"},{"id":"FCA3906F0282A3CE","name":"牛頭角站 (V5)","lat":"22.315292","long":"114.219320"},{"id":"EB177E95B39626AE","name":"觀塘轉車站 - 觀塘市中心 (T6)","lat":"22.313290","long":"114.224287"},{"id":"144E9479168069DD","name":"觀塘游泳池 (R2)","lat":"22.310432","long":"114.229545"},{"id":"7459D3AB11AFD6B5","name":"藍田站","lat":"22.306525","long":"114.233772"},{"id":"2E2AD8BFE00F9FAB","name":"基孝中學","lat":"22.306249","long":"114.235296"},{"id":"3CB982FBC9E50AAA","name":"康田苑","lat":"22.307071","long":"114.235116"},{"id":"F49FA120DE5E6582","name":"啟仁樓","lat":"22.309246","long":"114.233601"},{"id":"1EF0671DB830C59D","name":"啟田邨","lat":"22.310086","long":"114.234467"},{"id":"23727783D2D3E994","name":"藍田綜合大樓","lat":"22.309953","long":"114.237311"},{"id":"EF17FDCDDF170D38","name":"平真樓","lat":"22.307422","long":"114.237626"},{"id":"C1E7742780E828E9","name":"平田","lat":"22.308254","long":"114.235514"}],"routeId":"40B","description":"正常班次"}]