[{"company":"kmb","route":"40P","routeType":"1","dir":"O","orig":"荃灣(如心廣場)","dest":"觀塘碼頭","stopList":[{"id":"BE510EB6544BA616","name":"如心廣場巴士總站 (TW961)","lat":"22.368357","long":"114.112236"},{"id":"03D5CB9EBB6602B2","name":"荃灣站 (TW420)","lat":"22.373998","long":"114.117706"},{"id":"F9475B6C5F5B9C21","name":"石圍角邨石蓮樓 (TW400)","lat":"22.374675","long":"114.122651"},{"id":"B18C8718C0B7904F","name":"石圍角邨石菊樓 (TW402)","lat":"22.376118","long":"114.124570"},{"id":"D1A1DF2BDC842EE5","name":"東普陀 (TW405)","lat":"22.378716","long":"114.126958"},{"id":"33A7AB58611A0F6D","name":"三棟屋村 (TW410)","lat":"22.379813","long":"114.129474"},{"id":"0A1DAEAFFDFF0B66","name":"可風中學 (TW310)","lat":"22.380443","long":"114.135135"},{"id":"3A2924B2461D053B","name":"梨木樹邨 (TW313)","lat":"22.377275","long":"114.136891"},{"id":"066AA1A504714A20","name":"和宜合道運動場 (TW316)","lat":"22.374018","long":"114.136465"},{"id":"D2ACD052AFD5900A","name":"梨木道 (KW321)","lat":"22.371271","long":"114.136752"},{"id":"C95751DB2112F279","name":"石蔭東邨 (KW340)","lat":"22.372348","long":"114.139503"},{"id":"F7AD8DE682AD5BB3","name":"安蔭邨豐蔭樓 (KW345)","lat":"22.368957","long":"114.141586"},{"id":"54BA046B2D0297A0","name":"石籬邨石佳樓 (KW346)","lat":"22.364728","long":"114.140138"},{"id":"A7516C49B99EFD78","name":"石籬邨石俊樓 (KW347)","lat":"22.363328","long":"114.137644"},{"id":"C3672D8D28801773","name":"葵涌業成街 (KW410)","lat":"22.360518","long":"114.135930"},{"id":"34FBE7E973FE5EF5","name":"華員邨 (KW412)","lat":"22.351973","long":"114.133190"},{"id":"F5A44B89EFBC0B4F","name":"畢架山花園 (SS190)","lat":"22.341687","long":"114.167069"},{"id":"99EF4CA10B3E1F17","name":"豐力樓 (SS192)","lat":"22.343140","long":"114.172841"},{"id":"F893C6ABC2743F64","name":"龍翔官立中學 (WT202)","lat":"22.342344","long":"114.189898"},{"id":"5536C9E3A0CE1228","name":"黃大仙轉車站-黃大仙廟 (WT203)","lat":"22.341855","long":"114.192100"},{"id":"96A6FE5F07BDF203","name":"黃大仙轉車站-沙田坳道 (WT210)","lat":"22.341856","long":"114.195281"},{"id":"9DE875FD17C67097","name":"鑽石山站 (WT191)","lat":"22.339553","long":"114.202743"},{"id":"68B207DDC9A182AB","name":"牛池灣轉車站-牛池灣村 (WT211)","lat":"22.336630","long":"114.207400"},{"id":"66B78B49B8E626C9","name":"九龍灣站(東九文化中心) (KT319)","lat":"22.325485","long":"114.214337"},{"id":"6216EE509BD55B09","name":"牛頭角下邨 (KT325)","lat":"22.321766","long":"114.214645"},{"id":"4D3C6D74F6AE8C7D","name":"觀塘道休憩處 (KT331)","lat":"22.317953","long":"114.215055"},{"id":"FCA3906F0282A3CE","name":"牛頭角站 (KT334)","lat":"22.315292","long":"114.219320"},{"id":"EB177E95B39626AE","name":"觀塘轉車站 - 觀塘市中心","lat":"22.313290","long":"114.224287"},{"id":"64BE0873B015460A","name":"觀塘開源道 (KT210)","lat":"22.309940","long":"114.224108"},{"id":"7188D2451C5AF461","name":"觀塘碼頭 (KT941)","lat":"22.307147","long":"114.222113"}],"routeId":"40P","description":"正常班次"},{"company":"kmb","route":"40P","routeType":"2","dir":"O","orig":"石蔭東邨","dest":"觀塘碼頭","stopList":[{"id":"C95751DB2112F279","name":"石蔭東邨 (KW340)","lat":"22.372348","long":"114.139503"},{"id":"F7AD8DE682AD5BB3","name":"安蔭邨豐蔭樓 (KW345)","lat":"22.368957","long":"114.141586"},{"id":"54BA046B2D0297A0","name":"石籬邨石佳樓 (KW346)","lat":"22.364728","long":"114.140138"},{"id":"A7516C49B99EFD78","name":"石籬邨石俊樓 (KW347)","lat":"22.363328","long":"114.137644"},{"id":"C3672D8D28801773","name":"葵涌業成街 (KW410)","lat":"22.360518","long":"114.135930"},{"id":"34FBE7E973FE5EF5","name":"華員邨 (KW412)","lat":"22.351973","long":"114.133190"},{"id":"F5A44B89EFBC0B4F","name":"畢架山花園 (SS190)","lat":"22.341687","long":"114.167069"},{"id":"99EF4CA10B3E1F17","name":"豐力樓 (SS192)","lat":"22.343140","long":"114.172841"},{"id":"F893C6ABC2743F64","name":"龍翔官立中學 (WT202)","lat":"22.342344","long":"114.189898"},{"id":"5536C9E3A0CE1228","name":"黃大仙轉車站-黃大仙廟 (WT203)","lat":"22.341855","long":"114.192100"},{"id":"96A6FE5F07BDF203","name":"黃大仙轉車站-沙田坳道 (WT210)","lat":"22.341856","long":"114.195281"},{"id":"9DE875FD17C67097","name":"鑽石山站 (WT191)","lat":"22.339553","long":"114.202743"},{"id":"68B207DDC9A182AB","name":"牛池灣轉車站-牛池灣村 (WT211)","lat":"22.336630","long":"114.207400"},{"id":"66B78B49B8E626C9","name":"九龍灣站(東九文化中心) (KT319)","lat":"22.325485","long":"114.214337"},{"id":"6216EE509BD55B09","name":"牛頭角下邨 (KT325)","lat":"22.321766","long":"114.214645"},{"id":"4D3C6D74F6AE8C7D","name":"觀塘道休憩處 (KT331)","lat":"22.317953","long":"114.215055"},{"id":"FCA3906F0282A3CE","name":"牛頭角站 (KT334)","lat":"22.315292","long":"114.219320"},{"id":"EB177E95B39626AE","name":"觀塘轉車站 - 觀塘市中心","lat":"22.313290","long":"114.224287"},{"id":"64BE0873B015460A","name":"觀塘開源道 (KT210)","lat":"22.309940","long":"114.224108"},{"id":"7188D2451C5AF461","name":"觀塘碼頭 (KT941)","lat":"22.307147","long":"114.222113"}],"routeId":"40P","description":"特別班次"},{"company":"kmb","route":"40P","routeType":"1","dir":"I","orig":"觀塘碼頭","dest":"荃灣(如心廣場)","stopList":[{"id":"7188D2451C5AF461","name":"觀塘碼頭 (KT941)","lat":"22.307147","long":"114.222113"},{"id":"C000E4384A704993","name":"敬業街 (KT215)","lat":"22.307333","long":"114.224558"},{"id":"FAAD25334A972923","name":"成業街休憩公園 (KT447)","lat":"22.309323","long":"114.228480"},{"id":"84B384771F1CE484","name":"觀塘駿業里 (KT627)","lat":"22.312853","long":"114.224609"},{"id":"671775E6AF279B42","name":"觀塘轉車站 - 創紀之城 (KT642)","lat":"22.314310","long":"114.220732"},{"id":"4B17C55C032D3A37","name":"觀塘定富街 (KT650)","lat":"22.316726","long":"114.215543"},{"id":"266A4CDA19461A42","name":"牛頭角下邨 (KT656)","lat":"22.320432","long":"114.214418"},{"id":"A147FDE0CFB7A60D","name":"德福花園 (KT667)","lat":"22.323266","long":"114.214165"},{"id":"26A996F589C84844","name":"九龍灣站 (KT675)","lat":"22.325428","long":"114.213973"},{"id":"F374B56E275194D8","name":"啟泰苑 (KT677)","lat":"22.328563","long":"114.212227"},{"id":"58584BC1AC41723C","name":"牛池灣轉車站-紅萼樓 (WT704)","lat":"22.336895","long":"114.206268"},{"id":"52A8DA8958AFCCA6","name":"鑽石山站 (WT712)","lat":"22.339246","long":"114.202191"},{"id":"0EB21C27E769261B","name":"黃大仙轉車站-黃大仙廟 (WT715)","lat":"22.341470","long":"114.195370"},{"id":"E435F72ACB8438ED","name":"摩士公園泳池 (WT720)","lat":"22.341570","long":"114.191604"},{"id":"65842E04BFE99758","name":"永光書院 (WT722)","lat":"22.342338","long":"114.188530"},{"id":"EFED59E880B693F5","name":"天馬苑 (WT725)","lat":"22.342418","long":"114.186220"},{"id":"29A62A8FE112766B","name":"豐力樓 (SS730)","lat":"22.342585","long":"114.172991"},{"id":"9751EE79B103C9B8","name":"畢架山花園 (SS732)","lat":"22.341649","long":"114.166733"},{"id":"75C0DF6C7724CEEA","name":"鐘山台 (KW121)","lat":"22.343708","long":"114.139414"},{"id":"EBF4EB34B96BC242","name":"華員邨 (KW122)","lat":"22.351321","long":"114.132856"},{"id":"3FE93821145B65F5","name":"葵涌業成街 (KW123)","lat":"22.360158","long":"114.135190"},{"id":"264B29FD223D9C4E","name":"葵涌打磚坪街 (KW486)","lat":"22.365984","long":"114.136723"},{"id":"26C0B01357752657","name":"石籬(大隴街)總站 (KW973)","lat":"22.365660","long":"114.139265"},{"id":"C84CAD6CCD18F87F","name":"石籬邨石佳樓 (KW204)","lat":"22.364913","long":"114.140057"},{"id":"478ACE8A8C9A2705","name":"石籬天主教小學 (KW207)","lat":"22.366854","long":"114.142021"},{"id":"A13C2C1D5D3EE0D7","name":"石排街石歡樓 (KW209)","lat":"22.368603","long":"114.141870"},{"id":"AE7C79C814E6BD95","name":"裘錦秋中學 (KW215)","lat":"22.369340","long":"114.140828"},{"id":"FCBCC90E0ECE4F58","name":"石蔭邨 (KW222)","lat":"22.371910","long":"114.138670"},{"id":"257A6E19DD7F156C","name":"和宜合道運動場 (TW490)","lat":"22.373954","long":"114.136349"},{"id":"28A57C043C111604","name":"石圍角新村 (TW493)","lat":"22.375875","long":"114.136250"},{"id":"F82CDE4D15A43CA3","name":"梨木樹邨 (TW495)","lat":"22.378515","long":"114.137270"},{"id":"DEDD6247441C8C05","name":"可風中學 (TW496)","lat":"22.380167","long":"114.135129"},{"id":"3B54D43994CAC165","name":"三棟屋村 (TW510)","lat":"22.379816","long":"114.129569"},{"id":"D9655458715EBBF8","name":"海壩村 (TW515)","lat":"22.378954","long":"114.127632"},{"id":"8374DD78C287D9A7","name":"石圍角邨石葵樓 (TW521)","lat":"22.375852","long":"114.124790"},{"id":"D5252DAD51812506","name":"石圍角邨石荷樓 (TW522)","lat":"22.374513","long":"114.122837"},{"id":"CE2E93A0D850F21F","name":"荃灣站 (TW320)","lat":"22.374157","long":"114.117969"},{"id":"BE510EB6544BA616","name":"如心廣場巴士總站 (TW961)","lat":"22.368357","long":"114.112236"}],"routeId":"40P","description":"正常班次"},{"company":"ctb","route":"40P","routeType":null,"dir":"O","orig":"華富 (北)","dest":"羅便臣道","stopList":[{"id":"002389","name":"深灣","lat":"22.243326112091","long":"114.16413796053"},{"id":"002390","name":"南朗山道熟食市場, 南朗山道","lat":"22.247128452091","long":"114.16638027053"},{"id":"002357","name":"南朗山道, 黃竹坑道","lat":"22.248327512091","long":"114.16606157053"},{"id":"002358","name":"勝利工廠大廈, 黃竹坑道","lat":"22.248392422091","long":"114.16314899053"},{"id":"002160","name":"逸港居, 香港仔海傍道","lat":"22.247488362091","long":"114.15902634053"},{"id":"002161","name":"香港仔海濱公園, 香港仔海傍道","lat":"22.247000182091","long":"114.15578260053"},{"id":"002156","name":"香港仔市政大廈, 香港仔大道","lat":"22.249679162091","long":"114.15408960053"},{"id":"002363","name":"香港仔","lat":"22.247404462091","long":"114.15549585053"},{"id":"002158","name":"漁暉道, 香港仔大道","lat":"22.248585702091","long":"114.15575506053"},{"id":"002162","name":"香港仔魚類批發市場, 香港仔海傍道","lat":"22.247980382091","long":"114.15243083053"},{"id":"002163","name":"田灣街, 香港仔海傍道","lat":"22.248632712091","long":"114.14809052053"},{"id":"002372","name":"華貴邨","lat":"22.249877332091","long":"114.13994005053"},{"id":"002295","name":"香港製冰冰廠及冷庫, 田灣海旁道","lat":"22.248630782091","long":"114.14418340053"},{"id":"002261","name":"華富道, 石排灣道","lat":"22.252557142091","long":"114.14024833053"},{"id":"003875","name":"華林徑","lat":"22.252220302091","long":"114.13895478053"},{"id":"002338","name":"華富 (北)","lat":"22.254020442091","long":"114.13638734053"},{"id":"002339","name":"華富邨華生樓, 華富道","lat":"22.252877362091","long":"114.13596269053"},{"id":"002341","name":"華富 (南)","lat":"22.251167732091","long":"114.13648455053"},{"id":"002342","name":"華富邨華安樓, 華富道","lat":"22.251818402091","long":"114.13866375053"},{"id":"002226","name":"余振強紀念第二中學, 薄扶林道","lat":"22.256090272091","long":"114.13753478053"},{"id":"002183","name":"置富徑, 置富道","lat":"22.255735372091","long":"114.13843539053"},{"id":"002184","name":"置富花園 1- 7 座, 置富道","lat":"22.255954222091","long":"114.13974633053"},{"id":"002185","name":"置富南區廣場, 置富道","lat":"22.257587032091","long":"114.13938413053"},{"id":"002187","name":"置富花園網球場, 置富道","lat":"22.259081792091","long":"114.13754534053"},{"id":"002227","name":"薄扶林村, 薄扶林道","lat":"22.260643072091","long":"114.13612199053"},{"id":"002228","name":"薄扶林水塘道, 薄扶林道","lat":"22.262870012091","long":"114.13490606053"},{"id":"002229","name":"嘉林閣, 薄扶林道","lat":"22.264648112091","long":"114.13328494053"},{"id":"002230","name":"心光學校, 薄扶林道","lat":"22.267096712091","long":"114.13213924053"},{"id":"002231","name":"瑪麗醫院, 薄扶林道","lat":"22.269072732091","long":"114.13063329053"},{"id":"002232","name":"香港華人基督教聯會薄扶林道墳場, 薄扶林道","lat":"22.274060082091","long":"114.12987976053"},{"id":"001109","name":"摩星嶺道, 薄扶林道","lat":"22.278376602091","long":"114.13095479053"},{"id":"001110","name":"富林苑, 薄扶林道","lat":"22.279835062091","long":"114.13126545053"},{"id":"001111","name":"蒲飛路, 薄扶林道","lat":"22.282022522091","long":"114.13223321053"},{"id":"001112","name":"何東夫人堂, 薄扶林道","lat":"22.283611332091","long":"114.13295982053"},{"id":"001188","name":"香港潮商學校, 薄扶林道","lat":"22.283597812091","long":"114.13606114053"},{"id":"001006","name":"英皇書院, 般咸道","lat":"22.284271882091","long":"114.13975405053"},{"id":"001007","name":"寧養台, 般咸道","lat":"22.284803832091","long":"114.14117667053"},{"id":"001008","name":"東邊街, 般咸道","lat":"22.284292742091","long":"114.14346201053"},{"id":"001009","name":"高街, 般咸道","lat":"22.284881822091","long":"114.14575316053"},{"id":"001010","name":"醫院道, 般咸道","lat":"22.283648272091","long":"114.14741541053"},{"id":"001154","name":"寶玉閣, 西摩道","lat":"22.282826282091","long":"114.14880373053"},{"id":"001156","name":"羅便臣道, 西摩道","lat":"22.280757142091","long":"114.15072530053"},{"id":"001149","name":"高主教書院, 羅便臣道","lat":"22.278541232091","long":"114.15324279053"},{"id":"001150","name":"花園台, 羅便臣道","lat":"22.276011452091","long":"114.15489341053"}],"routeId":"40P","description":"正常班次"}]