[{"company":"kmb","route":"43C","routeType":"1","dir":"O","orig":"青衣(長康邨)","dest":"維港灣","stopList":[{"id":"DD6BC62A7723292F","name":"長康巴士總站","lat":"22.349748","long":"114.098988"},{"id":"517D0A232BB15633","name":"長康邨康順樓","lat":"22.349621","long":"114.099786"},{"id":"AAAF715A5DC3A7CD","name":"青盛苑","lat":"22.348996","long":"114.103615"},{"id":"0F60AAE48C3B22EE","name":"長青巴士總站","lat":"22.348166","long":"114.106866"},{"id":"0FC2713372030A4C","name":"長青邨青槐樓","lat":"22.345602","long":"114.107910"},{"id":"B085DDE8E381E370","name":"長青邨青桃樓","lat":"22.344906","long":"114.109575"},{"id":"996EC6B4E40A2E4A","name":"弼街 (MK700)","lat":"22.322300","long":"114.167583"},{"id":"5CA7841E84D52C8A","name":"旺角街市 (MK627)","lat":"22.318768","long":"114.166977"},{"id":"22138E6C8051FDBD","name":"銘基書院 (MK631)","lat":"22.318555","long":"114.164859"},{"id":"7FC13D26792F63F9","name":"浪澄灣 (MK150)","lat":"22.318816","long":"114.156667"},{"id":"C08929D9D44B1C49","name":"維港灣巴士總站 (MK932)","lat":"22.318212","long":"114.158321"}],"routeId":"43C","description":"正常班次"},{"company":"kmb","route":"43C","routeType":"1","dir":"I","orig":"維港灣","dest":"青衣(長亨邨)","stopList":[{"id":"C08929D9D44B1C49","name":"維港灣巴士總站 (MK932)","lat":"22.318212","long":"114.158321"},{"id":"5A0D9C9441ED6AC5","name":"大角咀中匯街 (MK296)","lat":"22.322767","long":"114.159836"},{"id":"9BF9C994F2DAE15D","name":"奧運站 (MK297)","lat":"22.318545","long":"114.160606"},{"id":"B76B249D3D253008","name":"富貴街 (MK200)","lat":"22.318679","long":"114.161867"},{"id":"A7F35DC09E1A1528","name":"櫸樹街 (MK140)","lat":"22.319354","long":"114.162802"},{"id":"D242B538BA760551","name":"旺角道 (MK330)","lat":"22.320510","long":"114.166622"},{"id":"3CE4A2049409A6DD","name":"太子站 (N76) 旺角花墟 (MK186)","lat":"22.325598","long":"114.167935"},{"id":"E6ED785726AED4AE","name":"深水埗楓樹街 (SS200)","lat":"22.327562","long":"114.166148"},{"id":"D5C36653A51759C3","name":"深水埗北河街 (X4) (SS205)","lat":"22.330100","long":"114.162879"},{"id":"F75C1A9AFDBB52F1","name":"怡靖苑 (X14) (SS215)","lat":"22.332470","long":"114.159832"},{"id":"A88468CF154B16E9","name":"長沙灣東京街 (X23) (SS224)","lat":"22.334980","long":"114.156595"},{"id":"A468A530A8C84E11","name":"長沙灣徑 (X35) (SS236)","lat":"22.337878","long":"114.150247"},{"id":"CF17F8C87DBBF2BC","name":"美孚轉車站 (A1) (SS324)","lat":"22.336751","long":"114.139698"},{"id":"D52D3F3FB66EF61A","name":"葵青交滙處","lat":"22.354213","long":"114.121972"},{"id":"6DF1AF2871D4B7D9","name":"長青邨青桃樓","lat":"22.344820","long":"114.109832"},{"id":"196A1E44C305C174","name":"美景花園","lat":"22.344755","long":"114.107760"},{"id":"BDE0F1679E1C8ABF","name":"長青巴士總站","lat":"22.348267","long":"114.105463"},{"id":"13458794A52910B0","name":"青盛苑","lat":"22.348861","long":"114.103381"},{"id":"3F13933D0157CFCF","name":"青華苑","lat":"22.349501","long":"114.099478"},{"id":"A2BE47AFF20CD4F6","name":"曉峰園","lat":"22.353940","long":"114.097467"},{"id":"F88EE882E4B77399","name":"長亨巴士總站","lat":"22.355525","long":"114.097634"}],"routeId":"43C","description":"正常班次"},{"company":"gmb","route":"43C","routeType":1,"orig":"屯門市中心(河傍街) ","dest":"兆麟苑","stopList":[{"id":20001344,"name":"河傍街, 屯門新墟街市外","lat":22.397633277285337,"long":113.97584890071293},{"id":20001312,"name":"屯門鄉事會路, 德政圍外","lat":22.395319834666168,"long":113.97453150469443},{"id":20001313,"name":"屯門鄉事會路, 時代廣場外","lat":22.393153483552425,"long":113.97530181044293},{"id":20001314,"name":"屯門鄉事會路, 屯門市中心巴士總站外","lat":22.391284313674667,"long":113.9753356575966},{"id":20001346,"name":"屯興路, 仁愛分科診所外","lat":22.39061130798113,"long":113.97887907011192},{"id":20001347,"name":"青山公路青山灣段, 恆順園第1座外","lat":22.38794954557855,"long":113.98070844419789},{"id":20002430,"name":"青山公路青山灣段, 恆豐園外","lat":22.385104063319933,"long":113.98103535175325},{"id":20001372,"name":"三聖巴士總站","lat":22.38229267637107,"long":113.97760908337052},{"id":20001373,"name":"兆興里, 博愛醫院屯門護養院外","lat":22.384882342928435,"long":113.97592548598314}],"routeId":2001636,"description":"正常班次"},{"company":"gmb","route":"43C","routeType":2,"orig":"兆麟苑","dest":"屯門市中心(河傍街) ","stopList":[{"id":20001373,"name":"兆興里, 博愛醫院屯門護養院外","lat":22.384882342928435,"long":113.97592548598314},{"id":20001355,"name":"青山公路青山灣段, 屯門兆麟政府綜合大樓外\t","lat":22.383848533615577,"long":113.97974315412411},{"id":20001356,"name":"青山公路青山灣段, 青善遊樂場外","lat":22.3848349731478,"long":113.98075103759767},{"id":20001357,"name":"青山公路青山灣段, 置樂花園8座外","lat":22.387218030830716,"long":113.98067062728683},{"id":20001358,"name":"青山公路青山灣段, 金安大廈外","lat":22.389050637270962,"long":113.98019223045875},{"id":20001359,"name":"屯興路, 屯門官立中學外","lat":22.390385677170247,"long":113.97898620874348},{"id":20001319,"name":"屯門鄉事會路, 市中心輕鐵站外","lat":22.392717735396594,"long":113.97509425878526},{"id":20011812,"name":"屯門站公共運輸交匯處","lat":22.394938517898932,"long":113.97361099720003},{"id":20001344,"name":"河傍街, 屯門新墟街市外","lat":22.397633277285337,"long":113.97584890071293}],"routeId":2001636,"description":"正常班次"}]