[{"company":"kmb","route":"44","routeType":"1","dir":"O","orig":"青衣邨","dest":"旺角東站","stopList":[{"id":"78DC181D85FB2B3A","name":"青衣邨巴士總站 (TY937)","lat":"22.354120","long":"114.103646"},{"id":"5736A90A7D7E8F66","name":"青衣街市 (TY373)","lat":"22.354494","long":"114.106015"},{"id":"61D7306AC40C4FB8","name":"青衣碼頭總站 (TY941)","lat":"22.353834","long":"114.108896"},{"id":"3D1F700E1D244C5A","name":"綠悠雅苑 (TY380)","lat":"22.352449","long":"114.105116"},{"id":"42AC6356E7A6D159","name":"青衣邨宜業樓 (TY383)","lat":"22.354091","long":"114.102243"},{"id":"8D7CB6C3D48258D6","name":"楓樹窩體育館 (TY386)","lat":"22.355589","long":"114.102107"},{"id":"CC13DC33AE269FB1","name":"青衣轉車站 - 長安總站 (TY912)","lat":"22.361714","long":"114.102891"},{"id":"F36F422FDC6B9D3F","name":"葵涌交滙處 (KW465)","lat":"22.339640","long":"114.132619"},{"id":"854BC3A8D4DE6AA9","name":"美孚轉車站 (SS462)","lat":"22.337256","long":"114.141259"},{"id":"8BCB786E1F1A2457","name":"荔枝角站 (SS465)","lat":"22.337301","long":"114.147868"},{"id":"BD34A7B702373B12","name":"昌華街 (SS473)","lat":"22.338530","long":"114.152280"},{"id":"3A5C336CCB38A3FA","name":"元州邨 (SS479)","lat":"22.335758","long":"114.155971"},{"id":"8CE4B83B45F22F1F","name":"九龍工業學校 (SS481)","lat":"22.333804","long":"114.158553"},{"id":"89F6B64B28A21D34","name":"深水埗基隆街 (SS183)","lat":"22.330174","long":"114.159747"},{"id":"2CAFD3D60CAA7F5B","name":"深水埗北河街 (SS637)","lat":"22.328783","long":"114.160429"},{"id":"B577AC1835FA7995","name":"石硤尾街 (SS641)","lat":"22.327234","long":"114.162427"},{"id":"2F4939964761E1FF","name":"深水埗白楊街 (SS645)","lat":"22.324793","long":"114.165560"},{"id":"1030A4E612B75901","name":"旺角鴉蘭街 (MK651)","lat":"22.323315","long":"114.167469"},{"id":"4459E386C8525C34","name":"旺角道 花園街街市 (MK336)","lat":"22.321187","long":"114.170468"},{"id":"EF2086016C214797","name":"旺角東站 MOKO (MK903)","lat":"22.322500","long":"114.172220"}],"routeId":"44","description":"正常班次"},{"company":"kmb","route":"44","routeType":"1","dir":"I","orig":"旺角東站","dest":"青衣邨","stopList":[{"id":"EF2086016C214797","name":"旺角東站 MOKO (MK903)","lat":"22.322500","long":"114.172220"},{"id":"EF103F0ED7C9BE45","name":"聯運街 (MK360)","lat":"22.321386","long":"114.172178"},{"id":"1EC9ED318297A470","name":"旺角站 (MK620)","lat":"22.319459","long":"114.170867"},{"id":"610F9B32EEAE091D","name":"旺角快富街 (MK177)","lat":"22.320000","long":"114.169071"},{"id":"E20D7A733ECDFA05","name":"基榮小學 維景酒店 (MK303)","lat":"22.322500","long":"114.168150"},{"id":"69C45315DFA906FC","name":"旺角塘尾道 (MK305)","lat":"22.324417","long":"114.165700"},{"id":"BE510511B0A7344E","name":"大南街 (SS340)","lat":"22.326990","long":"114.163828"},{"id":"D3C41BB36EC805E0","name":"石硤尾街休憩花園 (SS332)","lat":"22.327994","long":"114.163798"},{"id":"A8C595F1E33B5DEF","name":"北河街 (SS335)","lat":"22.329064","long":"114.162397"},{"id":"BA2F4E8CB1D43CD8","name":"怡靖苑 (SS216)","lat":"22.332397","long":"114.159929"},{"id":"55973ABF49182097","name":"長沙灣東京街 (SS223)","lat":"22.334934","long":"114.156659"},{"id":"0E718C4DB85C8005","name":"長沙灣徑 (SS237)","lat":"22.337827","long":"114.150084"},{"id":"0CC9C5E5DBB3FF89","name":"美孚轉車站 (SS322)","lat":"22.336630","long":"114.140316"},{"id":"F39F638D34947E40","name":"葵涌交滙處 (KW101)","lat":"22.340537","long":"114.131551"},{"id":"5D919BA157405E33","name":"青衣轉車站 - 長安總站 (TY911)","lat":"22.361663","long":"114.102892"},{"id":"4E870B220826BEE0","name":"楓樹窩體育館 (TY211)","lat":"22.355604","long":"114.102353"},{"id":"5AD2A4D21C226335","name":"青衣邨宜業樓 (TY212)","lat":"22.354345","long":"114.102443"},{"id":"A454170B2B59B587","name":"綠悠雅苑 (TY215)","lat":"22.352641","long":"114.105149"},{"id":"6129FAE857E1D5F0","name":"青衣碼頭 (TY217)","lat":"22.353312","long":"114.108981"},{"id":"143D7489C808BD46","name":"青衣街市 (TY360)","lat":"22.354203","long":"114.106836"},{"id":"78DC181D85FB2B3A","name":"青衣邨巴士總站 (TY937)","lat":"22.354120","long":"114.103646"}],"routeId":"44","description":"正常班次"},{"company":"gmb","route":"44","routeType":1,"orig":"長沙灣 (青山道)","dest":"海盈邨 (循環線)","stopList":[{"id":20019864,"name":"東京街, 恒順大廈外","lat":"22.336759","long":"114.159048"},{"id":20019865,"name":"順寧道, 保安道市政大廈對面","lat":"22.338431","long":"114.157184"},{"id":20019866,"name":"興華街, 近元州街","lat":"22.338880","long":"114.155097"},{"id":20021647,"name":"興華街, 幸俊苑外","lat":"22.336119","long":"114.152471"},{"id":20012318,"name":"長義街, 近D2 Place","lat":"22.336126","long":"114.148495"},{"id":20012316,"name":"興華街西遊樂場","lat":"22.333062","long":"114.149846"},{"id":20019873,"name":"海麗邨公共交通交匯處","lat":"22.332333","long":"114.147177"},{"id":20019867,"name":"荔盈街, 近海盈邨","lat":"22.327693","long":"114.148732"},{"id":20019868,"name":"興華街西,碧海藍天二座對出","lat":"22.332477","long":"114.149095"},{"id":20019869,"name":"興華街西, 長沙灣臨時家禽批發市場","lat":"22.334776","long":"114.151069"},{"id":20019870,"name":"大南西街, 近長義街","lat":"22.336960","long":"114.149628"},{"id":20019871,"name":"青山道, 近廣成街(明愛醫院)","lat":"22.340258","long":"114.154081"},{"id":20019872,"name":"青山道310號","lat":"22.338265","long":"114.156669"},{"id":20019864,"name":"東京街, 恒順大廈外","lat":"22.336759","long":"114.159048"}],"routeId":2010104,"description":"特別班次 (經海麗邨公共交通交匯處)"},{"company":"gmb","route":"44","routeType":1,"orig":"長沙灣 (青山道)","dest":"海盈邨 (循環線)","stopList":[{"id":20019864,"name":"東京街, 恒順大廈外","lat":"22.336759","long":"114.159048"},{"id":20019865,"name":"順寧道, 保安道市政大廈對面","lat":"22.338431","long":"114.157184"},{"id":20019866,"name":"興華街, 近元州街","lat":"22.338880","long":"114.155097"},{"id":20021647,"name":"興華街, 幸俊苑外","lat":"22.336119","long":"114.152471"},{"id":20012318,"name":"長義街, 近D2 Place","lat":"22.336126","long":"114.148495"},{"id":20012316,"name":"興華街西遊樂場","lat":"22.333062","long":"114.149846"},{"id":20019867,"name":"荔盈街, 近海盈邨","lat":"22.327693","long":"114.148732"},{"id":20019868,"name":"興華街西,碧海藍天二座對出","lat":"22.332477","long":"114.149095"},{"id":20019869,"name":"興華街西, 長沙灣臨時家禽批發市場","lat":"22.334776","long":"114.151069"},{"id":20019870,"name":"大南西街, 近長義街","lat":"22.336960","long":"114.149628"},{"id":20019871,"name":"青山道, 近廣成街(明愛醫院)","lat":"22.340258","long":"114.154081"},{"id":20019872,"name":"青山道310號","lat":"22.338265","long":"114.156669"},{"id":20019864,"name":"東京街, 恒順大廈外","lat":"22.336759","long":"114.159048"}],"routeId":2010137,"description":"特別班次"},{"company":"gmb","route":"44","routeType":1,"orig":"屯門碼頭","dest":"上水站","stopList":[{"id":20007287,"name":"屯門碼頭 (公共小巴總站 - 湖山路)","lat":"22.374355","long":"113.970115"},{"id":20001376,"name":"湖翠路, 邁亞美海灣外","lat":"22.372564","long":"113.968467"},{"id":20001377,"name":"湖翠路, 海翠花園第2座外","lat":"22.372878","long":"113.966787"},{"id":20001378,"name":"湖翠路, 美樂花園第10座外","lat":"22.375751","long":"113.960655"},{"id":20004519,"name":"龍門路, 蝴蝶輕鐵站外","lat":"22.378118","long":"113.961768"},{"id":20001379,"name":"龍門路, 輕鐵車廠站外","lat":"22.381950","long":"113.963530"},{"id":20001380,"name":"龍門路, 龍門輕鐵站外","lat":"22.385271","long":"113.965144"},{"id":20001381,"name":"海珠路, 豐景園外","lat":"22.383975","long":"113.972606"},{"id":20001382,"name":"海珠路, 翠寧花園外","lat":"22.383860","long":"113.974791"},{"id":20001318,"name":"屯門鄉事會路, 近友愛邨","lat":"22.387554","long":"113.975164"},{"id":20001319,"name":"屯門鄉事會路, 市中心輕鐵站外","lat":"22.392718","long":"113.975094"},{"id":20010676,"name":"紅橋, 新和里遊樂場外","lat":"22.402503","long":"113.977318"},{"id":20001384,"name":"上水站小巴總站","lat":"22.502043","long":"114.127785"}],"routeId":2003966,"description":"正常班次 "},{"company":"gmb","route":"44","routeType":2,"orig":"上水站","dest":"屯門碼頭","stopList":[{"id":20001384,"name":"上水站小巴總站","lat":"22.502043","long":"114.127785"},{"id":20010674,"name":"紅橋, 新和里遊樂場對面","lat":"22.402305","long":"113.977538"},{"id":20001314,"name":"屯門鄉事會路, 屯門市中心巴士總站外","lat":"22.391284","long":"113.975336"},{"id":20001385,"name":"屯門鄉事會路, 近安定邨","lat":"22.387564","long":"113.975358"},{"id":20001386,"name":"屯門鄉事會路, 兆麟苑外","lat":"22.384873","long":"113.975362"},{"id":20001387,"name":"海珠路, 豐景園對面","lat":"22.383857","long":"113.972354"},{"id":20016168,"name":"皇珠路, 龍逸邨外","lat":"22.387117","long":"113.967870"},{"id":20002419,"name":"龍門路, 富健花園外","lat":"22.383902","long":"113.964692"},{"id":20001389,"name":"龍門路, 新屯門中心外","lat":"22.381875","long":"113.963730"},{"id":20001390,"name":"龍門路, 兆山苑外","lat":"22.377088","long":"113.961168"},{"id":20001391,"name":"湖翠路, 蝴蝶邨蝶心樓外","lat":"22.374578","long":"113.961822"},{"id":20001392,"name":"湖翠路, 湖景邨湖碧樓外","lat":"22.373463","long":"113.964824"},{"id":20001393,"name":"湖翠路, 兆禧苑多層停車場外","lat":"22.373113","long":"113.966514"},{"id":20001394,"name":"湖翠路, 世界龍岡學校劉德容紀念小學外","lat":"22.372718","long":"113.968418"},{"id":20001374,"name":"湖翠路, 嘉智中學外","lat":"22.372883","long":"113.970098"},{"id":20007287,"name":"屯門碼頭 (公共小巴總站 - 湖山路)","lat":"22.374355","long":"113.970115"}],"routeId":2003966,"description":"正常班次 "}]