[{"company":"gmb","route":"44S","routeType":1,"orig":"海麗邨","dest":"青山道(循環線)","stopList":[{"id":20002614,"name":"海麗邨","lat":"22.332094","long":"114.147472"},{"id":20012341,"name":"深盛路, 近泓景臺第五座","lat":"22.333801","long":"114.148362"},{"id":20003024,"name":"深盛路昇悅居外","lat":"22.333838","long":"114.148821"},{"id":20012310,"name":"興華街近長沙灣臨時家禽批發市場","lat":"22.335117","long":"114.151405"},{"id":20012344,"name":"興華街, 深水埗運動場外","lat":"22.337000","long":"114.153084"},{"id":20012345,"name":"青山道, 近廣成街(明愛醫院)","lat":"22.340269","long":"114.154083"},{"id":20020229,"name":"青山道368號","lat":"22.339062","long":"114.155631"},{"id":20012346,"name":"青山道, 發祥大廈外","lat":"22.337991","long":"114.157017"},{"id":20012347,"name":"永隆街, 恒輝閣外","lat":"22.336922","long":"114.157876"},{"id":20012348,"name":"元州街, 元州商場外","lat":"22.337626","long":"114.156219"},{"id":20021647,"name":"興華街, 幸俊苑外","lat":"22.336119","long":"114.152471"},{"id":20020230,"name":"興華街西遊樂場","lat":"22.333109","long":"114.149958"},{"id":20002614,"name":"海麗邨","lat":"22.332094","long":"114.147472"}],"routeId":2004627,"description":"特別班次"}]