[{"company":"gmb","route":"44S","routeType":1,"orig":"海麗邨","dest":"青山道(循環線)","stopList":[{"id":20002614,"name":"海麗邨","lat":22.33209444429596,"long":114.14747232639675},{"id":20012341,"name":"深盛路, 近泓景臺第五座","lat":22.333800503330536,"long":114.14836182274662},{"id":20003024,"name":"深盛路昇悅居外","lat":22.333837584686794,"long":114.14882122991794},{"id":20012310,"name":"興華街近長沙灣臨時家禽批發市場","lat":22.335116818806625,"long":114.15140451904261},{"id":20012344,"name":"興華街, 深水埗運動場外","lat":22.337000178406452,"long":114.15308431177144},{"id":20012345,"name":"青山道, 近廣成街(明愛醫院)","lat":22.34026919327019,"long":114.15408343076709},{"id":20020229,"name":"青山道368號","lat":22.33906223510602,"long":114.15563106536867},{"id":20012346,"name":"青山道, 發祥大廈外","lat":22.33799055595125,"long":114.15701652132068},{"id":20012347,"name":"永隆街, 恒輝閣外","lat":22.336921505182765,"long":114.1578763356019},{"id":20012348,"name":"元州街, 元州商場外","lat":22.337625701515808,"long":114.15621858026748},{"id":20020230,"name":"興華街西遊樂場","lat":22.333109161170068,"long":114.14995819330217},{"id":20012349,"name":"海麗邨","lat":22.332039038618518,"long":114.14754341715478}],"routeId":2004627,"description":"特別班次"}]