[{"company":"kmb","route":"46","routeType":"1","dir":"O","orig":"高鐵(西九龍站)","dest":"葵涌(麗瑤邨)","stopList":[{"id":"4E42234F86ABC6E3","name":"高鐵(西九龍站)巴士總站 (YT950)","lat":"22.307517","long":"114.164814"},{"id":"98F2067168C267FE","name":"佐敦道,高鐵站 (YT242)","lat":"22.306180","long":"114.166315"},{"id":"195090E551109C0A","name":"上海街 廟街夜市 (YT244)","lat":"22.305717","long":"114.168627"},{"id":"4624AC39DB25D456","name":"油麻地寧波街 (YT128)","lat":"22.306923","long":"114.171377"},{"id":"2DB47A3C263E4F5C","name":"九龍中央郵政局 (YT129)","lat":"22.308904","long":"114.171181"},{"id":"6DFEED7F0DB44298","name":"旺角登打士街 (MK160)","lat":"22.315026","long":"114.170087"},{"id":"A6ACEA5D8F32521D","name":"旺角奶路臣街 (MK170)","lat":"22.317916","long":"114.169527"},{"id":"30FEA8A7071EDE48","name":"弼街,始創中心 (MK181)","lat":"22.321778","long":"114.168699"},{"id":"69C45315DFA906FC","name":"旺角塘尾道 (MK305)","lat":"22.324417","long":"114.165700"},{"id":"242DFDBDBFA2034A","name":"深水埗南昌街 (SS160)","lat":"22.326980","long":"114.160363"},{"id":"E05F8589B0529DE3","name":"深水埗桂林街 (SS161)","lat":"22.327621","long":"114.159555"},{"id":"946657B831E4AAB8","name":"深水埗警署 (SS713)","lat":"22.330383","long":"114.159590"},{"id":"BA2F4E8CB1D43CD8","name":"怡靖苑 (SS216)","lat":"22.332397","long":"114.159929"},{"id":"04FC6E130D4953F4","name":"長沙灣遊樂場 (SS227)","lat":"22.335618","long":"114.155787"},{"id":"B294A8638290F5C2","name":"長沙灣徑 (SS235)","lat":"22.337936","long":"114.150416"},{"id":"70349D91EC82AFE1","name":"美孚轉車站 (SS318)","lat":"22.336449","long":"114.141577"},{"id":"E35B5F1B80E085E6","name":"蘭秀道 (SS270)","lat":"22.338565","long":"114.140480"},{"id":"A3F6D2CA9135A988","name":"荔灣道 (SS275)","lat":"22.340823","long":"114.138382"},{"id":"375D37F2AF5D762A","name":"九華徑 (KW280)","lat":"22.343835","long":"114.136715"},{"id":"37A4D07D7179CE76","name":"荔灣花園 (KW281)","lat":"22.341695","long":"114.136077"},{"id":"C979915CB2F4A35C","name":"清麗商場 (KW282)","lat":"22.339883","long":"114.135644"},{"id":"94612276CB142F93","name":"清麗苑 (KW283)","lat":"22.339601","long":"114.135030"},{"id":"24BB2F5E5721E970","name":"瑪嘉烈醫院 (KW284)","lat":"22.341055","long":"114.132659"},{"id":"0E7645CCF6AA3558","name":"葵涌醫院 (KW285)","lat":"22.343652","long":"114.130975"},{"id":"DB91BE349DC15226","name":"祖堯邨商場 (KW295)","lat":"22.346096","long":"114.128838"},{"id":"044D07048F45F915","name":"荔景站 (KW288)","lat":"22.348191","long":"114.126648"},{"id":"6E6EBC9D1AF2DA52","name":"荔景邨日景樓 (KW289)","lat":"22.349841","long":"114.126962"},{"id":"68758E936DF9B173","name":"下葵涌分科診所 (KW300)","lat":"22.351820","long":"114.127910"},{"id":"EC14900F4BD3744B","name":"麗瑤邨榮瑤樓 (KW301)","lat":"22.354282","long":"114.131523"},{"id":"D2EA32ACC919A9EA","name":"麗瑤巴士總站 (KW990)","lat":"22.352982","long":"114.131952"}],"routeId":"46","description":"正常班次"},{"company":"kmb","route":"46","routeType":"1","dir":"I","orig":"葵涌(麗瑤邨)","dest":"高鐵(西九龍站)","stopList":[{"id":"D2EA32ACC919A9EA","name":"麗瑤巴士總站 (KW990)","lat":"22.352982","long":"114.131952"},{"id":"E3B77FDA167AE325","name":"麗瑤邨榮瑤樓 (KW421)","lat":"22.354269","long":"114.131169"},{"id":"3C9E0D9FBEA28AC6","name":"下葵涌分科診所 (KW422)","lat":"22.352331","long":"114.128541"},{"id":"952DD8539E6DAC75","name":"聯接街 (KW435)","lat":"22.351458","long":"114.127456"},{"id":"E3AB394138EDE467","name":"荔景站 (KW436)","lat":"22.348013","long":"114.126872"},{"id":"D597E0A9258D0894","name":"祖堯邨商場 (KW430)","lat":"22.346017","long":"114.128420"},{"id":"FA343B97309B84B4","name":"晨輝學校 (KW438)","lat":"22.344327","long":"114.129664"},{"id":"E7E5E3C1F761966F","name":"葵涌醫院 (KW439)","lat":"22.343414","long":"114.131617"},{"id":"062B0243536F0816","name":"瑪嘉烈醫院 (KW440)","lat":"22.341266","long":"114.132764"},{"id":"13B39CD775874ED9","name":"清麗苑 (KW441)","lat":"22.339701","long":"114.134317"},{"id":"08A97AD10693B841","name":"清麗商場 (KW442)","lat":"22.340079","long":"114.135584"},{"id":"42E5CC0772775C7E","name":"九華徑 (KW443)","lat":"22.343733","long":"114.136087"},{"id":"1D75CC7D0B671EEE","name":"華荔邨 (KW444)","lat":"22.342879","long":"114.138152"},{"id":"79BB89DA868D93CF","name":"荔灣道 (SS450)","lat":"22.339994","long":"114.139622"},{"id":"BE47845FF3E717FC","name":"蘭秀道 (SS452)","lat":"22.338462","long":"114.140765"},{"id":"8BCB786E1F1A2457","name":"荔枝角站 (SS465)","lat":"22.337301","long":"114.147868"},{"id":"5CF51F3B971D4D56","name":"昌華街 (SS472)","lat":"22.338556","long":"114.152201"},{"id":"AAB25066B96C6588","name":"元州邨 (SS478)","lat":"22.335706","long":"114.156039"},{"id":"8CE4B83B45F22F1F","name":"九龍工業學校 (SS481)","lat":"22.333804","long":"114.158553"},{"id":"89F6B64B28A21D34","name":"深水埗基隆街 (SS183)","lat":"22.330174","long":"114.159747"},{"id":"18A85DD43DFA12AF","name":"深水埗北河街 (SS636)","lat":"22.328811","long":"114.160393"},{"id":"8D386F5D210C3439","name":"石硤尾街 (SS642)","lat":"22.327142","long":"114.162550"},{"id":"DFD51C2C47E6692C","name":"深水埗白楊街 (SS643)","lat":"22.325003","long":"114.165293"},{"id":"AB3C556B2A18F0DB","name":"深水埗柏樹街 (SS646)","lat":"22.324232","long":"114.166291"},{"id":"3500D60BFEFFF7BC","name":"弼街 (MK701)","lat":"22.322355","long":"114.167571"},{"id":"417C996BA7F5F59F","name":"亞皆老街 (MK702)","lat":"22.319669","long":"114.168111"},{"id":"6D1F582245EC568B","name":"山東街 (MK703)","lat":"22.317719","long":"114.168502"},{"id":"6C9939568AAA34EA","name":"長沙街 (MK704)","lat":"22.316057","long":"114.168857"},{"id":"5D3B3AE3CCFDDA96","name":"碧街 (YT705)","lat":"22.313473","long":"114.169397"},{"id":"3E752B45D12458EF","name":"永星里 (YT706)","lat":"22.310934","long":"114.169851"},{"id":"A5A6FF8443523FF9","name":"西貢街 (YT707)","lat":"22.307125","long":"114.169775"},{"id":"FD1B403FD4EC3E8D","name":"佐敦炮台街 (YT674)","lat":"22.305617","long":"114.168054"},{"id":"4E42234F86ABC6E3","name":"高鐵(西九龍站)巴士總站 (YT950)","lat":"22.307517","long":"114.164814"}],"routeId":"46","description":"正常班次"},{"company":"gmb","route":"46","routeType":1,"orig":"麗晶花園","dest":"大角咀( 奧運站)","stopList":[{"id":20015244,"name":"啓仁街, 近聖公會九龍灣基樂小學","lat":"22.329053","long":"114.206679"},{"id":20012057,"name":"啟禮道, 九龍灣公園外","lat":"22.327504","long":"114.206330"},{"id":20000895,"name":"宏照道, 九龍灣運動場外","lat":"22.326712","long":"114.208615"},{"id":20015245,"name":"太子道東, 近都市綠洲","lat":"22.332670","long":"114.206834"},{"id":20015246,"name":"太子道東, 近采頤花園第八座","lat":"22.335027","long":"114.202193"},{"id":20015252,"name":"太子道東, 近新蒲崗交匯處休憩花園","lat":"22.332687","long":"114.197345"},{"id":20015248,"name":"太子道西, 近啟德一號污水泵房","lat":"22.327557","long":"114.191211"},{"id":20014651,"name":"太子道西, 近蘭苑","lat":"22.327348","long":"114.188276"},{"id":20014198,"name":"太子道西, 近聖德肋撒醫院北座","lat":"22.326762","long":"114.184773"},{"id":20015158,"name":"太子道西, 近愛華閣（二期）","lat":"22.326337","long":"114.182274"},{"id":20014245,"name":"太子道西, 近太和苑","lat":"22.325503","long":"114.177594"},{"id":20004126,"name":"太子道西, 新世紀廣場外","lat":"22.324719","long":"114.173021"},{"id":20000628,"name":"太子道西, 別樹一居外","lat":"22.324087","long":"114.169459"},{"id":20020165,"name":"太子道西西行線 115 號","lat":"22.323549","long":"114.166473"},{"id":20000629,"name":"通州街","lat":"22.323445","long":"114.164033"},{"id":20015249,"name":"大角咀道, 近大角咀道／洋松街休憩處","lat":"22.323341","long":"114.162001"},{"id":20000630,"name":"大角咀道埃華街休憩公園外","lat":"22.321702","long":"114.162043"},{"id":20000631,"name":"大角咀道38號外","lat":"22.320023","long":"114.162141"},{"id":20015250,"name":"海輝道, 近浪澄灣第六座","lat":"22.319490","long":"114.156505"},{"id":20015251,"name":"維港灣","lat":"22.318840","long":"114.158753"}],"routeId":2007233,"description":"正常班次"},{"company":"gmb","route":"46","routeType":2,"orig":"大角咀( 奧運站)","dest":"麗晶花園","stopList":[{"id":20015251,"name":"維港灣","lat":"22.318840","long":"114.158753"},{"id":20015253,"name":"深旺道, 近中耀樓","lat":"22.322525","long":"114.159864"},{"id":20015254,"name":"深旺道, 近滙豐中心","lat":"22.318503","long":"114.160534"},{"id":20015255,"name":"大角咀道, 近海桃灣第二座","lat":"22.318604","long":"114.161905"},{"id":20015256,"name":"櫸樹街, 近新九龍廣場","lat":"22.319617","long":"114.162878"},{"id":20000909,"name":"晏架街8號外","lat":"22.320122","long":"114.164363"},{"id":20015257,"name":"福全街, 近榮裕閣","lat":"22.320591","long":"114.165284"},{"id":20000911,"name":"旺角道, 近砵蘭街","lat":"22.320782","long":"114.168217"},{"id":20020166,"name":"旺角道 18 號","lat":"22.321082","long":"114.169805"},{"id":20013238,"name":"洗衣街, 近快富街","lat":"22.320423","long":"114.171578"},{"id":20000912,"name":"亞皆老街, 嘉麗園","lat":"22.320159","long":"114.173341"},{"id":20020167,"name":"亞皆老街東行線中華電力有限公司外","lat":"22.320917","long":"114.176523"},{"id":20015258,"name":"亞皆老街, 近九龍醫院Ａ座","lat":"22.322810","long":"114.180619"},{"id":20015259,"name":"亞皆老街, 近九龍醫院醫院管理局大樓","lat":"22.323830","long":"114.182948"},{"id":20015260,"name":"亞皆老街, 近香港眼科醫院","lat":"22.324731","long":"114.184948"},{"id":20014204,"name":"太子道東, 近永勝樓","lat":"22.328909","long":"114.192326"},{"id":20014205,"name":"太子道東, 近譽. 港灣 Mikiki","lat":"22.333059","long":"114.196771"},{"id":20015261,"name":"太子道東, 近泰景工業大樓","lat":"22.333950","long":"114.198545"},{"id":20008514,"name":"太子道東, 近采頤花園","lat":"22.335402","long":"114.204034"},{"id":20000923,"name":"太子道東, 近彩虹邨紫薇樓","lat":"22.333160","long":"114.207218"},{"id":20015244,"name":"啓仁街, 近聖公會九龍灣基樂小學","lat":"22.329053","long":"114.206679"}],"routeId":2007233,"description":"正常班次"},{"company":"gmb","route":"46","routeType":1,"orig":"深旺道","dest":"麗晶花園","stopList":[{"id":20015253,"name":"深旺道, 近中耀樓","lat":"22.322525","long":"114.159864"},{"id":20015254,"name":"深旺道, 近滙豐中心","lat":"22.318503","long":"114.160534"},{"id":20015255,"name":"大角咀道, 近海桃灣第二座","lat":"22.318604","long":"114.161905"},{"id":20015256,"name":"櫸樹街, 近新九龍廣場","lat":"22.319617","long":"114.162878"},{"id":20000909,"name":"晏架街8號外","lat":"22.320122","long":"114.164363"},{"id":20015257,"name":"福全街, 近榮裕閣","lat":"22.320591","long":"114.165284"},{"id":20000911,"name":"旺角道, 近砵蘭街","lat":"22.320782","long":"114.168217"},{"id":20013238,"name":"洗衣街, 近快富街","lat":"22.320423","long":"114.171578"},{"id":20000912,"name":"亞皆老街, 嘉麗園","lat":"22.320159","long":"114.173341"},{"id":20015258,"name":"亞皆老街, 近九龍醫院Ａ座","lat":"22.322810","long":"114.180619"},{"id":20015259,"name":"亞皆老街, 近九龍醫院醫院管理局大樓","lat":"22.323830","long":"114.182948"},{"id":20015260,"name":"亞皆老街, 近香港眼科醫院","lat":"22.324731","long":"114.184948"},{"id":20014204,"name":"太子道東, 近永勝樓","lat":"22.328909","long":"114.192326"},{"id":20014205,"name":"太子道東, 近譽. 港灣 Mikiki","lat":"22.333059","long":"114.196771"},{"id":20015261,"name":"太子道東, 近泰景工業大樓","lat":"22.333950","long":"114.198545"},{"id":20010587,"name":"太子道東, 近采頤花園","lat":"22.335322","long":"114.202491"},{"id":20000923,"name":"太子道東, 近彩虹邨紫薇樓","lat":"22.333160","long":"114.207218"},{"id":20015244,"name":"啓仁街, 近聖公會九龍灣基樂小學","lat":"22.329053","long":"114.206679"}],"routeId":2007234,"description":"早上特別班次"},{"company":"gmb","route":"46","routeType":1,"orig":"富泰邨","dest":"屯門市中心(循環線)","stopList":[{"id":20013797,"name":"富泰邨服務設施大樓","lat":"22.413276","long":"113.982500"},{"id":20013798,"name":"青山公路－嶺南段, 近嶺南大學李運強教學大樓","lat":"22.410423","long":"113.982410"},{"id":20013799,"name":"青山公路－嶺南段, 近彩暉花園Ｅ座","lat":"22.408539","long":"113.980134"},{"id":20013800,"name":"兆康站(南)公共運輸交匯處","lat":"22.409857","long":"113.978381"},{"id":20013801,"name":"青山公路－新墟段, 近景峰花園商場","lat":"22.403207","long":"113.979415"},{"id":20013802,"name":"屯門鄉事會路, 近雅都花園","lat":"22.398331","long":"113.975255"},{"id":20001312,"name":"屯門鄉事會路, 近明偉大廈","lat":"22.395320","long":"113.974532"},{"id":20001338,"name":"屯順街, 屯門市廣場第4座外","lat":"22.393091","long":"113.976195"},{"id":20001322,"name":"屯門鄉事會路, 近聖公會聖西門呂明才中學","lat":"22.397596","long":"113.974907"},{"id":20013803,"name":"青山公路－新墟段, 近多寶大廈 近景峰花園","lat":"22.403126","long":"113.979164"},{"id":20013811,"name":"兆康站(南)公共運輸交匯處","lat":"22.410001","long":"113.978478"},{"id":20013805,"name":"青山公路－嶺南段, 近屯門濾水廠員工宿舍 近彩暉花園","lat":"22.408769","long":"113.980368"},{"id":20013806,"name":"青山公路－嶺南段, 近叠茵庭第四座","lat":"22.410671","long":"113.982189"},{"id":20013807,"name":"富泰邨服務設施大樓","lat":"22.413171","long":"113.982505"}],"routeId":2005715,"description":"正常班次"}]