[{"company":"kmb","route":"46P","routeType":"1","dir":"O","orig":"美田","dest":"葵芳站","stopList":[{"id":"6D76E141FB820044","name":"美田巴士總站","lat":"22.376324","long":"114.170565"},{"id":"C8A9DAB5E9051324","name":"美松苑","lat":"22.380290","long":"114.173874"},{"id":"924D67DD8AB7683D","name":"美林邨美槐樓","lat":"22.380025","long":"114.176045"},{"id":"E7BFF1027930CCCD","name":"美城苑","lat":"22.379285","long":"114.173721"},{"id":"E68FF6CC803A14A2","name":"美林邨美楓樓","lat":"22.376396","long":"114.176354"},{"id":"620E14F31DA31490","name":"城門隧道轉車站 (B6)","lat":"22.381181","long":"114.138129"},{"id":"32F5F33FA68B77D6","name":"城門隧道轉車站 (B1)","lat":"22.381495","long":"114.137657"},{"id":"0A1DAEAFFDFF0B66","name":"可風中學","lat":"22.380443","long":"114.135135"},{"id":"3A2924B2461D053B","name":"梨木樹邨","lat":"22.377275","long":"114.136891"},{"id":"066AA1A504714A20","name":"和宜合道運動場","lat":"22.374018","long":"114.136465"},{"id":"1423FCFF61709EAC","name":"昌榮路","lat":"22.370511","long":"114.134739"},{"id":"0E65D3EC41A1D34B","name":"葵俊苑","lat":"22.364682","long":"114.132892"},{"id":"4E3FEA4E559A5D16","name":"新葵興花園","lat":"22.362423","long":"114.132128"},{"id":"DA17B01A4A61A358","name":"葵芳邨","lat":"22.359821","long":"114.131178"},{"id":"6C11A9780213BBBB","name":"新都會廣場","lat":"22.356988","long":"114.127690"},{"id":"7EA4C557505395EF","name":"葵芳站巴士總站","lat":"22.357064","long":"114.128765"}],"routeId":"46P","description":"正常班次"},{"company":"kmb","route":"46P","routeType":"1","dir":"I","orig":"葵芳站","dest":"美田","stopList":[{"id":"7EA4C557505395EF","name":"葵芳站巴士總站","lat":"22.357064","long":"114.128765"},{"id":"FDBDDCF779540C82","name":"葵芳邨","lat":"22.360075","long":"114.130954"},{"id":"D6A21211E4788F7B","name":"光輝圍","lat":"22.367997","long":"114.133689"},{"id":"E919C0B67C6ACF3F","name":"昌榮路","lat":"22.370598","long":"114.134320"},{"id":"257A6E19DD7F156C","name":"和宜合道運動場","lat":"22.373954","long":"114.136349"},{"id":"28A57C043C111604","name":"石圍角新村","lat":"22.375875","long":"114.136250"},{"id":"E00E92F19002ED3E","name":"梨木樹邨","lat":"22.378590","long":"114.137242"},{"id":"DEDD6247441C8C05","name":"可風中學","lat":"22.380167","long":"114.135129"},{"id":"81B719F7DC3F0FAD","name":"城門隧道轉車站 (A5)","lat":"22.381888","long":"114.137620"},{"id":"9E8E99C5BB698AC2","name":"城門隧道轉車站 (A4)","lat":"22.381827","long":"114.137783"},{"id":"F889BD772B8E7F19","name":"大圍道","lat":"22.376018","long":"114.176456"},{"id":"C8A9DAB5E9051324","name":"美松苑","lat":"22.380290","long":"114.173874"},{"id":"924D67DD8AB7683D","name":"美林邨美槐樓","lat":"22.380025","long":"114.176045"},{"id":"E7BFF1027930CCCD","name":"美城苑","lat":"22.379285","long":"114.173721"},{"id":"6DE243D2C36B9C6A","name":"美田邨美全樓","lat":"22.377180","long":"114.172547"},{"id":"6D76E141FB820044","name":"美田巴士總站","lat":"22.376324","long":"114.170565"}],"routeId":"46P","description":"正常班次"}]