[{"company":"kmb","route":"46X","routeType":"1","dir":"O","orig":"顯徑","dest":"美孚","stopList":[{"id":"AF020613AEB25447","name":"顯徑巴士總站 (TA931)","lat":"22.362592","long":"114.170821"},{"id":"DCB96F7AF6EC5EE7","name":"顯徑邨顯慶樓 (TA561)","lat":"22.364105","long":"114.173973"},{"id":"FF9F7715ECEDAC41","name":"顯徑邨顯沛樓 (TA564)","lat":"22.365336","long":"114.175069"},{"id":"A5C1234F60BBF1EB","name":"隆亨邨 (TA573)","lat":"22.368824","long":"114.178535"},{"id":"A58C8BBBEC70CEC0","name":"大圍轉車站 - 新翠邨 (C1)","lat":"22.370172","long":"114.179636"},{"id":"1B89F83BD1FC3F74","name":"海福花園 (TA144)","lat":"22.373643","long":"114.176795"},{"id":"E68FF6CC803A14A2","name":"美林邨美楓樓 (TA301)","lat":"22.376396","long":"114.176354"},{"id":"620E14F31DA31490","name":"城門隧道轉車站 (B6) (TW300)","lat":"22.381181","long":"114.138129"},{"id":"32F5F33FA68B77D6","name":"城門隧道轉車站 (B1) (TW305)","lat":"22.381495","long":"114.137657"},{"id":"0A1DAEAFFDFF0B66","name":"可風中學 (TW310)","lat":"22.380443","long":"114.135135"},{"id":"3A2924B2461D053B","name":"梨木樹邨 (TW313)","lat":"22.377275","long":"114.136891"},{"id":"066AA1A504714A20","name":"和宜合道運動場 (TW316)","lat":"22.374018","long":"114.136465"},{"id":"1423FCFF61709EAC","name":"昌榮路 (KW331)","lat":"22.370511","long":"114.134739"},{"id":"898337E6181E5E66","name":"葵俊苑 (KW452)","lat":"22.364416","long":"114.132751"},{"id":"9217F5E1950F12BF","name":"新葵興花園 (KW456)","lat":"22.361948","long":"114.131856"},{"id":"BB04686A2E0D7578","name":"葵芳邨 (KW461)","lat":"22.359821","long":"114.131178"},{"id":"952DD8539E6DAC75","name":"聯接街 (KW435)","lat":"22.351458","long":"114.127456"},{"id":"E3AB394138EDE467","name":"荔景站 (KW436)","lat":"22.348013","long":"114.126872"},{"id":"F275A85A9CF9BBC4","name":"荔景邨樂景樓 (KW437)","lat":"22.345552","long":"114.127175"},{"id":"FA343B97309B84B4","name":"晨輝學校 (KW438)","lat":"22.344327","long":"114.129664"},{"id":"E7E5E3C1F761966F","name":"葵涌醫院 (KW439)","lat":"22.343414","long":"114.131617"},{"id":"062B0243536F0816","name":"瑪嘉烈醫院 (KW440)","lat":"22.341266","long":"114.132764"},{"id":"13B39CD775874ED9","name":"清麗苑 (KW441)","lat":"22.339701","long":"114.134317"},{"id":"08A97AD10693B841","name":"清麗商場 (KW442)","lat":"22.340079","long":"114.135584"},{"id":"42E5CC0772775C7E","name":"九華徑 (KW443)","lat":"22.343733","long":"114.136087"},{"id":"1D75CC7D0B671EEE","name":"華荔邨 (KW444)","lat":"22.342879","long":"114.138152"},{"id":"79BB89DA868D93CF","name":"荔灣道 (SS450)","lat":"22.339994","long":"114.139622"},{"id":"BE47845FF3E717FC","name":"蘭秀道 (SS452)","lat":"22.338462","long":"114.140765"},{"id":"16F732FAF7057965","name":"美孚巴士總站 (SS997)","lat":"22.337146","long":"114.140518"}],"routeId":"46X","description":"正常班次"},{"company":"kmb","route":"46X","routeType":"1","dir":"I","orig":"美孚","dest":"顯徑","stopList":[{"id":"16F732FAF7057965","name":"美孚巴士總站 (SS997)","lat":"22.337146","long":"114.140518"},{"id":"E35B5F1B80E085E6","name":"蘭秀道 (SS270)","lat":"22.338565","long":"114.140480"},{"id":"A3F6D2CA9135A988","name":"荔灣道 (SS275)","lat":"22.340823","long":"114.138382"},{"id":"375D37F2AF5D762A","name":"九華徑 (KW280)","lat":"22.343835","long":"114.136715"},{"id":"37A4D07D7179CE76","name":"荔灣花園 (KW281)","lat":"22.341695","long":"114.136077"},{"id":"C979915CB2F4A35C","name":"清麗商場 (KW282)","lat":"22.339883","long":"114.135644"},{"id":"94612276CB142F93","name":"清麗苑 (KW283)","lat":"22.339601","long":"114.135030"},{"id":"24BB2F5E5721E970","name":"瑪嘉烈醫院 (KW284)","lat":"22.341055","long":"114.132659"},{"id":"0E7645CCF6AA3558","name":"葵涌醫院 (KW285)","lat":"22.343652","long":"114.130975"},{"id":"422BD13B241CCD5B","name":"救世軍荔景院 (KW286)","lat":"22.345056","long":"114.127647"},{"id":"AD326AC36444B948","name":"荔景邨樂景樓 (KW287)","lat":"22.346348","long":"114.126492"},{"id":"044D07048F45F915","name":"荔景站 (KW288)","lat":"22.348191","long":"114.126648"},{"id":"6E6EBC9D1AF2DA52","name":"荔景邨日景樓 (KW289)","lat":"22.349841","long":"114.126962"},{"id":"7EA4C557505395EF","name":"葵芳站巴士總站 (KW900)","lat":"22.357064","long":"114.128765"},{"id":"FDBDDCF779540C82","name":"葵芳邨 (KW109)","lat":"22.360075","long":"114.130954"},{"id":"D6A21211E4788F7B","name":"光輝圍 (KW114)","lat":"22.367997","long":"114.133689"},{"id":"E919C0B67C6ACF3F","name":"昌榮路 (KW481)","lat":"22.370598","long":"114.134320"},{"id":"257A6E19DD7F156C","name":"和宜合道運動場 (TW490)","lat":"22.373954","long":"114.136349"},{"id":"28A57C043C111604","name":"石圍角新村 (TW493)","lat":"22.375875","long":"114.136250"},{"id":"E00E92F19002ED3E","name":"梨木樹邨 (TW494)","lat":"22.378590","long":"114.137242"},{"id":"DEDD6247441C8C05","name":"可風中學 (TW496)","lat":"22.380167","long":"114.135129"},{"id":"81B719F7DC3F0FAD","name":"城門隧道轉車站 (A5) (TW500)","lat":"22.381888","long":"114.137620"},{"id":"442D174C28C1A121","name":"城門隧道轉車站 (A3) (TW502)","lat":"22.381743","long":"114.137938"},{"id":"F889BD772B8E7F19","name":"大圍道 (TA748)","lat":"22.376018","long":"114.176456"},{"id":"1276AEF95F6564A2","name":"大圍街市 (TA333)","lat":"22.373617","long":"114.177213"},{"id":"14C3BF43DC0878D1","name":"大圍站總站 (G2) (TA941)","lat":"22.373074","long":"114.180370"},{"id":"BAE4DA32E5043726","name":"大圍轉車站 - 新翠邨 (B5)","lat":"22.370814","long":"114.179545"},{"id":"95C43FF4684FCADA","name":"隆亨邨 (TA111)","lat":"22.368414","long":"114.178154"},{"id":"A28C2F29B58A2E9A","name":"下徑口村 (TA116)","lat":"22.365536","long":"114.175431"},{"id":"BA9F2C58E03A38F0","name":"顯田村 (TA118)","lat":"22.362851","long":"114.172557"},{"id":"1090DE5141A16845","name":"顯徑巴士總站 (TA930)","lat":"22.362962","long":"114.171194"},{"id":"AF020613AEB25447","name":"顯徑巴士總站 (TA931)","lat":"22.362592","long":"114.170821"}],"routeId":"46X","description":"正常班次"},{"company":"gmb","route":"46X","routeType":1,"orig":"富泰邨","dest":"屯門市中心(循環線)","stopList":[{"id":20013797,"name":"富泰邨服務設施大樓","lat":22.41327595052928,"long":113.98250017315151},{"id":20013798,"name":"青山公路－嶺南段, 近嶺南大學李運強教學大樓","lat":22.41042279879232,"long":113.98240998387338},{"id":20013799,"name":"青山公路－嶺南段, 近彩暉花園Ｅ座","lat":22.40853889833043,"long":113.98013412952425},{"id":20013800,"name":"兆康站(南)公共運輸交匯處","lat":22.409857447639446,"long":113.97838130593301},{"id":20013801,"name":"青山公路－新墟段, 近景峰花園商場","lat":22.40320742908552,"long":113.97941529750825},{"id":20013802,"name":"屯門鄉事會路, 近雅都花園","lat":22.39833063268564,"long":113.97525452077389},{"id":20001312,"name":"屯門鄉事會路, 近明偉大廈","lat":22.395319834666168,"long":113.97453150469443},{"id":20001338,"name":"屯順街, 屯門市廣場第4座外","lat":22.393091381229368,"long":113.97619531484868},{"id":20013803,"name":"青山公路－新墟段, 近多寶大廈 近景峰花園","lat":22.403126098198506,"long":113.9791638404131},{"id":20013810,"name":"兆康站(南)公共運輸交匯處","lat":22.409910546134565,"long":113.97828072309495},{"id":20013805,"name":"青山公路－嶺南段, 近屯門濾水廠員工宿舍 近彩暉花園","lat":22.408769154422455,"long":113.9803681522608},{"id":20013806,"name":"青山公路－嶺南段, 近叠茵庭第四座","lat":22.41067113403146,"long":113.98218937218192},{"id":20013807,"name":"富泰邨服務設施大樓","lat":22.41317113113521,"long":113.98250453174116}],"routeId":2005748,"description":"短程班次"}]