[{"company":"gmb","route":"48M","routeType":1,"orig":"柴灣站(利眾街)","dest":"東區尤德夫人那打素醫院","stopList":[{"id":20000264,"name":"利眾街近華廈邨","lat":"22.265106","long":"114.236407"},{"id":20010625,"name":"泰民街近高威閣","lat":"22.266242","long":"114.234365"},{"id":20003443,"name":"泰民街, 樂翠臺外","lat":"22.267918","long":"114.234834"},{"id":20000263,"name":"東區尤德夫人那打素醫院","lat":"22.269137","long":"114.236846"}],"routeId":2003902,"description":"正常班次"},{"company":"gmb","route":"48M","routeType":2,"orig":"東區尤德夫人那打素醫院","dest":"柴灣站(利眾街)","stopList":[{"id":20000263,"name":"東區尤德夫人那打素醫院","lat":"22.269137","long":"114.236846"},{"id":20003443,"name":"泰民街, 康翠台外","lat":"22.267918","long":"114.234834"},{"id":20007583,"name":"祥利街近華廈村(下車站)","lat":"22.264465","long":"114.236368"},{"id":20000264,"name":"利眾街近華廈邨","lat":"22.265106","long":"114.236407"}],"routeId":2003902,"description":"正常班次"}]