[{"company":"gmb","route":"49","routeType":1,"orig":"順天","dest":"九龍城渡輪碼頭(循環線)","stopList":[{"id":20000953,"name":"順安道, 近順天邨天榮樓","lat":22.326530029582177,"long":114.22688249476779},{"id":20000952,"name":"利安道, 近順利邨利恒樓","lat":22.332966117221087,"long":114.22430231106605},{"id":20000954,"name":"新清水灣道, 近聖言中學","lat":22.3323453632499,"long":114.2154300285723},{"id":20001117,"name":"清水灣道, 近坪石邨鑽石樓","lat":22.334008367500214,"long":114.20913065729457},{"id":20015302,"name":"太子道東, 近新蒲崗交匯處休憩花園","lat":22.33265265324082,"long":114.19725358486177},{"id":20015296,"name":"太子道西, 近九龍城二號污水泵房","lat":22.327668184124892,"long":114.19140368700029},{"id":20015297,"name":"明倫街, 近翔龍灣第一座","lat":22.319933096605432,"long":114.1932061314583},{"id":20015298,"name":"新碼頭街, 近九龍城碼頭","lat":22.31809075512297,"long":114.19400677084923},{"id":20008189,"name":"馬頭角道, 近香港中華煤氣有限公司馬頭角控制中心","lat":22.320763112944498,"long":114.19239342212678},{"id":20015299,"name":"馬頭涌道, 近香港家庭計劃指導會","lat":22.32414743883568,"long":114.18843582272531},{"id":20014204,"name":"太子道東, 近永勝樓","lat":22.328909079902857,"long":114.19232569634916},{"id":20001964,"name":"太子道東, 近泰景工業大樓","lat":22.334010111294976,"long":114.19869565535836},{"id":20015300,"name":"太子道東, 近采頤花園","lat":22.33548480782223,"long":114.2036113870927},{"id":20006002,"name":"清水灣道, 近清水灣道8號","lat":22.333968469402226,"long":114.21008910194361},{"id":20015301,"name":"新清水灣道, 近彩雲(一)邨白虹樓","lat":22.332570779378113,"long":114.21532094478609},{"id":20000953,"name":"順安道,近順天邨天榮樓","lat":22.326530029582177,"long":114.22688249476779}],"routeId":2007299,"description":"正常班次"}]