[{"company":"kmb","route":"49","routeType":"1","dir":"O","orig":"青富苑","dest":"將軍澳工業邨","stopList":[{"id":"07F45B3B36DFDDAE","name":"青富苑 (TY106)","lat":"22.341288","long":"114.106952"},{"id":"196A1E44C305C174","name":"美景花園 (TY111)","lat":"22.344755","long":"114.107760"},{"id":"BDE0F1679E1C8ABF","name":"長青巴士總站 (TY113)","lat":"22.348267","long":"114.105463"},{"id":"13458794A52910B0","name":"青盛苑 (TY115)","lat":"22.348861","long":"114.103381"},{"id":"67DFAB691BECE339","name":"長康邨康順樓 (TY340)","lat":"22.349838","long":"114.100522"},{"id":"6D016EBFA090D535","name":"職安健學院 (TY341)","lat":"22.351037","long":"114.102936"},{"id":"04D3244DD2B38746","name":"長康邨康富樓 (TY342)","lat":"22.350587","long":"114.105885"},{"id":"59B81980AC8F7878","name":"青衣警署 (TY353)","lat":"22.351792","long":"114.107458"},{"id":"3D1F700E1D244C5A","name":"綠悠雅苑 (TY380)","lat":"22.352449","long":"114.105116"},{"id":"42AC6356E7A6D159","name":"青衣邨宜業樓 (TY383)","lat":"22.354091","long":"114.102243"},{"id":"8D7CB6C3D48258D6","name":"楓樹窩體育館 (TY386)","lat":"22.355589","long":"114.102107"},{"id":"79842A7E2FC0844F","name":"長宏巴士總站 (TY981)","lat":"22.357376","long":"114.096235"},{"id":"FF5CF18C5510B901","name":"長亨邨商場 (TY300)","lat":"22.354299","long":"114.097567"},{"id":"7E50BA0974C3B983","name":"長亨邨 (TY123)","lat":"22.353376","long":"114.098675"},{"id":"28725EBEC5C8EC40","name":"青衣轉車站 - 長安總站 (TY906)","lat":"22.361453","long":"114.103121"},{"id":"6085C420AB7E6FF9","name":"佐敦道,高鐵站 (YT240)","lat":"22.306180","long":"114.166315"},{"id":"4C49804674904130","name":"上海街 廟街夜市 (YT246)","lat":"22.305631","long":"114.169025"},{"id":"8864CF7D3E4B1EF6","name":"佐敦志和街 (YT250)","lat":"22.305886","long":"114.172499"},{"id":"AA97FFC49AE957A5","name":"紅磡山谷道 (HH175)","lat":"22.309361","long":"114.183871"},{"id":"BE27F066CF40DF7D","name":"啟隧轉車站-啟福道 (KT100)","lat":"22.322242","long":"114.204425"},{"id":"07521BB848913F74","name":"九龍灣宏通街 (KT101)","lat":"22.319534","long":"114.207613"},{"id":"5D8FCEF2915882FD","name":"觀塘順業街 (KT200)","lat":"22.316313","long":"114.214785"},{"id":"C2605DED84199B84","name":"觀塘勵業街 (KT201)","lat":"22.314912","long":"114.216362"},{"id":"BF8E440F5584D39D","name":"觀塘巧明街 (KT202)","lat":"22.311960","long":"114.219656"},{"id":"8A928A173E67CD96","name":"觀塘駿業街 (KT203)","lat":"22.309675","long":"114.221690"},{"id":"97D1981DE7ECBCE7","name":"將軍澳隧道轉車站 (P2) (LT201)","lat":"22.316056","long":"114.240427"},{"id":"DF7F22DF4F8A9D11","name":"景榕樓 (TK151)","lat":"22.318815","long":"114.262058"},{"id":"7613538D58A9C452","name":"厚德邨 (TK215)","lat":"22.319436","long":"114.264290"},{"id":"F9853D9712072CCB","name":"坑口(北)(將軍澳醫院) (TK957)","lat":"22.317574","long":"114.269133"},{"id":"D32019CB6290C2EF","name":"煜明苑 (TK270)","lat":"22.314691","long":"114.268642"},{"id":"4E7C1C7F6D191BCB","name":"蓬萊路 (TK300)","lat":"22.308372","long":"114.267883"},{"id":"815BC43527FD9247","name":"百勝角 (TK301)","lat":"22.301733","long":"114.272574"},{"id":"B3F2EC8E42FA3184","name":"峻瀅 日出康城 (TK302)","lat":"22.297382","long":"114.272496"},{"id":"2307DECBF51E9D7F","name":"日出康城領凱 (TK303)","lat":"22.294404","long":"114.273728"},{"id":"13B87ED5725EE00D","name":"大赤沙消防局 (TK320)","lat":"22.289612","long":"114.273473"},{"id":"4A195F954ACD67C5","name":"駿日街 (TK321)","lat":"22.286887","long":"114.271576"},{"id":"27EF80951F8ED49E","name":"將軍澳工業邨巴士總站 (TK990)","lat":"22.283296","long":"114.270278"}],"routeId":"49","description":"正常班次"},{"company":"kmb","route":"49","routeType":"1","dir":"I","orig":"將軍澳工業邨","dest":"青富苑","stopList":[{"id":"27EF80951F8ED49E","name":"將軍澳工業邨巴士總站 (TK990)","lat":"22.283296","long":"114.270278"},{"id":"155312688CBEC518","name":"駿宏街 (TK500)","lat":"22.282178","long":"114.272628"},{"id":"30ABA5259B66B883","name":"駿昌街 (TK530)","lat":"22.288360","long":"114.274657"},{"id":"07142A6203E50A47","name":"日出康城領都 (TK532)","lat":"22.294281","long":"114.273380"},{"id":"E92E009DE3307F85","name":"日出康城首都 (TK534)","lat":"22.296677","long":"114.272726"},{"id":"0A1D83D50B49933D","name":"百勝角 (TK535)","lat":"22.303500","long":"114.271368"},{"id":"38A37564B3F3CACF","name":"清水灣半島 (TK536)","lat":"22.307888","long":"114.267895"},{"id":"69B96A44A754E404","name":"煜明苑 (TK395)","lat":"22.314955","long":"114.268610"},{"id":"76AA75F4BF183FB3","name":"明德邨 (TK425)","lat":"22.317372","long":"114.268995"},{"id":"ECD84D5B8C52642B","name":"厚德邨 (TK428)","lat":"22.319144","long":"114.264207"},{"id":"6A01E709D806A5D6","name":"頌明苑 (TK281)","lat":"22.318018","long":"114.262157"},{"id":"5BEC0CCDD7EE4A8C","name":"將軍澳隧道轉車站 (G3) (LT300)","lat":"22.315496","long":"114.240719"},{"id":"70CD99F4D487740A","name":"觀塘巧明街 (KT572)","lat":"22.313431","long":"114.217776"},{"id":"992F89F2265F8D8D","name":"觀塘順業街 (KT573)","lat":"22.315896","long":"114.214922"},{"id":"B568727F49CD11A3","name":"啟隧轉車站-啟福道 (KT590)","lat":"22.323065","long":"114.203197"},{"id":"5CCBD9A6B58BF20D","name":"九龍佑寧堂 (YT670)","lat":"22.305649","long":"114.172574"},{"id":"E049C81469E2B3C0","name":"白加士街 廟街夜市 (YT671)","lat":"22.305172","long":"114.170361"},{"id":"076E1E9D5874C41D","name":"佐敦炮台街 (YT673)","lat":"22.305524","long":"114.168430"},{"id":"7B4FD0F182DCC294","name":"佐敦道,高鐵站 (YT674b)","lat":"22.305945","long":"114.166374"},{"id":"F9F4E00007242BED","name":"青衣轉車站 - 長安總站 (TY902)","lat":"22.361381","long":"114.103025"},{"id":"CA1C0FB0345F9675","name":"長亨邨 (TY390)","lat":"22.353398","long":"114.098810"},{"id":"A2BE47AFF20CD4F6","name":"曉峰園 (TY130)","lat":"22.353940","long":"114.097467"},{"id":"CC6B75E6D60B4C57","name":"長亨邨停車場 (TY131)","lat":"22.355984","long":"114.097366"},{"id":"79842A7E2FC0844F","name":"長宏巴士總站 (TY981)","lat":"22.357376","long":"114.096235"},{"id":"4E870B220826BEE0","name":"楓樹窩體育館 (TY211)","lat":"22.355604","long":"114.102353"},{"id":"5AD2A4D21C226335","name":"青衣邨宜業樓 (TY212)","lat":"22.354345","long":"114.102443"},{"id":"A454170B2B59B587","name":"綠悠雅苑 (TY215)","lat":"22.352641","long":"114.105149"},{"id":"5BDACC01F1655F27","name":"翠怡花園 (TY243)","lat":"22.351769","long":"114.107800"},{"id":"7E97DE06FCADF324","name":"長青邨青梅樓","lat":"22.350044","long":"114.106895"},{"id":"43398296F1D1BD48","name":"長康邨康富樓 (TY253)","lat":"22.350407","long":"114.105638"},{"id":"65D1B50CC2E45985","name":"長康邨康盛樓 (TY254)","lat":"22.350723","long":"114.103816"},{"id":"67F3E54FF145BA65","name":"長康邨康豐樓 (TY255)","lat":"22.350826","long":"114.101846"},{"id":"F93448A5F1168FB1","name":"長康邨康祥樓 (TY314)","lat":"22.349570","long":"114.101158"},{"id":"DFB7FD5832A4BA4E","name":"青盛苑 (TY316)","lat":"22.348985","long":"114.103555"},{"id":"0F60AAE48C3B22EE","name":"長青巴士總站 (TY320)","lat":"22.348166","long":"114.106866"},{"id":"0CFB814CB6C356C1","name":"長青邨青槐樓 (TY323)","lat":"22.345830","long":"114.107927"},{"id":"5B5107DB7CE969DE","name":"青富商場 (TY102)","lat":"22.343103","long":"114.107800"},{"id":"56579F66F45EDD3F","name":"青富苑(落客站) (TY103)","lat":"22.342153","long":"114.107162"}],"routeId":"49","description":"正常班次"},{"company":"gmb","route":"49","routeType":1,"orig":"順天","dest":"九龍城渡輪碼頭(循環線)","stopList":[{"id":20000953,"name":"順安道, 近順天邨天榮樓","lat":"22.326530","long":"114.226882"},{"id":20000952,"name":"利安道, 近順利邨利恒樓","lat":"22.332966","long":"114.224302"},{"id":20000954,"name":"新清水灣道, 近聖言中學","lat":"22.332345","long":"114.215430"},{"id":20001117,"name":"清水灣道, 近坪石邨鑽石樓","lat":"22.333937","long":"114.208430"},{"id":20020163,"name":"太子道東西行線四美街對面巴士停車灣","lat":"22.334891","long":"114.201934"},{"id":20015302,"name":"太子道東, 近新蒲崗交匯處休憩花園","lat":"22.332653","long":"114.197254"},{"id":20015296,"name":"太子道西, 近九龍城二號污水泵房","lat":"22.327668","long":"114.191404"},{"id":20015297,"name":"明倫街, 近翔龍灣第一座","lat":"22.319933","long":"114.193206"},{"id":20015298,"name":"新碼頭街, 近九龍城碼頭","lat":"22.318091","long":"114.194007"},{"id":20008189,"name":"馬頭角道, 近香港中華煤氣有限公司馬頭角控制中心","lat":"22.320763","long":"114.192393"},{"id":20015299,"name":"馬頭涌道, 近香港家庭計劃指導會","lat":"22.324147","long":"114.188436"},{"id":20014204,"name":"太子道東, 近永勝樓","lat":"22.328909","long":"114.192326"},{"id":20001964,"name":"太子道東, 近泰景工業大樓","lat":"22.334010","long":"114.198696"},{"id":20015300,"name":"太子道東, 近采頤花園","lat":"22.335485","long":"114.203611"},{"id":20006002,"name":"清水灣道, 近清水灣道8號","lat":"22.333968","long":"114.210089"},{"id":20015301,"name":"新清水灣道, 近彩雲(一)邨白虹樓","lat":"22.332571","long":"114.215321"},{"id":20000953,"name":"順安道, 近順天邨天榮樓","lat":"22.326530","long":"114.226882"}],"routeId":2007299,"description":"正常班次"}]