[{"company":"gmb","route":"4M","routeType":1,"orig":"香港仔(石排灣)","dest":"黃竹坑站","stopList":[{"id":20011318,"name":"石排灣邨公共運輸交匯處","lat":"22.249805","long":"114.157383"},{"id":20021679,"name":"南寧街, 海瑩閣外","lat":"22.248790","long":"114.153536"},{"id":20011613,"name":"黃竹坑道23號","lat":"22.248564","long":"114.163514"},{"id":20011235,"name":"黃竹坑站","lat":"22.248193","long":"114.167894"}],"routeId":2004098,"description":"特別班次"},{"company":"gmb","route":"4M","routeType":2,"orig":"黃竹坑站","dest":"香港仔(石排灣)","stopList":[{"id":20011235,"name":"黃竹坑站","lat":"22.248193","long":"114.167894"},{"id":20000057,"name":"黃竹坑道, 黃竹坑遊樂場外","lat":"22.250280","long":"114.170481"},{"id":20000361,"name":"香港仔海傍道, 逸港居外","lat":"22.247569","long":"114.159316"},{"id":20000169,"name":"香港仔海傍道, 香港仔海濱公園外","lat":"22.246955","long":"114.155872"},{"id":20011599,"name":"香港仔大道, 金豐大廈外","lat":"22.248636","long":"114.155582"},{"id":20011318,"name":"石排灣邨公共運輸交匯處","lat":"22.249805","long":"114.157383"}],"routeId":2004098,"description":"特別班次"},{"company":"gmb","route":"4M","routeType":1,"orig":"香港仔(南寧街)","dest":"黃竹坑站","stopList":[{"id":20021679,"name":"南寧街, 海瑩閣外","lat":"22.248790","long":"114.153536"},{"id":20011613,"name":"黃竹坑道23號","lat":"22.248564","long":"114.163514"},{"id":20011235,"name":"黃竹坑站","lat":"22.248193","long":"114.167894"}],"routeId":2004100,"description":"短程班次"},{"company":"gmb","route":"4M","routeType":2,"orig":"黃竹坑站","dest":"香港仔(南寧街)","stopList":[{"id":20011235,"name":"黃竹坑站","lat":"22.248193","long":"114.167894"},{"id":20000057,"name":"黃竹坑道, 黃竹坑遊樂場外","lat":"22.250280","long":"114.170481"},{"id":20000361,"name":"香港仔海傍道, 逸港居外","lat":"22.247569","long":"114.159316"},{"id":20000169,"name":"香港仔海傍道, 香港仔海濱公園外","lat":"22.246955","long":"114.155872"},{"id":20000218,"name":"南寧街, 海瑩閣外","lat":"22.248951","long":"114.154387"}],"routeId":2004100,"description":"短程班次"},{"company":"gmb","route":"4M","routeType":1,"orig":"香港仔(石排灣)","dest":"黃竹坑站","stopList":[{"id":20011318,"name":"石排灣邨公共運輸交匯處","lat":"22.249805","long":"114.157383"},{"id":20011613,"name":"黃竹坑道23號","lat":"22.248564","long":"114.163514"},{"id":20011235,"name":"黃竹坑站","lat":"22.248193","long":"114.167894"}],"routeId":2004131,"description":"晨早特別班次"}]