[{"company":"gmb","route":"4M","routeType":1,"orig":"香港仔(石排灣)","dest":"黃竹坑站","stopList":[{"id":20011318,"name":"石排灣邨公共運輸交匯處","lat":22.249805168312875,"long":114.15738252063221},{"id":20021679,"name":"南寧街, 海瑩閣外","lat":22.248789910713917,"long":114.15353626012804},{"id":20011613,"name":"黃竹坑道23號","lat":22.24856400170924,"long":114.16351407766345},{"id":20011235,"name":"黃竹坑站","lat":22.248192864696236,"long":114.16789412498476}],"routeId":2004098,"description":"特別班次"},{"company":"gmb","route":"4M","routeType":2,"orig":"黃竹坑站","dest":"香港仔(石排灣)","stopList":[{"id":20011235,"name":"黃竹坑站","lat":22.248192864696236,"long":114.16789412498476},{"id":20000057,"name":"黃竹坑道, 黃竹坑遊樂場外","lat":22.250279510423415,"long":114.17048124803054},{"id":20000361,"name":"香港仔海傍道, 逸港居外","lat":22.24756948944506,"long":114.15931550542977},{"id":20000169,"name":"香港仔海傍道, 香港仔海濱公園外","lat":22.246954996200248,"long":114.15587173771375},{"id":20011599,"name":"香港仔大道, 金豐大廈外","lat":22.248635995516896,"long":114.15558177434949},{"id":20011318,"name":"石排灣邨公共運輸交匯處","lat":22.249805168312875,"long":114.15738252063221}],"routeId":2004098,"description":"特別班次"},{"company":"gmb","route":"4M","routeType":1,"orig":"香港仔(南寧街)","dest":"黃竹坑站","stopList":[{"id":20021679,"name":"南寧街, 海瑩閣外","lat":22.248789910713917,"long":114.15353626012804},{"id":20011613,"name":"黃竹坑道23號","lat":22.24856400170924,"long":114.16351407766345},{"id":20011235,"name":"黃竹坑站","lat":22.248192864696236,"long":114.16789412498476}],"routeId":2004100,"description":"短程班次"},{"company":"gmb","route":"4M","routeType":2,"orig":"黃竹坑站","dest":"香港仔(南寧街)","stopList":[{"id":20011235,"name":"黃竹坑站","lat":22.248192864696236,"long":114.16789412498476},{"id":20000057,"name":"黃竹坑道, 黃竹坑遊樂場外","lat":22.250279510423415,"long":114.17048124803054},{"id":20000361,"name":"香港仔海傍道, 逸港居外","lat":22.24756948944506,"long":114.15931550542977},{"id":20000169,"name":"香港仔海傍道, 香港仔海濱公園外","lat":22.246954996200248,"long":114.15587173771375},{"id":20000218,"name":"南寧街, 海瑩閣外","lat":22.248950576811072,"long":114.15438717156482}],"routeId":2004100,"description":"短程班次"},{"company":"gmb","route":"4M","routeType":1,"orig":"香港仔(石排灣)","dest":"黃竹坑站","stopList":[{"id":20011318,"name":"石排灣邨公共運輸交匯處","lat":22.249805168312875,"long":114.15738252063221},{"id":20011613,"name":"黃竹坑道23號","lat":22.24856400170924,"long":114.16351407766345},{"id":20011235,"name":"黃竹坑站","lat":22.248192864696236,"long":114.16789412498476}],"routeId":2004131,"description":"晨早特別班次"}]