[{"company":"gmb","route":"4M","routeType":1,"orig":"香港仔(石排灣)","dest":"黃竹坑站","stopList":[{"id":20011318,"name":"石排灣邨公共運輸交匯處","lat":22.249805168312875,"long":114.15738252063221},{"id":20011237,"name":"南寧街,海晶閣外","lat":22.24893017271479,"long":114.15387958288194},{"id":20011613,"name":"黃竹坑道23號","lat":22.24856400170924,"long":114.16351407766345},{"id":20011235,"name":"黃竹坑站","lat":22.248192864696236,"long":114.16789412498476}],"routeId":2004098,"description":"特別班次"},{"company":"gmb","route":"4M","routeType":2,"orig":"黃竹坑站","dest":"香港仔(石排灣)","stopList":[{"id":20011235,"name":"黃竹坑站","lat":22.248192864696236,"long":114.16789412498476},{"id":20000361,"name":"香港仔海傍道, 逸港居外","lat":22.24756948944506,"long":114.15931550542977},{"id":20011480,"name":"香港仔海傍道, 香港仔巴士站對面","lat":22.2469698974255,"long":114.15582329459859},{"id":20011599,"name":"香港仔大道, 金豐大廈外","lat":22.248635995516896,"long":114.15558177434949},{"id":20011318,"name":"石排灣邨公共運輸交匯處","lat":22.249805168312875,"long":114.15738252063221}],"routeId":2004098,"description":"特別班次"},{"company":"gmb","route":"4M","routeType":1,"orig":"香港仔(南寧街)","dest":"黃竹坑站","stopList":[{"id":20000218,"name":"南寧街, 海湖閣外","lat":22.248950576811072,"long":114.15438717156482},{"id":20011613,"name":"黃竹坑道23號","lat":22.24856400170924,"long":114.16351407766345},{"id":20011235,"name":"黃竹坑站","lat":22.248192864696236,"long":114.16789412498476}],"routeId":2004100,"description":"短程班次"},{"company":"gmb","route":"4M","routeType":2,"orig":"黃竹坑站","dest":"香港仔(南寧街)","stopList":[{"id":20011235,"name":"黃竹坑站","lat":22.248192864696236,"long":114.16789412498476},{"id":20000361,"name":"香港仔海傍道, 逸港居外","lat":22.24756948944506,"long":114.15931550542977},{"id":20011480,"name":"香港仔海傍道, 香港仔巴士站對面","lat":22.2469698974255,"long":114.15582329459859},{"id":20000218,"name":"南寧街, 海湖閣外","lat":22.248950576811072,"long":114.15438717156482}],"routeId":2004100,"description":"短程班次"},{"company":"gmb","route":"4M","routeType":1,"orig":"香港仔(石排灣)","dest":"黃竹坑站","stopList":[{"id":20011318,"name":"石排灣邨公共運輸交匯處","lat":22.249805168312875,"long":114.15738252063221},{"id":20011613,"name":"黃竹坑道23號","lat":22.24856400170924,"long":114.16351407766345},{"id":20011235,"name":"黃竹坑站","lat":22.248192864696236,"long":114.16789412498476}],"routeId":2004131,"description":"晨早特別班次"}]