[{"company":"ctb","route":"4X","routeType":null,"dir":"I","orig":"中環 (交易廣場)","dest":"華富 (南)","stopList":[{"id":"002678","name":"中山紀念公園, 干諾道西","lat":"22.289041","long":"114.144346"},{"id":"001028","name":"港澳碼頭, 干諾道中","lat":"22.287715","long":"114.151337"},{"id":"001107","name":"中區政府碼頭, 民光街","lat":"22.287446","long":"114.154819"},{"id":"001170","name":"中環碼頭 - 愉景灣渡輪, 民光街","lat":"22.287371","long":"114.157617"},{"id":"001026","name":"中環碼頭 - 長洲及南丫島渡輪","lat":"22.286879","long":"114.159199"},{"id":"001144","name":"國際金融中心二期, 民耀街","lat":"22.285016","long":"114.159945"},{"id":"001032","name":"中環 (交易廣場)","lat":"22.283696","long":"114.158033"},{"id":"001034","name":"砵典乍街, 干諾道中","lat":"22.283588","long":"114.157304"},{"id":"001191","name":"高樂花園, 干諾道西","lat":"22.288543","long":"114.141717"},{"id":"001035","name":"恒生銀行總行大廈, 干諾道中","lat":"22.284812","long":"114.156318"},{"id":"001124","name":"中環中心, 皇后大道中","lat":"22.284329","long":"114.153910"},{"id":"001126","name":"荷李活華庭, 皇后大道中","lat":"22.284443","long":"114.151158"},{"id":"001127","name":"上環文娛中心, 皇后大道中","lat":"22.285970","long":"114.149103"},{"id":"001134","name":"帝后華庭, 皇后大道西","lat":"22.286525","long":"114.147360"},{"id":"001135","name":"修打蘭街, 皇后大道西","lat":"22.286632","long":"114.145348"},{"id":"001130","name":"正街, 皇后大道西","lat":"22.286844","long":"114.142761"},{"id":"001131","name":"西邊街, 皇后大道西","lat":"22.286916","long":"114.141446"},{"id":"001119","name":"李陞小學, 薄扶林道","lat":"22.285487","long":"114.139941"},{"id":"001116","name":"香港大學西閘, 薄扶林道","lat":"22.283588","long":"114.135699"},{"id":"001117","name":"何東夫人堂, 薄扶林道","lat":"22.283819","long":"114.133418"},{"id":"001120","name":"蒲飛路, 薄扶林道","lat":"22.281997","long":"114.132414"},{"id":"001118","name":"薄扶林道遊樂場, 薄扶林道","lat":"22.278418","long":"114.131154"},{"id":"002234","name":"香港華人基督教聯會薄扶林道墳場, 薄扶林道","lat":"22.273396","long":"114.130307"},{"id":"002236","name":"瑪麗醫院, 薄扶林道","lat":"22.269872","long":"114.130464"},{"id":"002237","name":"心光學校, 薄扶林道","lat":"22.266654","long":"114.132779"},{"id":"002238","name":"明德村, 薄扶林道","lat":"22.264311","long":"114.133740"},{"id":"002239","name":"薄扶林水塘道, 薄扶林道","lat":"22.262573","long":"114.135560"},{"id":"002240","name":"薄扶林村, 薄扶林道","lat":"22.260618","long":"114.136503"},{"id":"002233","name":"余振強紀念第二中學, 薄扶林道","lat":"22.255951","long":"114.137799"},{"id":"002333","name":"華富邨華樂樓, 華富道","lat":"22.251702","long":"114.138544"},{"id":"002334","name":"華富商場, 華富道","lat":"22.250931","long":"114.137351"},{"id":"002335","name":"華富邨華清樓, 華富道","lat":"22.251956","long":"114.136024"},{"id":"002336","name":"培英中學, 華富道","lat":"22.253517","long":"114.135647"},{"id":"002339","name":"華富邨華生樓, 華富道","lat":"22.252877","long":"114.135963"},{"id":"002341","name":"華富 (南)","lat":"22.251168","long":"114.136485"}],"routeId":"4X","description":"正常班次"},{"company":"ctb","route":"4X","routeType":null,"dir":"O","orig":"華富 (南)","dest":"中環 (交易廣場)","stopList":[{"id":"002341","name":"華富 (南)","lat":"22.251168","long":"114.136485"},{"id":"002342","name":"華富邨華安樓, 華富道","lat":"22.251818","long":"114.138664"},{"id":"002226","name":"余振強紀念第二中學, 薄扶林道","lat":"22.256090","long":"114.137535"},{"id":"002227","name":"薄扶林村, 薄扶林道","lat":"22.260643","long":"114.136122"},{"id":"002228","name":"薄扶林水塘道, 薄扶林道","lat":"22.262870","long":"114.134906"},{"id":"002229","name":"嘉林閣, 薄扶林道","lat":"22.264648","long":"114.133285"},{"id":"002230","name":"心光學校, 薄扶林道","lat":"22.267097","long":"114.132139"},{"id":"002231","name":"瑪麗醫院, 薄扶林道","lat":"22.269073","long":"114.130633"},{"id":"002232","name":"香港華人基督教聯會薄扶林道墳場, 薄扶林道","lat":"22.274060","long":"114.129880"},{"id":"001109","name":"摩星嶺道, 薄扶林道","lat":"22.278377","long":"114.130955"},{"id":"001110","name":"富林苑, 薄扶林道","lat":"22.279835","long":"114.131265"},{"id":"001111","name":"蒲飛路, 薄扶林道","lat":"22.282023","long":"114.132233"},{"id":"001112","name":"何東夫人堂, 薄扶林道","lat":"22.283611","long":"114.132960"},{"id":"001113","name":"香港大學百周年校園, 薄扶林道","lat":"22.284286","long":"114.134913"},{"id":"002678","name":"中山紀念公園, 干諾道西","lat":"22.289041","long":"114.144346"},{"id":"001028","name":"港澳碼頭, 干諾道中","lat":"22.287715","long":"114.151337"},{"id":"001107","name":"中區政府碼頭, 民光街","lat":"22.287446","long":"114.154819"},{"id":"001170","name":"中環碼頭 - 愉景灣渡輪, 民光街","lat":"22.287371","long":"114.157617"},{"id":"001026","name":"中環碼頭 - 長洲及南丫島渡輪","lat":"22.286879","long":"114.159199"},{"id":"001144","name":"國際金融中心二期, 民耀街","lat":"22.285016","long":"114.159945"},{"id":"001032","name":"中環 (交易廣場)","lat":"22.283696","long":"114.158033"},{"id":"001034","name":"砵典乍街, 干諾道中","lat":"22.283588","long":"114.157304"}],"routeId":"4X","description":"正常班次"}]