[{"company":"gmb","route":"50A","routeType":1,"orig":"上水站","dest":"古洞(南)","stopList":[{"id":20001384,"name":"上水站小巴總站","lat":"22.502043","long":"114.127785"},{"id":20003205,"name":"新豐路,近石湖墟郵政局","lat":"22.503840","long":"114.126687"},{"id":20012274,"name":"寶石湖路,近彩蒲苑彩顏閣","lat":"22.501176","long":"114.123790"},{"id":20013004,"name":"青山公路　－　古洞段,　近　香港哥爾夫球會場地部","lat":"22.501332","long":"114.116991"},{"id":20013005,"name":"青山公路　－　古洞段,　近　沙爾德聖保祿女修會聖保祿樂靜院","lat":"22.503186","long":"114.107169"},{"id":20013006,"name":"古洞路,　近　天巒","lat":"22.502165","long":"114.105458"},{"id":20013007,"name":"金錢路,　近　金錢","lat":"22.500765","long":"114.110417"},{"id":20013008,"name":"古洞路,　近　何東麥夫人醫局","lat":"22.502229","long":"114.098918"}],"routeId":2005322,"description":"額外班次"},{"company":"gmb","route":"50A","routeType":2,"orig":"古洞(南)","dest":"上水站","stopList":[{"id":20013008,"name":"古洞路,　近　何東麥夫人醫局","lat":"22.502229","long":"114.098918"},{"id":20013007,"name":"金錢路,　近　金錢","lat":"22.500765","long":"114.110417"},{"id":20013005,"name":"青山公路　－　古洞段,　近　沙爾德聖保祿女修會聖保祿樂靜院","lat":"22.503186","long":"114.107169"},{"id":20013009,"name":"青山公路　－　古洞段,　近　高爾夫景園第三座","lat":"22.501396","long":"114.117179"},{"id":20012281,"name":"寶石湖路,近彩蒲苑彩顏閣","lat":"22.501531","long":"114.123489"},{"id":20020722,"name":"彩園路,近彩蒲苑彩碧閣","lat":"22.502621","long":"114.124936"},{"id":20007525,"name":"新豐路,近石湖墟郵政局","lat":"22.503822","long":"114.126813"},{"id":20001384,"name":"上水站小巴總站","lat":"22.502043","long":"114.127785"}],"routeId":2005322,"description":"額外班次"}]