[{"company":"gmb","route":"50A","routeType":1,"orig":"上水站","dest":"古洞(南)","stopList":[{"id":20001384,"name":"上水站小巴總站","lat":22.5020433782143,"long":114.12778544281537},{"id":20003205,"name":"新豐路,近石湖墟郵政局","lat":22.503840086979775,"long":114.12668658620015},{"id":20012274,"name":"寶石湖路,近彩蒲苑彩顏閣","lat":22.501175553649194,"long":114.12378962128892},{"id":20013004,"name":"青山公路　－　古洞段,　近　香港哥爾夫球會場地部","lat":22.50133200553881,"long":114.11699116230012},{"id":20013005,"name":"青山公路　－　古洞段,　近　沙爾德聖保祿女修會聖保祿樂靜院","lat":22.50318554770127,"long":114.10716891288759},{"id":20013006,"name":"古洞路,　近　天巒","lat":22.502164615786345,"long":114.10545766353609},{"id":20013007,"name":"金錢路,　近　金錢","lat":22.500764539134938,"long":114.11041706800464},{"id":20013008,"name":"古洞路,　近　何東麥夫人醫局","lat":22.502229043751353,"long":114.09891843795778}],"routeId":2005322,"description":"額外班次"},{"company":"gmb","route":"50A","routeType":2,"orig":"古洞(南)","dest":"上水站","stopList":[{"id":20013008,"name":"古洞路,　近　何東麥夫人醫局","lat":22.502229043751353,"long":114.09891843795778},{"id":20013007,"name":"金錢路,　近　金錢","lat":22.500764539134938,"long":114.11041706800464},{"id":20013005,"name":"青山公路　－　古洞段,　近　沙爾德聖保祿女修會聖保祿樂靜院","lat":22.50318554770127,"long":114.10716891288759},{"id":20013009,"name":"青山公路　－　古洞段,　近　高爾夫景園第三座","lat":22.501396433891635,"long":114.11717891693117},{"id":20012281,"name":"寶石湖路,近彩蒲苑彩顏閣","lat":22.50153149885346,"long":114.12348910635191},{"id":20020722,"name":"彩園路,近彩蒲苑彩碧閣","lat":22.502620566893228,"long":114.12493586540224},{"id":20007525,"name":"新豐路,近石湖墟郵政局","lat":22.50382206549488,"long":114.12681293691146},{"id":20001384,"name":"上水站小巴總站","lat":22.5020433782143,"long":114.12778544281537}],"routeId":2005322,"description":"額外班次"}]