[{"company":"kmb","route":"51","routeType":"1","dir":"O","orig":"荃灣(如心廣場)","dest":"上村(循環線)","stopList":[{"id":"48DD17194BE645B3","name":"如心廣場巴士總站","lat":"22.368208","long":"114.112490"},{"id":"A60AE774B09A5E44","name":"荃灣大河道","lat":"22.371519","long":"114.114991"},{"id":"03D5CB9EBB6602B2","name":"荃灣站","lat":"22.373998","long":"114.117706"},{"id":"AF3BDAE9EB45140B","name":"白田壩村","lat":"22.375968","long":"114.119695"},{"id":"689777DDA619DFEE","name":"光板田村一段","lat":"22.379694","long":"114.112769"},{"id":"F7164FC020799C65","name":"光板田村二段","lat":"22.381941","long":"114.112060"},{"id":"47BC8894350206A4","name":"曹公潭戶外康樂中心","lat":"22.384178","long":"114.108558"},{"id":"80FA8094437D7374","name":"下花山村","lat":"22.388064","long":"114.105708"},{"id":"38E1DDF855D4E59E","name":"大橋村","lat":"22.391971","long":"114.104296"},{"id":"39E29757C3E30AF3","name":"川龍","lat":"22.395399","long":"114.108599"},{"id":"69417DA14BA65CF5","name":"新開田村","lat":"22.399146","long":"114.108818"},{"id":"AE7783A75226B4F0","name":"大帽山郊野公園","lat":"22.407435","long":"114.105113"},{"id":"F2E0E1AC84064D9C","name":"荃錦公路觀景台","lat":"22.413279","long":"114.110030"},{"id":"3A0789C8229F06A5","name":"石崗村","lat":"22.420670","long":"114.112606"},{"id":"3DCE5DCBF0D70631","name":"石崗軍營","lat":"22.422543","long":"114.111857"},{"id":"28AA5B38F0901356","name":"雷公田村","lat":"22.427257","long":"114.108339"},{"id":"D836D3A347F7E74E","name":"石崗","lat":"22.429820","long":"114.106080"},{"id":"92B983D6E149A880","name":"上村總站","lat":"22.432100","long":"114.103279"},{"id":"812518F4873236DF","name":"石崗","lat":"22.430287","long":"114.105547"},{"id":"26CA82B2C5EAA374","name":"雷公田村","lat":"22.427657","long":"114.107962"},{"id":"5A7A7F6E0CE4FC28","name":"石崗軍營","lat":"22.422889","long":"114.112163"},{"id":"3225BC478032EE6E","name":"石崗村","lat":"22.421031","long":"114.112628"},{"id":"F656EDDC34092D80","name":"大帽山郊野公園","lat":"22.406696","long":"114.105348"},{"id":"7C732BB6C0CA633B","name":"圳下","lat":"22.396698","long":"114.109628"},{"id":"6A1A50A9E228AAA3","name":"川龍","lat":"22.395341","long":"114.108512"},{"id":"D488F77260EEB125","name":"大橋村","lat":"22.391763","long":"114.104432"},{"id":"57002D74B33D6A06","name":"光板田村四段","lat":"22.386807","long":"114.106762"},{"id":"F4B90466198A6DA7","name":"曹公潭戶外康樂中心","lat":"22.384190","long":"114.108610"},{"id":"083799458D086B59","name":"光板田村二段","lat":"22.381219","long":"114.112514"},{"id":"0E39F8C81264C50C","name":"光板田村一段","lat":"22.379484","long":"114.112715"},{"id":"43955BAE79EE5FB5","name":"木棉下村","lat":"22.376265","long":"114.116857"},{"id":"CE2E93A0D850F21F","name":"荃灣站","lat":"22.374157","long":"114.117969"},{"id":"48DD17194BE645B3","name":"如心廣場巴士總站","lat":"22.368208","long":"114.112490"}],"routeId":"51","description":"正常班次"},{"company":"gmb","route":"51","routeType":1,"orig":"田灣邨","dest":"香港仔(循環線)","stopList":[{"id":20000275,"name":"田灣邨道, 田澤樓外","lat":22.252634565700614,"long":114.15086499090242},{"id":20000276,"name":"田灣邨道, 鴻澤閣外","lat":22.251207638767212,"long":114.15036078831122},{"id":20009865,"name":"田灣街, 田灣商場外","lat":22.251176828096934,"long":114.14966315031053},{"id":20009868,"name":"石排灣道, 近田灣街","lat":22.248987270480228,"long":114.14904892444612},{"id":20000277,"name":"湖南街, 平安樓外","lat":22.247713456595765,"long":114.15498883194965},{"id":20000273,"name":"石排灣道 53 號","lat":22.24961122014702,"long":114.1481634061711},{"id":20003273,"name":"田灣街, 近嘉和街","lat":22.24991609215966,"long":114.14939091370596},{"id":20000274,"name":"田灣邨道, 田康樓外","lat":22.252219049868042,"long":114.15021507828752},{"id":20000275,"name":"田灣邨道, 田澤樓外","lat":22.252634565700614,"long":114.15086499090242}],"routeId":2002813,"description":"正常班次"}]