[{"company":"ctb","route":"511","routeType":null,"dir":"O","orig":"大坑徑","dest":"中環碼頭","stopList":[{"id":"002511","name":"柏園, 大坑徑","lat":"22.273617","long":"114.193024"},{"id":"002407","name":"慧景園, 春暉道","lat":"22.273449","long":"114.194150"},{"id":"002461","name":"金雲閣, 睦誠道","lat":"22.272589","long":"114.193828"},{"id":"002462","name":"渣甸山花園, 睦誠道","lat":"22.270876","long":"114.194277"},{"id":"002463","name":"睦誠徑, 睦誠道","lat":"22.269801","long":"114.194991"},{"id":"002464","name":"盛苑, 睦誠道","lat":"22.269409","long":"114.194401"},{"id":"002471","name":"畢拉山徑, 畢拉山道","lat":"22.267172","long":"114.193510"},{"id":"002472","name":"渣甸園, 畢拉山道","lat":"22.266296","long":"114.192338"},{"id":"002473","name":"渣甸臺, 畢拉山道","lat":"22.265237","long":"114.190729"},{"id":"002525","name":"畢拉山道, 大坑道","lat":"22.266390","long":"114.190466"},{"id":"002526","name":"渣甸山花園大廈, 大坑道","lat":"22.268758","long":"114.189914"},{"id":"002527","name":"白建時道, 大坑道","lat":"22.271106","long":"114.191482"},{"id":"002528","name":"瑞士花園, 大坑道","lat":"22.272945","long":"114.191876"},{"id":"002529","name":"龍風臺, 大坑道","lat":"22.274783","long":"114.191977"},{"id":"002530","name":"大寶閣, 大坑道","lat":"22.276889","long":"114.191495"},{"id":"002531","name":"優悠台, 大坑道","lat":"22.275810","long":"114.193239"},{"id":"002532","name":"香港真光中學, 大坑道","lat":"22.276325","long":"114.195202"},{"id":"002533","name":"利群道, 大坑道","lat":"22.276758","long":"114.194227"},{"id":"002534","name":"豪園, 大坑道","lat":"22.277983","long":"114.190766"},{"id":"002417","name":"國際調解院, 告士打道","lat":"22.279365","long":"114.175022"},{"id":"002421","name":"分域街, 告士打道","lat":"22.279171","long":"114.170964"},{"id":"001074","name":"金鐘 - 海富中心, 夏慤道","lat":"22.279523","long":"114.165144"},{"id":"001033","name":"皇后像廣場, 干諾道中","lat":"22.281992","long":"114.160038"},{"id":"001143","name":"國際金融中心二期, 民耀街","lat":"22.284965","long":"114.159820"},{"id":"001145","name":"中環碼頭 - 巴士總站","lat":"22.286355","long":"114.159735"}],"routeId":"511","description":"正常班次"}]