[{"company":"kmb","route":"52P","routeType":"1","dir":"O","orig":"掃管笏","dest":"旺角(柏景灣)","stopList":[{"id":"42FA8BD1F55BACEC","name":"掃管笏 (TM365)","lat":"22.373242","long":"114.003079"},{"id":"130015EE1C05A484","name":"掃管笏路 (TM403)","lat":"22.374274","long":"114.002279"},{"id":"0F9DE5E3F13FBABA","name":"星堤 (TM406)","lat":"22.375593","long":"113.999537"},{"id":"FCE8D0E0D2A89B8B","name":"管翠路 (TM407)","lat":"22.375103","long":"113.997705"},{"id":"D77779E531F14725","name":"愛琴海岸 (TM410)","lat":"22.371429","long":"113.995269"},{"id":"4F64DA53415F3128","name":"嘉和里村 (TM316)","lat":"22.369391","long":"113.995422"},{"id":"BF7FD3BC4994EBE5","name":"小秀村 (TM318)","lat":"22.368015","long":"113.998665"},{"id":"9DC117C78DBDB1A7","name":"愛琴灣 (TM320)","lat":"22.366437","long":"114.002570"},{"id":"BD52FF1BA0AC99BE","name":"小欖新村 (TM323)","lat":"22.366438","long":"114.006441"},{"id":"1F2376A52800A2CA","name":"小欖村 (TM325)","lat":"22.366308","long":"114.011269"},{"id":"0B72FFAB7F7230E4","name":"小欖澄麗路 (TM326)","lat":"22.365493","long":"114.013000"},{"id":"620557B9486BE4BF","name":"屯門公路轉車站 (A12) (TM744)","lat":"22.362720","long":"114.015802"},{"id":"E3E5521CAFDD5DCE","name":"大欖涌 (TM328)","lat":"22.361543","long":"114.019334"},{"id":"D3CA3780D3E342FC","name":"嘉龍村 (TW330)","lat":"22.356655","long":"114.032725"},{"id":"6FBEA411A4940B6C","name":"御海峰 (TW331)","lat":"22.357785","long":"114.035574"},{"id":"1064E673770C38BC","name":"豪景花園 (TW332)","lat":"22.360788","long":"114.042278"},{"id":"2DFE2D85D53C1114","name":"青龍頭村 (TW333)","lat":"22.361500","long":"114.046195"},{"id":"C4E03BB27317AF35","name":"浪翠園第四期 (TW335)","lat":"22.362370","long":"114.050728"},{"id":"30DD3451F8D64883","name":"浪翠園第三期 (TW337)","lat":"22.364022","long":"114.054374"},{"id":"8AFF8B43EC3E547F","name":"馬灣碼頭 (TW339)","lat":"22.365504","long":"114.056578"},{"id":"EEC0C32452B6ABA3","name":"深井村 (TW341)","lat":"22.367096","long":"114.059163"},{"id":"ED9E5ACF98190E5C","name":"海韻花園 (TW346)","lat":"22.367721","long":"114.061674"},{"id":"50E78EB09845863E","name":"美孚轉車站 (C2) (SS463)","lat":"22.337202","long":"114.141455"},{"id":"8BCB786E1F1A2457","name":"荔枝角站 (Y1) (SS465)","lat":"22.337301","long":"114.147868"},{"id":"5CF51F3B971D4D56","name":"昌華街 (Y8) (SS472)","lat":"22.338556","long":"114.152201"},{"id":"AAB25066B96C6588","name":"元州邨 (Y14) (SS478)","lat":"22.335706","long":"114.156039"},{"id":"8CE4B83B45F22F1F","name":"九龍工業學校 (Y17) (SS481)","lat":"22.333804","long":"114.158553"},{"id":"812E72C257C94B73","name":"深水埗北河街 (Y27) (SS491)","lat":"22.330678","long":"114.162566"},{"id":"18C138014DF5B0C8","name":"深水埗楓樹街 (SS496)","lat":"22.327770","long":"114.166334"},{"id":"0FDE3A87457539BC","name":"旺角警署 (S6) (MK505)","lat":"22.324742","long":"114.168398"},{"id":"30B08A7B2B2B623F","name":"西洋菜南街 旺角站 (MK342)","lat":"22.320135","long":"114.169894"},{"id":"7ADC6D521E6BECE6","name":"旺角街市 (MK626)","lat":"22.318792","long":"114.167024"},{"id":"E02E10C9135624F9","name":"銘基書院 (MK632)","lat":"22.318599","long":"114.164385"},{"id":"145515B1D2C60CAF","name":"海富苑 柏景灣 (MK120)","lat":"22.316269","long":"114.163931"},{"id":"835DE31CDA7EBEC9","name":"旺角(柏景灣)總站 (MK911)","lat":"22.315857","long":"114.163122"}],"routeId":"52P","description":"正常班次"}]