[{"company":"ctb","route":"56","routeType":null,"dir":"I","orig":"上水 (天平邨)","dest":"屯門 (和田及菁田)","stopList":[{"id":"003766","name":"天平邨","lat":"22.503659882091","long":"114.13375798053"},{"id":"003719","name":"天平邨天怡樓, 龍琛路","lat":"22.505134052091","long":"114.13145244053"},{"id":"003768","name":"龍豐花園, 龍琛路","lat":"22.503083362091","long":"114.12940387053"},{"id":"003849","name":"上水站 - D1 出口, 新運路","lat":"22.502204212091","long":"114.12721468053"},{"id":"003769","name":"掃管埔村, 新運路","lat":"22.499579912091","long":"114.13056420053"},{"id":"003351","name":"五柳路, 青麟路","lat":"22.415444592091","long":"113.97967649053"},{"id":"003209","name":"欣田邨, 青麟路","lat":"22.414752742091","long":"113.97739414053"},{"id":"003210","name":"兆康苑兆賢閣, 青麟路","lat":"22.410168172091","long":"113.97649585053"},{"id":"003211","name":"屯門醫院, 青麟路","lat":"22.408502142091","long":"113.97545383053"},{"id":"003263","name":"寶怡花園, 震寰路","lat":"22.408364952091","long":"113.96884146053"},{"id":"003752","name":"和田邨","lat":"22.412549252091","long":"113.96862576053"},{"id":"003753","name":"NOVO LAND, 欣寶路","lat":"22.412257952091","long":"113.97055056053"}],"routeId":"56","description":"正常班次"},{"company":"ctb","route":"56","routeType":null,"dir":"O","orig":"屯門 (和田及菁田)","dest":"上水 (天平邨)","stopList":[{"id":"003760","name":"菁田邨","lat":"22.412601532091","long":"113.97151738053"},{"id":"003767","name":"NOVO LAND, 欣寶路","lat":"22.411996442091","long":"113.97034985053"},{"id":"003752","name":"和田邨","lat":"22.412549252091","long":"113.96862576053"},{"id":"003260","name":"大興警署, 震寰路","lat":"22.407836072091","long":"113.97059260053"},{"id":"003206","name":"麒麟圍, 青麟路","lat":"22.410991742091","long":"113.97650641053"},{"id":"003207","name":"欣田邨, 青麟路","lat":"22.414224942091","long":"113.97713451053"},{"id":"003350","name":"五柳路, 青麟路","lat":"22.415551182091","long":"113.97975789053"},{"id":"003378","name":"上水站 - D2 出口, 新運路","lat":"22.501968352091","long":"114.12748401053"},{"id":"003764","name":"新成路, 龍琛路","lat":"22.503690122091","long":"114.12989419053"},{"id":"003765","name":"龍琛路體育館, 龍琛路","lat":"22.505474462091","long":"114.13158294053"},{"id":"003766","name":"天平邨","lat":"22.503659882091","long":"114.13375798053"}],"routeId":"56","description":"正常班次"},{"company":"gmb","route":"56","routeType":1,"orig":"羅便臣道","dest":"馬寶道","stopList":[{"id":20000302,"name":"羅便臣道, 秀麗閣對面","lat":22.28272327689679,"long":114.14314520919599},{"id":20003559,"name":"屋蘭士里","lat":22.283183814989272,"long":114.14302865729381},{"id":20003278,"name":"列堤頓道, 近聖士提反女子中學","lat":22.283608616614394,"long":114.14481399830686},{"id":20000303,"name":"般咸道, 近正街","lat":22.284574344021205,"long":114.1421355953706},{"id":20000016,"name":"般咸道, 近西營盤站 C 出口","lat":22.28438494942358,"long":114.14331947504087},{"id":20000173,"name":"般咸道, 醫院道","lat":22.283681351890667,"long":114.14740481635177},{"id":20000017,"name":"堅道, 樓梯街","lat":22.28315782406536,"long":114.14881192823321},{"id":20000018,"name":"堅道, 城皇街","lat":22.282823933671065,"long":114.15025780753024},{"id":20000304,"name":"堅道，近衛城道","lat":22.282336387612727,"long":114.15092743479212},{"id":20000305,"name":"堅道19號","lat":22.280133372632893,"long":114.15399406940413},{"id":20000020,"name":"金鐘道, 金鐘廊外","lat":22.278463856092646,"long":114.16468720195424},{"id":20000307,"name":"皇后大道東及金鐘道交界","lat":22.277723541721667,"long":114.16771463002164},{"id":20000308,"name":"皇后大道東, 合和中心對面","lat":22.275113864325917,"long":114.17180942724717},{"id":20000309,"name":"皇后大道東, 近灣仔道","lat":22.274499832294484,"long":114.1739343772517},{"id":20000310,"name":"皇后大道東, 聖若瑟小學外","lat":22.275150064372628,"long":114.17670939697919},{"id":20000152,"name":"皇后大道東, 伊利沙伯體育館外","lat":22.274942348716497,"long":114.17870819426692},{"id":20002497,"name":"禮頓道, 禮頓中心外","lat":22.277479855102833,"long":114.18293876831063},{"id":20000311,"name":"邊寧頓街利園二期外","lat":22.278536296215762,"long":114.18599530536028},{"id":20000242,"name":"高士威道, 維園","lat":22.280929165310813,"long":114.18968271972805},{"id":20000268,"name":"銀幕街7-9號","lat":22.283484612109316,"long":114.19224467411597},{"id":20003562,"name":"麥連街","lat":22.287205239829674,"long":114.19216745213171},{"id":20000312,"name":"電氣道, 近市政大廈","lat":22.289498865344036,"long":114.19372032685781},{"id":20000313,"name":"電氣道, 近城市花園","lat":22.290293484183884,"long":114.19443851521406},{"id":20000314,"name":"渣華道, 近書局街","lat":22.2924510123003,"long":114.20063970956836},{"id":20000210,"name":"馬寶道, 華禮大廈外","lat":22.292026411372348,"long":114.20171679018387}],"routeId":2001129,"description":"正常班次"},{"company":"gmb","route":"56","routeType":2,"orig":"馬寶道","dest":"羅便臣道","stopList":[{"id":20000210,"name":"馬寶道,華禮大廈外","lat":22.292026411372348,"long":114.20171679018387},{"id":20000315,"name":"英皇道, 近港鐵北角站","lat":22.291222771122197,"long":114.2011538146356},{"id":20002502,"name":"英皇道, 明園西街","lat":22.29067227969494,"long":114.19849482786593},{"id":20000318,"name":"英皇道, 近北角中心大廈","lat":22.289661285863993,"long":114.19493333562625},{"id":20000267,"name":"英皇道,近炮台山站入口","lat":22.288487416753334,"long":114.19389487431116},{"id":20003563,"name":"英皇道, 近留仙街","lat":22.28320463548407,"long":114.19252604400394},{"id":20008182,"name":"高士威道, 近皇仁書院","lat":22.281253155620398,"long":114.1906660795212},{"id":20007313,"name":"渣甸街, 京華中心","lat":22.279782591665448,"long":114.18471455991612},{"id":20006937,"name":"摩理臣山道, 跑馬地馬場","lat":22.275283478182658,"long":114.18016095825807},{"id":20000136,"name":"皇后大道東, 近香港華仁書院","lat":22.274797867402732,"long":114.17603989795705},{"id":20000138,"name":"皇后大道東, 合和中心外","lat":22.274969373427783,"long":114.17179002659992},{"id":20000007,"name":"皇后大道東, 太古廣場第三座外","lat":22.27719076451948,"long":114.16827744164507},{"id":20000324,"name":"金鐘道, 太古廣場外","lat":22.27800333525116,"long":114.16525972516638},{"id":20000026,"name":"紅棉路, 香港壁球中心外","lat":22.277623631260738,"long":114.16041791782935},{"id":20002713,"name":"羅便臣道1號","lat":22.276584458434343,"long":114.15491643159014},{"id":20000325,"name":"羅便臣道, 近利德大廈","lat":22.27919383612107,"long":114.15162664329051},{"id":20003565,"name":"羅便臣道65號","lat":22.28090936539658,"long":114.14981181702929},{"id":20003566,"name":"羅便臣道101號","lat":22.282489181965794,"long":114.1467161231064},{"id":20006946,"name":"屋蘭士街","lat":22.282542809635565,"long":114.1438536022018},{"id":20003567,"name":"列堤頓道, 近巴丙頓道","lat":22.28290351780753,"long":114.1413985456653},{"id":20000302,"name":"羅便臣道, 秀麗閣對面","lat":22.28272327689679,"long":114.14314520919599}],"routeId":2001129,"description":"正常班次"},{"company":"gmb","route":"56","routeType":1,"orig":"麗晶花園","dest":"崇仁街","stopList":[{"id":20000960,"name":"麗晶花園小巴總站","lat":22.329547806580152,"long":114.20626616261018},{"id":20000986,"name":"啟仁街, 九龍灣健康中心那打素謢養院外","lat":22.328716891565477,"long":114.20681926519013},{"id":20000894,"name":"啟禮道, 佛教慈敬學校外","lat":22.32759700868414,"long":114.20730435257542},{"id":20000895,"name":"宏照道, 九龍灣運動場外","lat":22.326711759751994,"long":114.20861453426063},{"id":20000808,"name":"牛頭角道, 牛頭角市政大廈外","lat":22.32182451782405,"long":114.21632009882192},{"id":20000987,"name":"牛頭角道, 近⽜頭⾓上邨常泰樓外巴⼠站","lat":22.320000555816364,"long":114.21541692679864},{"id":20000988,"name":"牛頭角道, 花園大廈喜鵲樓外","lat":22.31719152883895,"long":114.21751261059437},{"id":20000809,"name":"牛頭角道, 玉蓮臺外","lat":22.31530346091884,"long":114.22011318675642},{"id":20000989,"name":"崇仁街, 南華大樓外","lat":22.31569052631208,"long":114.22456822717497}],"routeId":2001524,"description":"正常班次"},{"company":"gmb","route":"56","routeType":2,"orig":"崇仁街","dest":"麗晶花園","stopList":[{"id":20000989,"name":"崇仁街, 南華大樓外","lat":22.31569052631208,"long":114.22456822717497},{"id":20000990,"name":"牛頭角道, 寶峰大廈外","lat":22.3148061750975,"long":114.22231621585533},{"id":20000815,"name":"牛頭角道, 玉蓮臺第2座對面","lat":22.315366773114366,"long":114.21974439012195},{"id":20000991,"name":"牛頭角道, 觀塘官立小學外","lat":22.316640522801407,"long":114.21806568017283},{"id":20000992,"name":"牛頭角道, 安德大廈外","lat":22.3185014357564,"long":114.21559122098328},{"id":20000993,"name":"⽜頭⾓道, 近⽜頭⾓下邨貴輝樓外巴⼠站","lat":22.32046109749163,"long":114.21549470173636},{"id":20008479,"name":"牛頭角道, 牛頭角市政大廈對面","lat":22.321711344711463,"long":114.21609073877336},{"id":20000994,"name":"牛頭角道, 淘大花園A座對面","lat":22.324488765674843,"long":114.2153890418633},{"id":20000960,"name":"麗晶花園小巴總站","lat":22.329547806580152,"long":114.20626616261018}],"routeId":2001524,"description":"正常班次"}]