[{"company":"ctb","route":"56","routeType":null,"dir":"I","orig":"上水 (天平邨)","dest":"屯門 (和田及菁田)","stopList":[{"id":"003766","name":"天平邨","lat":"22.503660","long":"114.133758"},{"id":"003719","name":"天平邨天怡樓, 龍琛路","lat":"22.505134","long":"114.131452"},{"id":"003768","name":"龍豐花園, 龍琛路","lat":"22.503083","long":"114.129404"},{"id":"003849","name":"上水站 - D1 出口, 新運路","lat":"22.502204","long":"114.127215"},{"id":"003769","name":"掃管埔村, 新運路","lat":"22.499580","long":"114.130564"},{"id":"003351","name":"五柳路, 藍地交匯處","lat":"22.415445","long":"113.979676"},{"id":"003209","name":"欣田邨, 青麟路","lat":"22.414753","long":"113.977394"},{"id":"003210","name":"兆康苑兆賢閣, 青麟路","lat":"22.410168","long":"113.976496"},{"id":"003211","name":"屯門醫院, 青麟路","lat":"22.408502","long":"113.975454"},{"id":"003263","name":"寶怡花園, 震寰路","lat":"22.408365","long":"113.968841"},{"id":"003752","name":"和田邨","lat":"22.412840","long":"113.968639"},{"id":"003753","name":"NOVO LAND, 欣寶路","lat":"22.412258","long":"113.970551"},{"id":"003760","name":"菁田邨","lat":"22.412909","long":"113.972412"}],"routeId":"56","description":"正常班次"},{"company":"ctb","route":"56","routeType":null,"dir":"O","orig":"屯門 (和田及菁田)","dest":"上水 (天平邨)","stopList":[{"id":"003760","name":"菁田邨","lat":"22.412909","long":"113.972412"},{"id":"003767","name":"NOVO LAND, 欣寶路","lat":"22.411996","long":"113.970350"},{"id":"003752","name":"和田邨","lat":"22.412840","long":"113.968639"},{"id":"003260","name":"大興警署, 震寰路","lat":"22.407836","long":"113.970593"},{"id":"003206","name":"麒麟圍, 青麟路","lat":"22.410992","long":"113.976506"},{"id":"003207","name":"欣田邨, 青麟路","lat":"22.414225","long":"113.977135"},{"id":"003350","name":"五柳路, 藍地交匯處","lat":"22.415551","long":"113.979758"},{"id":"003378","name":"上水站 - D2 出口, 新運路","lat":"22.501968","long":"114.127484"},{"id":"003764","name":"新成路, 龍琛路","lat":"22.503690","long":"114.129894"},{"id":"003765","name":"龍琛路體育館, 龍琛路","lat":"22.505474","long":"114.131583"},{"id":"003766","name":"天平邨","lat":"22.503660","long":"114.133758"}],"routeId":"56","description":"正常班次"},{"company":"gmb","route":"56","routeType":1,"orig":"羅便臣道","dest":"馬寶道","stopList":[{"id":20000302,"name":"羅便臣道, 秀麗閣對面","lat":"22.282723","long":"114.143145"},{"id":20003559,"name":"屋蘭士里","lat":"22.283184","long":"114.143029"},{"id":20003278,"name":"列堤頓道, 近聖士提反女子中學","lat":"22.283609","long":"114.144814"},{"id":20020098,"name":"般咸道, 近好景洋樓","lat":"22.284826","long":"114.141170"},{"id":20000303,"name":"般咸道, 近正街","lat":"22.284574","long":"114.142136"},{"id":20000016,"name":"般咸道, 近西營盤站 C 出口","lat":"22.284385","long":"114.143319"},{"id":20021184,"name":"般咸道, 近高街","lat":"22.284788","long":"114.145880"},{"id":20000173,"name":"般咸道, 近醫院道","lat":"22.283681","long":"114.147405"},{"id":20000017,"name":"堅道, 近樓梯街","lat":"22.283158","long":"114.148812"},{"id":20000018,"name":"堅道, 近城皇街","lat":"22.282824","long":"114.150258"},{"id":20000304,"name":"堅道，近衛城道","lat":"22.282336","long":"114.150927"},{"id":20020099,"name":"堅道, 近卑利街","lat":"22.281559","long":"114.151801"},{"id":20000305,"name":"堅道19號","lat":"22.280133","long":"114.153994"},{"id":20000020,"name":"金鐘道, 近金鐘站C1出口","lat":"22.278464","long":"114.164687"},{"id":20000307,"name":"皇后大道東, 近金鐘道","lat":"22.277578","long":"114.167940"},{"id":20020100,"name":"皇后大道東100號","lat":"22.276290","long":"114.169947"},{"id":20000308,"name":"皇后大道東, 合和中心對面","lat":"22.275114","long":"114.171809"},{"id":20000309,"name":"皇后大道東, 近灣仔道","lat":"22.274500","long":"114.173934"},{"id":20000310,"name":"皇后大道東, 聖若瑟小學外","lat":"22.275150","long":"114.176709"},{"id":20000152,"name":"皇后大道東, 伊利沙伯體育館外","lat":"22.274942","long":"114.178708"},{"id":20002497,"name":"禮頓道, 禮頓中心外","lat":"22.277480","long":"114.182939"},{"id":20020101,"name":"禮頓道, 雲翠大廈外","lat":"22.277590","long":"114.184414"},{"id":20000311,"name":"邊寧頓街利園二期外","lat":"22.278536","long":"114.185995"},{"id":20000242,"name":"高士威道, 維園外","lat":"22.280929","long":"114.189683"},{"id":20000268,"name":"銀幕街, 海景軒外","lat":"22.283485","long":"114.192245"},{"id":20003562,"name":"麥連街","lat":"22.287205","long":"114.192167"},{"id":20000312,"name":"電氣道, 近市政大廈","lat":"22.289499","long":"114.193720"},{"id":20000313,"name":"電氣道, 近城市花園","lat":"22.290293","long":"114.194439"},{"id":20020102,"name":"渣華道9號","lat":"22.291318","long":"114.195717"},{"id":20000314,"name":"渣華道, 近書局街","lat":"22.292451","long":"114.200640"},{"id":20000210,"name":"馬寶道, 華禮大廈外","lat":"22.292026","long":"114.201717"}],"routeId":2001129,"description":"正常班次"},{"company":"gmb","route":"56","routeType":2,"orig":"馬寶道","dest":"羅便臣道","stopList":[{"id":20000210,"name":"馬寶道,華禮大廈外","lat":"22.292026","long":"114.201717"},{"id":20000315,"name":"英皇道, 近港鐵北角站","lat":"22.291223","long":"114.201154"},{"id":20021289,"name":"英皇道, 近新都城大廈","lat":"22.290804","long":"114.199206"},{"id":20002502,"name":"英皇道, 明園西街","lat":"22.290672","long":"114.198495"},{"id":20000318,"name":"英皇道, 近北角中心大廈","lat":"22.289661","long":"114.194933"},{"id":20000267,"name":"英皇道,近炮台山站入口","lat":"22.288487","long":"114.193895"},{"id":20003563,"name":"英皇道, 近留仙街","lat":"22.283205","long":"114.192526"},{"id":20008182,"name":"高士威道, 近皇仁書院","lat":"22.281253","long":"114.190666"},{"id":20020095,"name":"高士威道, 近摩頓臺","lat":"22.279808","long":"114.188542"},{"id":20007313,"name":"渣甸街, 近京華中心","lat":"22.279783","long":"114.184715"},{"id":20006937,"name":"摩理臣山道, 近跑馬地馬場","lat":"22.275283","long":"114.180161"},{"id":20000136,"name":"皇后大道東, 近華仁書院","lat":"22.274798","long":"114.176040"},{"id":20000138,"name":"皇后大道東, 合和中心外","lat":"22.274969","long":"114.171790"},{"id":20000007,"name":"皇后大道東, 太古廣場第三座外","lat":"22.277191","long":"114.168277"},{"id":20000324,"name":"金鐘道, 太古廣場外","lat":"22.278003","long":"114.165260"},{"id":20000026,"name":"紅棉路, 香港壁球中心外","lat":"22.277624","long":"114.160418"},{"id":20002713,"name":"羅便臣道1號","lat":"22.276584","long":"114.154916"},{"id":20020096,"name":"羅便臣道, 近薈萃苑","lat":"22.278581","long":"114.153106"},{"id":20000325,"name":"羅便臣道, 近利德大廈","lat":"22.279194","long":"114.151627"},{"id":20021290,"name":"羅便臣道, 慧豪閣外","lat":"22.279606","long":"114.150690"},{"id":20003565,"name":"羅便臣道, 近燕貽大廈","lat":"22.280909","long":"114.149812"},{"id":20003566,"name":"羅便臣道, 英華女學校對面","lat":"22.282489","long":"114.146716"},{"id":20006946,"name":"屋蘭士街","lat":"22.282543","long":"114.143854"},{"id":20003567,"name":"列堤頓道, 近巴丙頓道","lat":"22.282904","long":"114.141399"},{"id":20000302,"name":"羅便臣道, 秀麗閣對面","lat":"22.282723","long":"114.143145"}],"routeId":2001129,"description":"正常班次"},{"company":"gmb","route":"56","routeType":1,"orig":"麗晶花園","dest":"崇仁街","stopList":[{"id":20000960,"name":"麗晶花園小巴總站","lat":"22.329548","long":"114.206266"},{"id":20000986,"name":"啟仁街, 九龍灣健康中心那打素謢養院外","lat":"22.328717","long":"114.206819"},{"id":20000894,"name":"啟禮道, 佛教慈敬學校外","lat":"22.327597","long":"114.207304"},{"id":20000895,"name":"宏照道, 九龍灣運動場外","lat":"22.326712","long":"114.208615"},{"id":20000808,"name":"牛頭角道, 牛頭角市政大廈外","lat":"22.321825","long":"114.216320"},{"id":20000987,"name":"牛頭角道, 近⽜頭⾓上邨常泰樓外巴⼠站","lat":"22.320592","long":"114.215718"},{"id":20000988,"name":"牛頭角道, 花園大廈喜鵲樓外","lat":"22.317192","long":"114.217513"},{"id":20000809,"name":"牛頭角道, 玉蓮臺外","lat":"22.315303","long":"114.220113"},{"id":20000989,"name":"崇仁街, 南華大樓外","lat":"22.315691","long":"114.224568"}],"routeId":2001524,"description":"正常班次"},{"company":"gmb","route":"56","routeType":2,"orig":"崇仁街","dest":"麗晶花園","stopList":[{"id":20000989,"name":"崇仁街, 南華大樓外","lat":"22.315691","long":"114.224568"},{"id":20000990,"name":"牛頭角道, 寶峰大廈外","lat":"22.314806","long":"114.222316"},{"id":20000815,"name":"牛頭角道, 玉蓮臺第2座對面","lat":"22.315367","long":"114.219744"},{"id":20000991,"name":"牛頭角道, 觀塘官立小學外","lat":"22.316641","long":"114.218066"},{"id":20000992,"name":"牛頭角道, 安德大廈外","lat":"22.318501","long":"114.215591"},{"id":20000993,"name":"⽜頭⾓道, 近⽜頭⾓下邨貴輝樓外巴⼠站","lat":"22.320461","long":"114.215495"},{"id":20008479,"name":"牛頭角道, 牛頭角市政大廈對面","lat":"22.321711","long":"114.216091"},{"id":20000994,"name":"牛頭角道, 淘大花園A座對面","lat":"22.324489","long":"114.215389"},{"id":20000960,"name":"麗晶花園小巴總站","lat":"22.329548","long":"114.206266"}],"routeId":2001524,"description":"正常班次"}]