[{"company":"gmb","route":"56C","routeType":1,"orig":"粉嶺站","dest":"小坑村","stopList":[{"id":20007810,"name":"粉嶺站專綫小巴總站","lat":"22.493036","long":"114.138575"},{"id":20007627,"name":"聯和墟球場","lat":"22.497505","long":"114.143074"},{"id":20007259,"name":"小坑村通道,新屋村休憩處外","lat":"22.503240","long":"114.148058"},{"id":20003341,"name":"宣道園","lat":"22.505696","long":"114.147397"},{"id":20007260,"name":"小坑村","lat":"22.509128","long":"114.146881"}],"routeId":2001025,"description":"正常班次"},{"company":"gmb","route":"56C","routeType":2,"orig":"小坑村","dest":"粉嶺站","stopList":[{"id":20007260,"name":"小坑村","lat":"22.509128","long":"114.146881"},{"id":20003341,"name":"宣道園","lat":"22.505696","long":"114.147397"},{"id":20007261,"name":"小坑村通道,新屋村休憩處對面","lat":"22.503331","long":"114.148155"},{"id":20004529,"name":"聯發街,燈柱EA8498外","lat":"22.497731","long":"114.142277"},{"id":20001456,"name":"祥頌樓","lat":"22.492474","long":"114.140228"},{"id":20007810,"name":"粉嶺站專綫小巴總站","lat":"22.493036","long":"114.138575"}],"routeId":2001025,"description":"正常班次"}]