[{"company":"ctb","route":"582","routeType":null,"dir":"I","orig":"西沙及十四鄉","dest":"白石角 (經大學站)","stopList":[{"id":"003831","name":"西沙GO PARK, 海映路","lat":"22.427089812091","long":"114.26587060053"},{"id":"003832","name":"田寮, 西沙路","lat":"22.425568932091","long":"114.26271681053"},{"id":"003833","name":"官坑, 西沙路","lat":"22.427944162091","long":"114.26127147053"},{"id":"003834","name":"西澳, 西沙路","lat":"22.430695922091","long":"114.25409589053"},{"id":"003457","name":"樟木頭帝琴灣, 西沙路","lat":"22.430093422091","long":"114.25115679053"},{"id":"003841","name":"大學站","lat":"22.412433952091","long":"114.21104821053"},{"id":"003743","name":"馬料水公眾碼頭, 科學園路","lat":"22.415903682091","long":"114.21369382053"},{"id":"003744","name":"水上活動中心, 科學園路","lat":"22.419991972091","long":"114.21418574053"},{"id":"003745","name":"香港生物科技研究院, 科學園路","lat":"22.422587832091","long":"114.21398385053"},{"id":"003839","name":"香港科學園, 科技大道西","lat":"22.424808412091","long":"114.21211687053"},{"id":"003840","name":"香港科學園第三期, 科技大道西","lat":"22.426594992091","long":"114.20930796053"},{"id":"003748","name":"雲滙, 創新路","lat":"22.429526792091","long":"114.20329357053"},{"id":"003838","name":"白石角","lat":"22.431222172091","long":"114.20211548053"}],"routeId":"582","description":"正常班次"},{"company":"ctb","route":"582","routeType":null,"dir":"O","orig":"白石角 (經大學站)","dest":"西沙及十四鄉","stopList":[{"id":"003838","name":"白石角","lat":"22.431222172091","long":"114.20211548053"},{"id":"003736","name":"雲滙, 創新路","lat":"22.429428132091","long":"114.20375300053"},{"id":"003737","name":"嘉熙, 創新路","lat":"22.428620892091","long":"114.20494004053"},{"id":"003839","name":"香港科學園, 科技大道西","lat":"22.424808412091","long":"114.21211687053"},{"id":"003840","name":"香港科學園第三期, 科技大道西","lat":"22.426594992091","long":"114.20930796053"},{"id":"003738","name":"科研路, 創新路","lat":"22.426209462091","long":"114.20885350053"},{"id":"003739","name":"香港科學園第一期, 創新路","lat":"22.424194992091","long":"114.21169735053"},{"id":"003740","name":"香港生物科技研究院, 科學園路","lat":"22.422687672091","long":"114.21414009053"},{"id":"003741","name":"水上活動中心, 科學園路","lat":"22.418673702091","long":"114.21422903053"},{"id":"003742","name":"馬料水公眾碼頭, 科學園路","lat":"22.416020842091","long":"114.21394174053"},{"id":"003841","name":"大學站","lat":"22.412433952091","long":"114.21104821053"},{"id":"003455","name":"樟木頭帝琴灣, 西沙路","lat":"22.430155902091","long":"114.25087926053"},{"id":"003828","name":"泥涌, 西沙路","lat":"22.430546412091","long":"114.25686090053"},{"id":"003829","name":"輋下, 西沙路","lat":"22.428897442091","long":"114.26081808053"},{"id":"003830","name":"馬牯纜, 西沙路","lat":"22.425736352091","long":"114.26266746053"},{"id":"003831","name":"西沙GO PARK, 海映路","lat":"22.427089812091","long":"114.26587060053"}],"routeId":"582","description":"正常班次"}]