[{"company":"ctb","route":"582","routeType":null,"dir":"I","orig":"西沙GO PARK","dest":"白石角 (經大學站)","stopList":[{"id":"003831","name":"西沙GO PARK, 海映路","lat":"22.427090","long":"114.265871"},{"id":"003886","name":"西沙灣","lat":"22.426329","long":"114.267038"},{"id":"003832","name":"田寮, 西沙路","lat":"22.425900","long":"114.262472"},{"id":"003833","name":"官坑, 西沙路","lat":"22.428665","long":"114.260886"},{"id":"003834","name":"西澳, 西沙路","lat":"22.430592","long":"114.254997"},{"id":"003457","name":"樟木頭帝琴灣, 西沙路","lat":"22.430093","long":"114.251157"},{"id":"003841","name":"大學站","lat":"22.412434","long":"114.211048"},{"id":"003743","name":"馬料水公眾碼頭, 科學園路","lat":"22.415904","long":"114.213694"},{"id":"003744","name":"水上活動中心, 科學園路","lat":"22.419992","long":"114.214186"},{"id":"003745","name":"香港生物科技研究院, 科學園路","lat":"22.422588","long":"114.213984"},{"id":"003839","name":"香港科學園, 科技大道西","lat":"22.424887","long":"114.211937"},{"id":"003840","name":"香港科學園第三期, 科技大道西","lat":"22.426595","long":"114.209308"},{"id":"003748","name":"雲滙, 創新路","lat":"22.429527","long":"114.203294"},{"id":"003838","name":"白石角","lat":"22.431493","long":"114.201924"}],"routeId":"582","description":"正常班次"},{"company":"ctb","route":"582","routeType":null,"dir":"O","orig":"白石角 (經大學站)","dest":"西沙GO PARK","stopList":[{"id":"003838","name":"白石角","lat":"22.431493","long":"114.201924"},{"id":"003736","name":"雲滙, 創新路","lat":"22.429428","long":"114.203753"},{"id":"003737","name":"海日灣II, 創新路","lat":"22.428379","long":"114.205309"},{"id":"003839","name":"香港科學園, 科技大道西","lat":"22.424887","long":"114.211937"},{"id":"003840","name":"香港科學園第三期, 科技大道西","lat":"22.426595","long":"114.209308"},{"id":"003738","name":"科研路, 創新路","lat":"22.426209","long":"114.208854"},{"id":"003739","name":"香港科學園第一期, 創新路","lat":"22.424195","long":"114.211697"},{"id":"003740","name":"香港生物科技研究院, 科學園路","lat":"22.422688","long":"114.214140"},{"id":"003741","name":"水上活動中心, 科學園路","lat":"22.418674","long":"114.214229"},{"id":"003742","name":"馬料水公眾碼頭, 科學園路","lat":"22.416021","long":"114.213942"},{"id":"003841","name":"大學站","lat":"22.412434","long":"114.211048"},{"id":"003850","name":"錦駿苑, 馬鞍山路","lat":"22.411839","long":"114.224100"},{"id":"003455","name":"樟木頭帝琴灣, 西沙路","lat":"22.430263","long":"114.251189"},{"id":"003828","name":"泥涌, 西沙路","lat":"22.430554","long":"114.256728"},{"id":"003829","name":"輋下, 西沙路","lat":"22.428951","long":"114.260784"},{"id":"003830","name":"馬牯纜, 西沙路","lat":"22.425736","long":"114.262667"},{"id":"003831","name":"西沙GO PARK, 海映路","lat":"22.427090","long":"114.265871"}],"routeId":"582","description":"正常班次"}]