[{"company":"kmb","route":"58M","routeType":"1","dir":"O","orig":"屯門(良景邨)","dest":"葵芳站","stopList":[{"id":"4CF25CB2C36E36F0","name":"良景邨總站 (TM936)","lat":"22.406413","long":"113.964014"},{"id":"840532B7C95DF870","name":"兆邦苑 (TM382)","lat":"22.407738","long":"113.965595"},{"id":"315BE0CA231DCD4F","name":"寶田轉車站 - 寶田 (TM190)","lat":"22.409406","long":"113.967043"},{"id":"EDF4C2EAFDBD4693","name":"大興警署 (TM550)","lat":"22.407849","long":"113.970585"},{"id":"5AB4B6D054B4B8D3","name":"青松觀 (TM552)","lat":"22.406168","long":"113.971988"},{"id":"8C32D9DDB85891A6","name":"紅橋 (TM711)","lat":"22.401816","long":"113.977423"},{"id":"8121695666A4D9CE","name":"屯門屯仁街 (TM718)","lat":"22.394185","long":"113.977084"},{"id":"8081C7B2F395A6D0","name":"華都花園 (TM723)","lat":"22.391695","long":"113.977782"},{"id":"376C4835851621D4","name":"屯門公路轉車站 (A15) (TM750)","lat":"22.362928","long":"114.015522"},{"id":"CA6AB8446B694566","name":"屯門公路轉車站 (A5) (TM754)","lat":"22.362630","long":"114.015810"},{"id":"10860B611840CF22","name":"荃景圍天橋 (TW377)","lat":"22.375700","long":"114.108257"},{"id":"D6C06E7091666AB4","name":"愉景新城 (TW383)","lat":"22.374994","long":"114.112969"},{"id":"F8D8D0AED9889278","name":"荃灣站 (TW386)","lat":"22.374084","long":"114.115113"},{"id":"CA8554613AAA6C49","name":"荃灣眾安街 (TW390)","lat":"22.372508","long":"114.118359"},{"id":"AAB411C52D067AD1","name":"大窩口轉車站 -大窩口站 (KW393)","lat":"22.370533","long":"114.124151"},{"id":"6A20A74A8B3F78A3","name":"國瑞路公園 (KW397)","lat":"22.371026","long":"114.130346"},{"id":"B09E06FF6EF5A8C4","name":"葵俊苑 (KW455)","lat":"22.364634","long":"114.132876"},{"id":"508B02C5E209E802","name":"新葵興花園 (KW457)","lat":"22.362154","long":"114.131856"},{"id":"6C11A9780213BBBB","name":"新都會廣場 (KW536)","lat":"22.356988","long":"114.127690"},{"id":"F6FAA30D1632A880","name":"葵芳站巴士總站 (KW908)","lat":"22.356603","long":"114.128016"}],"routeId":"58M","description":"正常班次"},{"company":"kmb","route":"58M","routeType":"2","dir":"O","orig":"屯門(建生邨)","dest":"葵芳站","stopList":[{"id":"D35D367213454CA7","name":"建生總站 (TM930)","lat":"22.405984","long":"113.968772"},{"id":"EDF4C2EAFDBD4693","name":"大興警署 (TM550)","lat":"22.407849","long":"113.970585"},{"id":"5AB4B6D054B4B8D3","name":"青松觀 (TM552)","lat":"22.406168","long":"113.971988"},{"id":"8C32D9DDB85891A6","name":"紅橋 (TM711)","lat":"22.401816","long":"113.977423"},{"id":"8121695666A4D9CE","name":"屯門屯仁街 (TM718)","lat":"22.394185","long":"113.977084"},{"id":"8081C7B2F395A6D0","name":"華都花園 (TM723)","lat":"22.391695","long":"113.977782"},{"id":"376C4835851621D4","name":"屯門公路轉車站 (A15) (TM750)","lat":"22.362928","long":"114.015522"},{"id":"CA6AB8446B694566","name":"屯門公路轉車站 (A5) (TM754)","lat":"22.362630","long":"114.015810"},{"id":"10860B611840CF22","name":"荃景圍天橋 (TW377)","lat":"22.375700","long":"114.108257"},{"id":"D6C06E7091666AB4","name":"愉景新城 (TW383)","lat":"22.374994","long":"114.112969"},{"id":"F8D8D0AED9889278","name":"荃灣站 (TW386)","lat":"22.374084","long":"114.115113"},{"id":"CA8554613AAA6C49","name":"荃灣眾安街 (TW390)","lat":"22.372508","long":"114.118359"},{"id":"AAB411C52D067AD1","name":"大窩口轉車站 -大窩口站 (KW393)","lat":"22.370533","long":"114.124151"},{"id":"6A20A74A8B3F78A3","name":"國瑞路公園 (KW397)","lat":"22.371026","long":"114.130346"},{"id":"B09E06FF6EF5A8C4","name":"葵俊苑 (KW455)","lat":"22.364634","long":"114.132876"},{"id":"508B02C5E209E802","name":"新葵興花園 (KW457)","lat":"22.362154","long":"114.131856"},{"id":"6C11A9780213BBBB","name":"新都會廣場 (KW536)","lat":"22.356988","long":"114.127690"},{"id":"F6FAA30D1632A880","name":"葵芳站巴士總站 (KW908)","lat":"22.356603","long":"114.128016"}],"routeId":"58M","description":"特別班次"},{"company":"kmb","route":"58M","routeType":"3","dir":"O","orig":"屯門(寶田邨)","dest":"葵芳站","stopList":[{"id":"9F5B57C2FE7E786D","name":"寶田轉車站 - 寶田總站 (TM921)","lat":"22.410027","long":"113.966829"},{"id":"EDF4C2EAFDBD4693","name":"大興警署 (TM550)","lat":"22.407849","long":"113.970585"},{"id":"5AB4B6D054B4B8D3","name":"青松觀 (TM552)","lat":"22.406168","long":"113.971988"},{"id":"8C32D9DDB85891A6","name":"紅橋 (TM711)","lat":"22.401816","long":"113.977423"},{"id":"8121695666A4D9CE","name":"屯門屯仁街 (TM718)","lat":"22.394185","long":"113.977084"},{"id":"8081C7B2F395A6D0","name":"華都花園 (TM723)","lat":"22.391695","long":"113.977782"},{"id":"376C4835851621D4","name":"屯門公路轉車站 (A15) (TM750)","lat":"22.362928","long":"114.015522"},{"id":"CA6AB8446B694566","name":"屯門公路轉車站 (A5) (TM754)","lat":"22.362630","long":"114.015810"},{"id":"10860B611840CF22","name":"荃景圍天橋 (TW377)","lat":"22.375700","long":"114.108257"},{"id":"D6C06E7091666AB4","name":"愉景新城 (TW383)","lat":"22.374994","long":"114.112969"},{"id":"F8D8D0AED9889278","name":"荃灣站 (TW386)","lat":"22.374084","long":"114.115113"},{"id":"CA8554613AAA6C49","name":"荃灣眾安街 (TW390)","lat":"22.372508","long":"114.118359"},{"id":"AAB411C52D067AD1","name":"大窩口轉車站 -大窩口站 (KW393)","lat":"22.370533","long":"114.124151"},{"id":"6A20A74A8B3F78A3","name":"國瑞路公園 (KW397)","lat":"22.371026","long":"114.130346"},{"id":"B09E06FF6EF5A8C4","name":"葵俊苑 (KW455)","lat":"22.364634","long":"114.132876"},{"id":"508B02C5E209E802","name":"新葵興花園 (KW457)","lat":"22.362154","long":"114.131856"},{"id":"6C11A9780213BBBB","name":"新都會廣場 (KW536)","lat":"22.356988","long":"114.127690"},{"id":"F6FAA30D1632A880","name":"葵芳站巴士總站 (KW908)","lat":"22.356603","long":"114.128016"}],"routeId":"58M","description":"特別班次"},{"company":"kmb","route":"58M","routeType":"1","dir":"I","orig":"葵芳站","dest":"屯門(良景邨)","stopList":[{"id":"F6FAA30D1632A880","name":"葵芳站巴士總站 (KW908)","lat":"22.356603","long":"114.128016"},{"id":"3CB45560769AA11A","name":"葵芳邨 (KW105)","lat":"22.358482","long":"114.130387"},{"id":"4A68E282FEB3DAED","name":"葵涌耀榮里 (KW126)","lat":"22.369505","long":"114.132647"},{"id":"AB10F01039440464","name":"葵涌健全街 (KW127)","lat":"22.370324","long":"114.131214"},{"id":"354A2C15BD189228","name":"大窩口轉車站-大窩口站 (KW132)","lat":"22.370356","long":"114.124855"},{"id":"C7FC5050194509AE","name":"荃灣眾安街 (TW137)","lat":"22.371340","long":"114.119103"},{"id":"0115F5FC6A7772C3","name":"福來邨永樂樓 (TW149)","lat":"22.373911","long":"114.114831"},{"id":"12E6D91298FABAEE","name":"荃景圍天橋 (TW156)","lat":"22.375395","long":"114.108812"},{"id":"DFE346B2C7332BC0","name":"屯門公路轉車站 (B6) (TM102)","lat":"22.358063","long":"114.019164"},{"id":"2B3A6C000BB085CD","name":"屯門公路轉車站 (B3) (TM105)","lat":"22.358551","long":"114.018706"},{"id":"28C36BBE416103C2","name":"屯門市廣場 (TM125)","lat":"22.393195","long":"113.976794"},{"id":"BC301D7E7F063331","name":"新墟街市 (TM132)","lat":"22.398858","long":"113.976525"},{"id":"CBE54DB551C24A02","name":"紅橋 (TM133)","lat":"22.402437","long":"113.977155"},{"id":"0C677A6B6266DB52","name":"建生邨 (TM477)","lat":"22.406571","long":"113.971467"},{"id":"ECE3F3BE270C27E2","name":"寶怡花園 (TM478)","lat":"22.408361","long":"113.968805"},{"id":"594A765BE3A43C73","name":"寶田轉車站 - 盈豐園 (TM580)","lat":"22.407770","long":"113.967281"},{"id":"507D90B4B976DBD6","name":"田景邨田樂樓 (TM536)","lat":"22.407591","long":"113.964929"},{"id":"4CF25CB2C36E36F0","name":"良景邨總站 (TM936)","lat":"22.406413","long":"113.964014"}],"routeId":"58M","description":"正常班次"},{"company":"gmb","route":"58M","routeType":1,"orig":"貝沙灣","dest":"堅尼地城站","stopList":[{"id":20004118,"name":"貝沙灣南灣, 數碼港道","lat":"22.254825","long":"114.133771"},{"id":20009799,"name":"數碼港道, 貝沙灣2期","lat":"22.256263","long":"114.132527"},{"id":20003338,"name":"貝沙灣, 數碼港道","lat":"22.258221","long":"114.132916"},{"id":20004557,"name":"數碼港道數碼港商場停車處外","lat":"22.261362","long":"114.129771"},{"id":20000331,"name":"沙灣徑, 麥理浩復康院對面","lat":"22.269804","long":"114.123743"},{"id":20000349,"name":"大口環道, 大口環根德公爵夫人兒童醫院","lat":"22.271150","long":"114.123888"},{"id":20009766,"name":"大口環道, 馮堯敬醫院","lat":"22.271862","long":"114.125022"},{"id":20000332,"name":"域多利道, 英基學校協會西島中學外","lat":"22.272875","long":"114.125479"},{"id":20007022,"name":"吉席街近泓都","lat":"22.283053","long":"114.126572"},{"id":20009733,"name":"堅尼地城站","lat":"22.281360","long":"114.128932"}],"routeId":2002614,"description":"特别班次"},{"company":"gmb","route":"58M","routeType":2,"orig":"堅尼地城站","dest":"貝沙灣","stopList":[{"id":20009733,"name":"堅尼地城站","lat":"22.281360","long":"114.128932"},{"id":20000334,"name":"域多利道, 英基學校協會西島中學對面","lat":"22.273228","long":"114.126439"},{"id":20009766,"name":"大口環道, 馮堯敬醫院","lat":"22.271862","long":"114.125022"},{"id":20004594,"name":"沙灣徑, 麥理浩復康院外","lat":"22.269786","long":"114.123879"},{"id":20004186,"name":"數碼港道數碼港商場停車處對面","lat":"22.261471","long":"114.130237"},{"id":20007719,"name":"數碼港道, 資訊道","lat":"22.260957","long":"114.131421"},{"id":20002491,"name":"數碼港道, 數碼港三座","lat":"22.259855","long":"114.132547"},{"id":20002492,"name":"數碼港道, 貝沙灣2期","lat":"22.256676","long":"114.132800"},{"id":20004115,"name":"貝沙灣南灣, 數碼港道","lat":"22.254735","long":"114.133644"}],"routeId":2002614,"description":"特别班次"}]