[{"company":"gmb","route":"59B","routeType":1,"orig":"香港仔(東勝道)","dest":"深灣道公共交通總站(經葛量洪醫院)(循環線)","stopList":[{"id":20000341,"name":"東勝道10號對面","lat":"22.248048","long":"114.155251"},{"id":20000240,"name":"黃竹坑道 49號","lat":"22.249367","long":"114.167707"},{"id":20007311,"name":"葛量洪醫院","lat":"22.251345","long":"114.173033"},{"id":20000159,"name":"警校道, 近新加坡國際學校","lat":"22.245421","long":"114.168328"},{"id":20000343,"name":"深灣道, 南濤閣第3座外","lat":"22.244707","long":"114.165663"},{"id":20000160,"name":"深灣道公共交通總站","lat":"22.243137","long":"114.164317"},{"id":20002734,"name":"深灣道, 南濤閣第3座對面","lat":"22.245267","long":"114.165952"},{"id":20000161,"name":"南朗山道, 南朗山道熟食巿場外","lat":"22.247290","long":"114.166446"},{"id":20002735,"name":"黃竹坑道, 南朗山道休憩處外","lat":"22.248379","long":"114.166247"},{"id":20000361,"name":"香港仔海傍道, 逸港居外","lat":"22.247569","long":"114.159316"},{"id":20000169,"name":"香港仔海傍道, 香港仔海濱公園外","lat":"22.246955","long":"114.155872"},{"id":20000341,"name":"東勝道10號對面","lat":"22.248048","long":"114.155251"}],"routeId":2002714,"description":"特别班次"}]