[{"company":"gmb","route":"59S","routeType":1,"orig":"香港仔 (東勝道)","dest":"海洋公園 (水上樂園)","stopList":[{"id":20000341,"name":"東勝道, 裕景中心外 ","lat":22.248047626470388,"long":114.15525070834737},{"id":20011720,"name":"南朗山道, 南朗山道熟食市場對面","lat":22.24748930154742,"long":114.16675016283989},{"id":20011727,"name":"深灣道, 水上樂園","lat":22.23610368704093,"long":114.16708141565326}],"routeId":2004230,"description":"特別班次"},{"company":"gmb","route":"59S","routeType":2,"orig":"海洋公園 (水上樂園)","dest":"香港仔 (東勝道)","stopList":[{"id":20011727,"name":"深灣道, 水上樂園","lat":22.23610368704093,"long":114.16708141565326},{"id":20000160,"name":"深灣道公共交通總站","lat":22.243137411689396,"long":114.16431734016444},{"id":20002734,"name":"深灣道, 南濤閣第3座對面","lat":22.24526717829303,"long":114.16595220565797},{"id":20011728,"name":"南朗山道, 南朗山道熟食市場外","lat":22.247167869657563,"long":114.16639337320466},{"id":20011729,"name":"黃竹坑道, 南朗山道休憩處外","lat":22.248399812920372,"long":114.16631553125451},{"id":20000361,"name":"香港仔海傍道, 逸港居外","lat":22.24756948944506,"long":114.15931550542977},{"id":20000169,"name":"香港仔海傍道, 香港仔海濱公園外","lat":22.246954996200248,"long":114.15587173771375},{"id":20000341,"name":"東勝道, 裕景中心外 ","lat":22.248047626470388,"long":114.15525070834737}],"routeId":2004230,"description":"特別班次"},{"company":"gmb","route":"59S","routeType":1,"orig":"上水站","dest":"香園圍邊境管制站","stopList":[{"id":20001384,"name":"上水站小巴總站","lat":22.5020433782143,"long":114.12778544281537},{"id":20003205,"name":"新豐路,近石湖墟郵政局","lat":22.503840086979775,"long":114.12668658620015},{"id":20014295,"name":"文錦渡路,近新屋嶺","lat":22.53474518324414,"long":114.1316641867161},{"id":20014296,"name":"蓮麻坑路,近瓦窰村兒童遊樂場","lat":22.541030179128125,"long":114.13796067237854},{"id":20014297,"name":"蓮麻坑路,近打鼓嶺警署","lat":22.54067783855556,"long":114.1489114612341},{"id":20017851,"name":"香園圍邊境管制站小巴總站","lat":22.552358999025376,"long":114.1541300707745}],"routeId":2009180,"description":"正常班次"},{"company":"gmb","route":"59S","routeType":2,"orig":"香園圍邊境管制站","dest":"上水站","stopList":[{"id":20017851,"name":"香園圍邊境管制站小巴總站","lat":22.552358999025376,"long":114.1541300707745},{"id":20014297,"name":"蓮麻坑路,近打鼓嶺警署","lat":22.54067783855556,"long":114.1489114612341},{"id":20014300,"name":"蓮麻坑路,近瓦窰村兒童遊樂場","lat":22.54090080380262,"long":114.13795698434117},{"id":20014295,"name":"文錦渡路,近新屋嶺","lat":22.53474518324414,"long":114.1316641867161},{"id":20014301,"name":"寶石湖路,近莆上村","lat":22.506689304522475,"long":114.12622869014741},{"id":20007525,"name":"新豐路,近石湖墟郵政局","lat":22.50382206549488,"long":114.12681293691146},{"id":20014293,"name":"上水站小巴總站","lat":22.50212556665549,"long":114.12768747657537}],"routeId":2009180,"description":"正常班次"}]