[{"company":"gmb","route":"59S","routeType":1,"orig":"上水站","dest":"香園圍邊境管制站","stopList":[{"id":20001384,"name":"上水站小巴總站","lat":22.5020433782143,"long":114.12778544281537},{"id":20003205,"name":"新豐路,近石湖墟郵政局","lat":22.503840086979775,"long":114.12668658620015},{"id":20014295,"name":"文錦渡路,近新屋嶺","lat":22.53474518324414,"long":114.1316641867161},{"id":20014296,"name":"蓮麻坑路,近瓦窰村兒童遊樂場","lat":22.541030179128125,"long":114.13796067237854},{"id":20014297,"name":"蓮麻坑路,近打鼓嶺警署","lat":22.54067783855556,"long":114.1489114612341},{"id":20017851,"name":"香園圍邊境管制站小巴總站","lat":22.552358999025376,"long":114.1541300707745}],"routeId":2009180,"description":"正常班次"},{"company":"gmb","route":"59S","routeType":2,"orig":"香園圍邊境管制站","dest":"上水站","stopList":[{"id":20017851,"name":"香園圍邊境管制站小巴總站","lat":22.552358999025376,"long":114.1541300707745},{"id":20014297,"name":"蓮麻坑路,近打鼓嶺警署","lat":22.54067783855556,"long":114.1489114612341},{"id":20014300,"name":"蓮麻坑路,近瓦窰村兒童遊樂場","lat":22.54090080380262,"long":114.13795698434117},{"id":20014295,"name":"文錦渡路,近新屋嶺","lat":22.53474518324414,"long":114.1316641867161},{"id":20014301,"name":"寶石湖路,近莆上村","lat":22.506689304522475,"long":114.12622869014741},{"id":20007525,"name":"新豐路,近石湖墟郵政局","lat":22.50382206549488,"long":114.12681293691146},{"id":20014293,"name":"上水站小巴總站","lat":22.50212556665549,"long":114.12768747657537}],"routeId":2009180,"description":"正常班次"}]