[{"company":"gmb","route":"59S","routeType":1,"orig":"上水站","dest":"香園圍邊境管制站","stopList":[{"id":20001384,"name":"上水站小巴總站","lat":"22.502043","long":"114.127785"},{"id":20003205,"name":"新豐路,近石湖墟郵政局","lat":"22.503840","long":"114.126687"},{"id":20014295,"name":"文錦渡路,近新屋嶺","lat":"22.534745","long":"114.131664"},{"id":20014296,"name":"蓮麻坑路,近瓦窰村兒童遊樂場","lat":"22.541030","long":"114.137961"},{"id":20014297,"name":"蓮麻坑路,近打鼓嶺警署","lat":"22.540678","long":"114.148911"},{"id":20017851,"name":"香園圍邊境管制站小巴總站","lat":"22.552359","long":"114.154130"}],"routeId":2009180,"description":"正常班次"},{"company":"gmb","route":"59S","routeType":2,"orig":"香園圍邊境管制站","dest":"上水站","stopList":[{"id":20017851,"name":"香園圍邊境管制站小巴總站","lat":"22.552359","long":"114.154130"},{"id":20014297,"name":"蓮麻坑路,近打鼓嶺警署","lat":"22.540678","long":"114.148911"},{"id":20014300,"name":"蓮麻坑路,近瓦窰村兒童遊樂場","lat":"22.540901","long":"114.137957"},{"id":20014295,"name":"文錦渡路,近新屋嶺","lat":"22.534745","long":"114.131664"},{"id":20014301,"name":"寶石湖路,近莆上村","lat":"22.506689","long":"114.126229"},{"id":20007525,"name":"新豐路,近石湖墟郵政局","lat":"22.503822","long":"114.126813"},{"id":20014293,"name":"上水站小巴總站","lat":"22.502126","long":"114.127687"}],"routeId":2009180,"description":"正常班次"}]