[{"company":"ctb","route":"5B","routeType":null,"dir":"I","orig":"銅鑼灣／香港大球場","dest":"摩星嶺／堅尼地城","stopList":[{"id":"001333","name":"皇仁書院, 銅鑼灣道","lat":"22.280980","long":"114.192061"},{"id":"001334","name":"中華游樂會, 銅鑼灣道","lat":"22.279131","long":"114.191769"},{"id":"002465","name":"香港中央圖書館, 摩頓台","lat":"22.279537","long":"114.188970"},{"id":"002410","name":"香港大球場, 東院道","lat":"22.274111","long":"114.188680"},{"id":"002556","name":"加路連山道","lat":"22.275647","long":"114.186039"},{"id":"002474","name":"邊寧頓街","lat":"22.278459","long":"114.186031"},{"id":"002554","name":"銅鑼灣 - 怡和街","lat":"22.279930","long":"114.185008"},{"id":"002439","name":"銅鑼灣 - 希慎廣場, 軒尼詩道","lat":"22.280000","long":"114.183359"},{"id":"002440","name":"堅拿道東, 軒尼詩道","lat":"22.279482","long":"114.181797"},{"id":"002441","name":"天樂里, 軒尼詩道","lat":"22.278926","long":"114.180298"},{"id":"002443","name":"廣生行大廈, 軒尼詩道","lat":"22.278031","long":"114.177439"},{"id":"002446","name":"修頓球場, 軒尼詩道","lat":"22.277433","long":"114.171879"},{"id":"002449","name":"晏頓街, 軒尼詩道","lat":"22.277666","long":"114.168839"},{"id":"001140","name":"金鐘 - 太古廣場, 金鐘道","lat":"22.278071","long":"114.164867"},{"id":"001142","name":"中銀大廈, 金鐘道","lat":"22.279480","long":"114.162144"},{"id":"001054","name":"置地廣場, 德輔道中","lat":"22.281316","long":"114.158251"},{"id":"001056","name":"中環街市, 德輔道中","lat":"22.284855","long":"114.155394"},{"id":"001175","name":"急庇利街, 德輔道中","lat":"22.286598","long":"114.151576"},{"id":"001040","name":"西港城, 干諾道西","lat":"22.287711","long":"114.149801"},{"id":"001066","name":"皇后街, 德輔道西","lat":"22.287618","long":"114.146860"},{"id":"001067","name":"高陞街, 德輔道西","lat":"22.287747","long":"114.145416"},{"id":"001068","name":"正街, 德輔道西","lat":"22.287879","long":"114.141618"},{"id":"001069","name":"水街, 德輔道西","lat":"22.287187","long":"114.138064"},{"id":"001070","name":"山道, 德輔道西","lat":"22.286628","long":"114.136075"},{"id":"001082","name":"堅尼地城游泳池, 堅彌地城海旁","lat":"22.285472","long":"114.131741"},{"id":"001083","name":"山市街, 堅彌地城海旁","lat":"22.284331","long":"114.130370"},{"id":"001005","name":"聯邦新樓, 卑路乍街","lat":"22.282463","long":"114.127608"},{"id":"001164","name":"加惠民道, 域多利道","lat":"22.282073","long":"114.124935"},{"id":"001165","name":"西寧閣, 域多利道","lat":"22.281064","long":"114.120807"},{"id":"001166","name":"港島西廢物轉運站, 域多利道","lat":"22.280253","long":"114.118682"},{"id":"001167","name":"明愛賽馬會宿舍, 域多利道","lat":"22.278604","long":"114.117789"},{"id":"001168","name":"摩星嶺徑, 域多利道","lat":"22.275761","long":"114.117524"},{"id":"001186","name":"摩星嶺","lat":"22.274918","long":"114.117935"},{"id":"001152","name":"堅尼地城","lat":"22.282466","long":"114.123226"}],"routeId":"5B","description":"正常班次"},{"company":"ctb","route":"5B","routeType":null,"dir":"O","orig":"摩星嶺／堅尼地城","dest":"銅鑼灣／香港大球場","stopList":[{"id":"001152","name":"堅尼地城","lat":"22.282466","long":"114.123226"},{"id":"001186","name":"摩星嶺","lat":"22.274918","long":"114.117935"},{"id":"001159","name":"摩星嶺徑, 域多利道","lat":"22.275971","long":"114.117430"},{"id":"001160","name":"明愛賽馬會宿舍, 域多利道","lat":"22.279145","long":"114.117839"},{"id":"001161","name":"港島西廢物轉運站, 域多利道","lat":"22.280931","long":"114.119603"},{"id":"001162","name":"西寧街, 域多利道","lat":"22.281730","long":"114.122642"},{"id":"001163","name":"西市街, 域多利道","lat":"22.282183","long":"114.125217"},{"id":"001022","name":"爹核士街, 吉席街","lat":"22.283221","long":"114.127556"},{"id":"001080","name":"卑路乍灣公園, 堅彌地城海旁","lat":"22.284354","long":"114.130177"},{"id":"001079","name":"歌連臣街, 堅彌地城海旁","lat":"22.286364","long":"114.132022"},{"id":"001059","name":"堅尼地城游泳池休憩處, 德輔道西","lat":"22.287202","long":"114.132572"},{"id":"001060","name":"山道, 德輔道西","lat":"22.287192","long":"114.134338"},{"id":"001061","name":"嘉安街, 德輔道西","lat":"22.287052","long":"114.137105"},{"id":"001062","name":"西區警署, 德輔道西","lat":"22.287960","long":"114.140350"},{"id":"001063","name":"正街, 德輔道西","lat":"22.287992","long":"114.141925"},{"id":"001064","name":"東邊街, 德輔道西","lat":"22.287915","long":"114.144225"},{"id":"001065","name":"修打蘭街, 德輔道西","lat":"22.287780","long":"114.146371"},{"id":"001187","name":"永安中心, 德輔道中","lat":"22.286401","long":"114.152883"},{"id":"001173","name":"恒生銀行總行大廈, 德輔道中","lat":"22.284360","long":"114.155968"},{"id":"001049","name":"德忌利士街, 德輔道中","lat":"22.282866","long":"114.157178"},{"id":"001025","name":"皇后像廣場, 遮打道","lat":"22.281482","long":"114.160055"},{"id":"001050","name":"歷山大廈, 德輔道中","lat":"22.281459","long":"114.158300"},{"id":"001052","name":"遮打花園, 德輔道中","lat":"22.280109","long":"114.160646"},{"id":"003845","name":"金鐘 - 金鐘廊, 金鐘道","lat":"22.278485","long":"114.164478"},{"id":"002430","name":"盧押道, 軒尼詩道","lat":"22.277681","long":"114.170998"},{"id":"002434","name":"史釗域道, 軒尼詩道","lat":"22.278010","long":"114.176171"},{"id":"002435","name":"杜老誌道, 軒尼詩道","lat":"22.278721","long":"114.179097"},{"id":"002438","name":"銅鑼灣 - 崇光百貨, 軒尼詩道","lat":"22.280208","long":"114.184178"},{"id":"002535","name":"聖保祿醫院, 銅鑼灣道","lat":"22.278920","long":"114.188062"},{"id":"002408","name":"聖光堂, 東院道","lat":"22.276781","long":"114.189079"},{"id":"002409","name":"東華東院, 東院道","lat":"22.274784","long":"114.189835"},{"id":"002410","name":"香港大球場, 東院道","lat":"22.274111","long":"114.188680"}],"routeId":"5B","description":"正常班次"}]