[{"company":"kmb","route":"5R","routeType":"1","dir":"O","orig":"啟德郵輪碼頭","dest":"觀塘 (apm) (循環線)","stopList":[{"id":"5F1C669F444A0556","name":"啟德郵輪碼頭 (KA900)","lat":"22.306905","long":"114.212323"},{"id":"AA28557D2EE2F8D0","name":"承景街 (KA100)","lat":"22.309713","long":"114.209991"},{"id":"F573BDBB62023031","name":"承豐道 (KA101)","lat":"22.312022","long":"114.207504"},{"id":"B83FDB494B1E7E31","name":"啟德橋道 (KA108)","lat":"22.315153","long":"114.205891"},{"id":"600158E293C9354E","name":"香港兒童醫院 (KA110)","lat":"22.315856","long":"114.209803"},{"id":"BA0B05CA62C32007","name":"海濱道公園 (KT580)","lat":"22.314806","long":"114.215111"},{"id":"C057639478BE0168","name":"牛頭角站 (KT335)","lat":"22.315254","long":"114.219427"},{"id":"1E3A342DF7D5B8B5","name":"apm創紀之城5期 (KT626)","lat":"22.312587","long":"114.225296"},{"id":"83BB162ED5F1355F","name":"觀塘轉車站 - 牛頭角站 (KT645)","lat":"22.314726","long":"114.219673"},{"id":"D39533060940818A","name":"觀塘勵業街 (KT225)","lat":"22.313800","long":"114.215990"},{"id":"14894C859FDFE8C3","name":"觀塘海濱花園 (KT226)","lat":"22.315682","long":"114.214093"},{"id":"DBB2582C87F91983","name":"香港兒童醫院 (KA531)","lat":"22.315786","long":"114.209517"},{"id":"1094B993AA8409D0","name":"承豐道 (KA540)","lat":"22.311992","long":"114.207735"},{"id":"2F9C6EBE1A9AA07E","name":"承景街 (KA541)","lat":"22.309269","long":"114.210888"}],"routeId":"5R","description":"正常班次"},{"company":"kmb","route":"5R","routeType":"2","dir":"O","orig":"啟德郵輪碼頭","dest":"觀塘 (apm)","stopList":[{"id":"5F1C669F444A0556","name":"啟德郵輪碼頭 (KA900)","lat":"22.306905","long":"114.212323"},{"id":"AA28557D2EE2F8D0","name":"承景街 (KA100)","lat":"22.309713","long":"114.209991"},{"id":"F573BDBB62023031","name":"承豐道 (KA101)","lat":"22.312022","long":"114.207504"},{"id":"B83FDB494B1E7E31","name":"啟德橋道 (KA108)","lat":"22.315153","long":"114.205891"},{"id":"600158E293C9354E","name":"香港兒童醫院 (KA110)","lat":"22.315856","long":"114.209803"},{"id":"BA0B05CA62C32007","name":"海濱道公園 (KT580)","lat":"22.314806","long":"114.215111"},{"id":"C057639478BE0168","name":"牛頭角站 (KT335)","lat":"22.315254","long":"114.219427"},{"id":"1E3A342DF7D5B8B5","name":"apm創紀之城5期 (KT626)","lat":"22.312587","long":"114.225296"}],"routeId":"5R","description":"特別班次"},{"company":"kmb","route":"5R","routeType":"3","dir":"O","orig":"牛頭角站","dest":"啟德郵輪碼頭","stopList":[{"id":"C057639478BE0168","name":"牛頭角站 (KT335)","lat":"22.315254","long":"114.219427"},{"id":"1E3A342DF7D5B8B5","name":"apm創紀之城5期 (KT626)","lat":"22.312587","long":"114.225296"},{"id":"83BB162ED5F1355F","name":"觀塘轉車站 - 牛頭角站 (KT645)","lat":"22.314726","long":"114.219673"},{"id":"D39533060940818A","name":"觀塘勵業街 (KT225)","lat":"22.313800","long":"114.215990"},{"id":"14894C859FDFE8C3","name":"觀塘海濱花園 (KT226)","lat":"22.315682","long":"114.214093"},{"id":"DBB2582C87F91983","name":"香港兒童醫院 (KA531)","lat":"22.315786","long":"114.209517"},{"id":"1094B993AA8409D0","name":"承豐道 (KA540)","lat":"22.311992","long":"114.207735"},{"id":"2F9C6EBE1A9AA07E","name":"承景街 (KA541)","lat":"22.309269","long":"114.210888"}],"routeId":"5R","description":"特別班次"}]