[{"company":"kmb","route":"5R","routeType":"1","dir":"O","orig":"啟德郵輪碼頭","dest":"觀塘 (apm) (循環線)","stopList":[{"id":"5F1C669F444A0556","name":"啟德郵輪碼頭","lat":"22.306905","long":"114.212323"},{"id":"AA28557D2EE2F8D0","name":"承景街","lat":"22.309713","long":"114.209991"},{"id":"F573BDBB62023031","name":"承豐道","lat":"22.312022","long":"114.207504"},{"id":"600158E293C9354E","name":"香港兒童醫院","lat":"22.315729","long":"114.209763"},{"id":"BA0B05CA62C32007","name":"海濱道公園","lat":"22.314806","long":"114.215111"},{"id":"C057639478BE0168","name":"牛頭角站 (V4)","lat":"22.315254","long":"114.219427"},{"id":"1E3A342DF7D5B8B5","name":"apm創紀之城5期 (D1)","lat":"22.312587","long":"114.225296"},{"id":"83BB162ED5F1355F","name":"觀塘轉車站 - 牛頭角站 (A1)","lat":"22.314726","long":"114.219673"},{"id":"D39533060940818A","name":"觀塘勵業街","lat":"22.313800","long":"114.215990"},{"id":"14894C859FDFE8C3","name":"觀塘海濱花園","lat":"22.315682","long":"114.214093"},{"id":"36A5F6842C55126E","name":"香港兒童醫院","lat":"22.315786","long":"114.209517"},{"id":"1094B993AA8409D0","name":"承豐道","lat":"22.311992","long":"114.207735"},{"id":"5F1C669F444A0556","name":"啟德郵輪碼頭","lat":"22.306905","long":"114.212323"}],"routeId":"5R","description":"正常班次"},{"company":"kmb","route":"5R","routeType":"2","dir":"O","orig":"啟德郵輪碼頭","dest":"觀塘 (apm)","stopList":[{"id":"5F1C669F444A0556","name":"啟德郵輪碼頭","lat":"22.306905","long":"114.212323"},{"id":"AA28557D2EE2F8D0","name":"承景街","lat":"22.309713","long":"114.209991"},{"id":"F573BDBB62023031","name":"承豐道","lat":"22.312022","long":"114.207504"},{"id":"600158E293C9354E","name":"香港兒童醫院","lat":"22.315729","long":"114.209763"},{"id":"BA0B05CA62C32007","name":"海濱道公園","lat":"22.314806","long":"114.215111"},{"id":"C057639478BE0168","name":"牛頭角站 (V4)","lat":"22.315254","long":"114.219427"},{"id":"1E3A342DF7D5B8B5","name":"apm創紀之城5期 (D1)","lat":"22.312587","long":"114.225296"}],"routeId":"5R","description":"特別班次"},{"company":"kmb","route":"5R","routeType":"3","dir":"O","orig":"牛頭角站","dest":"啟德郵輪碼頭","stopList":[{"id":"C057639478BE0168","name":"牛頭角站 (V4)","lat":"22.315254","long":"114.219427"},{"id":"1E3A342DF7D5B8B5","name":"apm創紀之城5期 (D1)","lat":"22.312587","long":"114.225296"},{"id":"83BB162ED5F1355F","name":"觀塘轉車站 - 牛頭角站 (A1)","lat":"22.314726","long":"114.219673"},{"id":"D39533060940818A","name":"觀塘勵業街","lat":"22.313800","long":"114.215990"},{"id":"14894C859FDFE8C3","name":"觀塘海濱花園","lat":"22.315682","long":"114.214093"},{"id":"36A5F6842C55126E","name":"香港兒童醫院","lat":"22.315786","long":"114.209517"},{"id":"1094B993AA8409D0","name":"承豐道","lat":"22.311992","long":"114.207735"},{"id":"5F1C669F444A0556","name":"啟德郵輪碼頭","lat":"22.306905","long":"114.212323"}],"routeId":"5R","description":"特別班次"},{"company":"kmb","route":"5R","routeType":"5","dir":"O","orig":"啟德(承景街)","dest":"觀塘 (apm)","stopList":[{"id":"AC2CA1BC15ABD1C7","name":"承景街","lat":"22.310055","long":"114.209049"},{"id":"F573BDBB62023031","name":"承豐道","lat":"22.312022","long":"114.207504"},{"id":"600158E293C9354E","name":"香港兒童醫院","lat":"22.315729","long":"114.209763"},{"id":"BA0B05CA62C32007","name":"海濱道公園","lat":"22.314806","long":"114.215111"},{"id":"C057639478BE0168","name":"牛頭角站 (V4)","lat":"22.315254","long":"114.219427"},{"id":"1E3A342DF7D5B8B5","name":"apm創紀之城5期 (D1)","lat":"22.312587","long":"114.225296"}],"routeId":"5R","description":"特別班次"}]