[{"company":"gmb","route":"601C","routeType":1,"orig":"元朗 (鳳翔路)","dest":"錦上路站 (循環線)","stopList":[{"id":20015764,"name":"鳳翔路小巴總站","lat":22.442937621369868,"long":114.03247444390335},{"id":20001282,"name":"元朗站(北)公共運輸交匯處","lat":22.446450801758296,"long":114.03428087667947},{"id":20001283,"name":"青山公路, 元朗東成里路","lat":22.444390792321386,"long":114.04359930444288},{"id":20001280,"name":"青山公路, 近凹頭迴旋處","lat":22.443878169813285,"long":114.04618387446662},{"id":20001286,"name":"青山公路－元朗段, 近楊屋村","lat":22.444173224968,"long":114.04258919301918},{"id":20004199,"name":"青山公路元朗段60號","lat":22.44433338245848,"long":114.0306602418423},{"id":20002203,"name":"阜財街, 光華廣場外","lat":22.443899868246895,"long":114.02943590547137}],"routeId":2008719,"description":"正常班次"}]