[{"company":"gmb","route":"601C","routeType":1,"orig":"元朗 (鳳翔路)","dest":"錦上路站 (循環線)","stopList":[{"id":20015764,"name":"鳳翔路小巴總站","lat":"22.442938","long":"114.032474"},{"id":20001282,"name":"元朗站(北)公共運輸交匯處","lat":"22.446451","long":"114.034281"},{"id":20001283,"name":"青山公路－元朗段, 近東成里路","lat":"22.444391","long":"114.043599"},{"id":20001280,"name":"青山公路, 近凹頭迴旋處","lat":"22.443878","long":"114.046184"},{"id":20001286,"name":"青山公路－元朗段, 近楊屋村","lat":"22.444173","long":"114.042589"},{"id":20004199,"name":"青山公路元朗段60號","lat":"22.444333","long":"114.030660"},{"id":20002203,"name":"阜財街, 光華廣場外","lat":"22.443900","long":"114.029436"}],"routeId":2008719,"description":"正常班次"}]