[{"company":"kmb","route":"606","routeType":"1","dir":"O","orig":"彩雲(豐盛街)","dest":"小西灣(藍灣半島)","stopList":[{"id":"360587444784CEAB","name":"彩雲(豐盛街)總站","lat":"22.333288","long":"114.216453"},{"id":"1EF5FAB9266BD6C8","name":"彩雲邨","lat":"22.333471","long":"114.214923"},{"id":"54733D2BB5BE7121","name":"牛池灣轉車站 - 彩虹站 (K6)","lat":"22.334196","long":"114.210123"},{"id":"8CFDFD3B86662D91","name":"翠石樓","lat":"22.333261","long":"114.207770"},{"id":"9A0959AB68FA5E1F","name":"九龍灣臨華街","lat":"22.323512","long":"114.208973"},{"id":"94358F5481BAE505","name":"常悅道","lat":"22.321438","long":"114.207948"},{"id":"017A10A009B4A409","name":"常怡道","lat":"22.320610","long":"114.207918"},{"id":"C32B9494869D5BBF","name":"喜鵲樓","lat":"22.317173","long":"114.217511"},{"id":"3F9AE21DC3A540B9","name":"牛頭角站 (V1)","lat":"22.314739","long":"114.220539"},{"id":"F2127FD781019971","name":"觀塘轉車站 - 觀塘市中心 (T2)","lat":"22.313042","long":"114.224931"},{"id":"AB2BD1CDDCB213CB","name":"觀塘站","lat":"22.311530","long":"114.227804"},{"id":"5AAC6A858427D04E","name":"觀塘游泳池 (R3)","lat":"22.310432","long":"114.229545"},{"id":"5BDD5F9F4C89D3E1","name":"藍田站","lat":"22.307106","long":"114.233517"},{"id":"9535298A652873DB","name":"東隧轉車站 (K1)","lat":"22.300285","long":"114.233264"},{"id":"B6E124DFD59022EF","name":"健康村","lat":"22.292173","long":"114.206222"},{"id":"40CB528985641937","name":"模範邨","lat":"22.291725","long":"114.207756"},{"id":"17A5341790B188CB","name":"民新街","lat":"22.290048","long":"114.209490"},{"id":"633C082A94176ED0","name":"新威園","lat":"22.285925","long":"114.211174"},{"id":"7ADCBB1CA80611B0","name":"船塢里","lat":"22.284791","long":"114.214125"},{"id":"F63A6E7548CF6D44","name":"太古城中心","lat":"22.285388","long":"114.217396"},{"id":"1A03767DB7C1824D","name":"太康樓","lat":"22.283115","long":"114.221408"},{"id":"37A527C88AEA72AC","name":"港島民生書院","lat":"22.283317","long":"114.223718"},{"id":"249030228FF24B3F","name":"南安里","lat":"22.277870","long":"114.226934"},{"id":"72F07CA66230A1BE","name":"阿公岩道","lat":"22.274977","long":"114.231063"},{"id":"C19CD7CCA03DBEBA","name":"鯉魚門公園","lat":"22.273972","long":"114.231542"},{"id":"EC157EA93B3DD279","name":"大潭道","lat":"22.271611","long":"114.233266"},{"id":"FACE7DC841CEF78F","name":"東區醫院","lat":"22.268443","long":"114.233719"},{"id":"41E537666558ED07","name":"高威閣","lat":"22.266651","long":"114.233785"},{"id":"B4CF77BA0F9D34B8","name":"興華邨興翠樓","lat":"22.262733","long":"114.234551"},{"id":"671C0B06B1582C54","name":"興華邨卓華樓","lat":"22.262078","long":"114.235508"},{"id":"5F0966CBF6A909A3","name":"青年廣場","lat":"22.262852","long":"114.236829"},{"id":"B83A88488B3F6EAB","name":"怡泰街","lat":"22.263349","long":"114.238992"},{"id":"D533E8F25C189485","name":"漁灣邨","lat":"22.265312","long":"114.241787"},{"id":"0F421E6B729C2D24","name":"常安街","lat":"22.266015","long":"114.245230"},{"id":"981A7F2220E8B3CA","name":"富欣花園","lat":"22.264888","long":"114.248010"},{"id":"2E0D7F52D1608C12","name":"培僑小學","lat":"22.263691","long":"114.250182"},{"id":"3F06E3B155C6A4BF","name":"藍灣半島巴士總站","lat":"22.266297","long":"114.250656"}],"routeId":"606","description":"正常班次"},{"company":"kmb","route":"606","routeType":"4","dir":"O","orig":"彩雲(豐盛街)","dest":"小西灣(藍灣半島)","stopList":[{"id":"360587444784CEAB","name":"彩雲(豐盛街)總站","lat":"22.333288","long":"114.216453"},{"id":"1EF5FAB9266BD6C8","name":"彩雲邨","lat":"22.333471","long":"114.214923"},{"id":"54733D2BB5BE7121","name":"牛池灣轉車站 - 彩虹站 (K6)","lat":"22.334196","long":"114.210123"},{"id":"8CFDFD3B86662D91","name":"翠石樓","lat":"22.333261","long":"114.207770"},{"id":"23AF5995FEBCA8E6","name":"啟業邨","lat":"22.330675","long":"114.210388"},{"id":"C970D8254790191E","name":"彩興路","lat":"22.331230","long":"114.212443"},{"id":"E905F8E518AE17B6","name":"盈安樓","lat":"22.329075","long":"114.214996"},{"id":"24AD2532770CF399","name":"盈順樓","lat":"22.326815","long":"114.215265"},{"id":"5564FED01546FF23","name":"彩頤居","lat":"22.325779","long":"114.216743"},{"id":"F140654A12BA066A","name":"牛頭角總站","lat":"22.323044","long":"114.216814"},{"id":"5358062C769CEC05","name":"牛頭角上邨","lat":"22.320611","long":"114.215750"},{"id":"C32B9494869D5BBF","name":"喜鵲樓","lat":"22.317173","long":"114.217511"},{"id":"3F9AE21DC3A540B9","name":"牛頭角站 (V1)","lat":"22.314739","long":"114.220539"},{"id":"F2127FD781019971","name":"觀塘轉車站 - 觀塘市中心 (T2)","lat":"22.313042","long":"114.224931"},{"id":"AB2BD1CDDCB213CB","name":"觀塘站","lat":"22.311530","long":"114.227804"},{"id":"5AAC6A858427D04E","name":"觀塘游泳池 (R3)","lat":"22.310432","long":"114.229545"},{"id":"5BDD5F9F4C89D3E1","name":"藍田站","lat":"22.307106","long":"114.233517"},{"id":"9535298A652873DB","name":"東隧轉車站 (K1)","lat":"22.300285","long":"114.233264"},{"id":"B6E124DFD59022EF","name":"健康村","lat":"22.292173","long":"114.206222"},{"id":"40CB528985641937","name":"模範邨","lat":"22.291725","long":"114.207756"},{"id":"17A5341790B188CB","name":"民新街","lat":"22.290048","long":"114.209490"},{"id":"633C082A94176ED0","name":"新威園","lat":"22.285925","long":"114.211174"},{"id":"7ADCBB1CA80611B0","name":"船塢里","lat":"22.284791","long":"114.214125"},{"id":"F63A6E7548CF6D44","name":"太古城中心","lat":"22.285388","long":"114.217396"},{"id":"1A03767DB7C1824D","name":"太康樓","lat":"22.283115","long":"114.221408"},{"id":"37A527C88AEA72AC","name":"港島民生書院","lat":"22.283317","long":"114.223718"},{"id":"249030228FF24B3F","name":"南安里","lat":"22.277870","long":"114.226934"},{"id":"72F07CA66230A1BE","name":"阿公岩道","lat":"22.274977","long":"114.231063"},{"id":"C19CD7CCA03DBEBA","name":"鯉魚門公園","lat":"22.273972","long":"114.231542"},{"id":"EC157EA93B3DD279","name":"大潭道","lat":"22.271611","long":"114.233266"},{"id":"FACE7DC841CEF78F","name":"東區醫院","lat":"22.268443","long":"114.233719"},{"id":"41E537666558ED07","name":"高威閣","lat":"22.266651","long":"114.233785"},{"id":"B4CF77BA0F9D34B8","name":"興華邨興翠樓","lat":"22.262733","long":"114.234551"},{"id":"671C0B06B1582C54","name":"興華邨卓華樓","lat":"22.262078","long":"114.235508"},{"id":"5F0966CBF6A909A3","name":"青年廣場","lat":"22.262852","long":"114.236829"},{"id":"B83A88488B3F6EAB","name":"怡泰街","lat":"22.263349","long":"114.238992"},{"id":"D533E8F25C189485","name":"漁灣邨","lat":"22.265312","long":"114.241787"},{"id":"0F421E6B729C2D24","name":"常安街","lat":"22.266015","long":"114.245230"},{"id":"981A7F2220E8B3CA","name":"富欣花園","lat":"22.264888","long":"114.248010"},{"id":"2E0D7F52D1608C12","name":"培僑小學","lat":"22.263691","long":"114.250182"},{"id":"3F06E3B155C6A4BF","name":"藍灣半島巴士總站","lat":"22.266297","long":"114.250656"}],"routeId":"606","description":"特別班次"},{"company":"kmb","route":"606","routeType":"1","dir":"I","orig":"小西灣(藍灣半島)","dest":"彩雲(豐盛街)","stopList":[{"id":"3F06E3B155C6A4BF","name":"藍灣半島巴士總站","lat":"22.266297","long":"114.250656"},{"id":"5C1471822EE10AF3","name":"富怡花園","lat":"22.263499","long":"114.250287"},{"id":"5FAF9DC59A28A8B1","name":"小西灣邨","lat":"22.263090","long":"114.249289"},{"id":"906F89BBA32AEF7E","name":"富城閣","lat":"22.265767","long":"114.245620"},{"id":"3D5712E812B2A644","name":"樂軒臺","lat":"22.264966","long":"114.241738"},{"id":"BB5C1DCDD6B2BC9D","name":"環翠商場","lat":"22.263066","long":"114.238644"},{"id":"C539A7A9365F64D0","name":"環翠邨澤翠樓","lat":"22.262584","long":"114.236716"},{"id":"51B7D1F60A5BA724","name":"興華邨卓華樓","lat":"22.261630","long":"114.234893"},{"id":"4BD11538EEA40F55","name":"興華邨豐興樓","lat":"22.262597","long":"114.234260"},{"id":"073E1DD8599E7315","name":"天主教海星堂","lat":"22.265149","long":"114.233614"},{"id":"41FA91EC4FFF5A19","name":"興民邨","lat":"22.268293","long":"114.233358"},{"id":"0DCC18C3A018C1DA","name":"山翠苑","lat":"22.269285","long":"114.233546"},{"id":"75767448DA6FA081","name":"筲箕灣東官立中學","lat":"22.272293","long":"114.232641"},{"id":"4073C7B5B3D72456","name":"阿公岩道","lat":"22.274823","long":"114.230902"},{"id":"EBBFDA8142CCE90D","name":"南安里","lat":"22.277319","long":"114.227279"},{"id":"96B1319F18A47BA5","name":"新成街","lat":"22.278789","long":"114.226149"},{"id":"32D100AA14882F16","name":"西灣河文娛中心","lat":"22.281715","long":"114.222056"},{"id":"F1C0B762655B89E4","name":"康怡廣場","lat":"22.284482","long":"114.216757"},{"id":"996069D6FEF7D71A","name":"寶峰園","lat":"22.284577","long":"114.214738"},{"id":"75CE4282D2043790","name":"新威園","lat":"22.285505","long":"114.211081"},{"id":"C00C986B85A2220E","name":"民新街","lat":"22.289658","long":"114.209342"},{"id":"3328A22FC67A46F9","name":"健康村","lat":"22.291872","long":"114.206378"},{"id":"9335E0F061724158","name":"電照街","lat":"22.292559","long":"114.202798"},{"id":"D678B3364437D16B","name":"東隧轉車站 (L1)","lat":"22.301070","long":"114.232925"},{"id":"2EF9764BE18FC290","name":"藍田站","lat":"22.305354","long":"114.234128"},{"id":"F1A90CEE2B8C40CC","name":"觀塘法院 (F2)","lat":"22.309991","long":"114.229553"},{"id":"45C2286729E1475B","name":"裕民坊","lat":"22.313405","long":"114.225071"},{"id":"DBEA3F848C7981F2","name":"牛頭角站","lat":"22.315272","long":"114.219744"},{"id":"84BACA14B0C50790","name":"觀塘官立小學","lat":"22.316752","long":"114.217683"},{"id":"03F7818C0E176C55","name":"九龍灣常悅道","lat":"22.321289","long":"114.208982"},{"id":"9268B442F0C2807E","name":"九龍灣臨華街","lat":"22.322347","long":"114.208909"},{"id":"E7116B44D9E9393A","name":"牛池灣轉車站 - 彩雲聖若瑟 (E1)","lat":"22.334458","long":"114.211619"},{"id":"942E95B4336BDFA7","name":"白虹樓","lat":"22.332599","long":"114.215269"},{"id":"360587444784CEAB","name":"彩雲(豐盛街)總站","lat":"22.333288","long":"114.216453"}],"routeId":"606","description":"正常班次"},{"company":"ctb","route":"606","routeType":null,"dir":"I","orig":"彩雲 (豐盛街)","dest":"小西灣 (藍灣半島)","stopList":[{"id":"001651","name":"彩雲 (豐盛街)","lat":"22.333441022091","long":"114.21648658053"},{"id":"001776","name":"彩雲邨, 清水灣道","lat":"22.333499332091","long":"114.21476078053"},{"id":"001654","name":"坪石邨","lat":"22.334128192091","long":"114.21002009053"},{"id":"001768","name":"坪石邨翠石樓, 彩虹交匯處","lat":"22.333270812091","long":"114.20773008053"},{"id":"001504","name":"啟業邨, 觀塘道","lat":"22.330616082091","long":"114.21034329053"},{"id":"003605","name":"彩興路","lat":"22.331222212091","long":"114.21236533053"},{"id":"003292","name":"彩盈邨盈安樓, 彩霞道","lat":"22.329093702091","long":"114.21514140053"},{"id":"003293","name":"彩盈邨盈順樓, 彩霞道","lat":"22.326756312091","long":"114.21531237053"},{"id":"003354","name":"彩頤居, 彩霞道","lat":"22.325801572091","long":"114.21672494053"},{"id":"002584","name":"牛頭角","lat":"22.323140442091","long":"114.21678296053"},{"id":"001669","name":"牛頭角上邨, 牛頭角道","lat":"22.320624872091","long":"114.21569085053"},{"id":"001773","name":"臨華街, 宏照道","lat":"22.323544232091","long":"114.20888965053"},{"id":"001655","name":"常悅道","lat":"22.321528602091","long":"114.20793837053"},{"id":"001657","name":"常怡道","lat":"22.320843992091","long":"114.20772571053"},{"id":"001656","name":"花園大廈喜鵲樓, 牛頭角道","lat":"22.317085042091","long":"114.21761447053"},{"id":"001508","name":"牛頭角站, 觀塘道","lat":"22.315130552091","long":"114.21954638053"},{"id":"001509","name":"觀塘市中心, 觀塘道","lat":"22.313441392091","long":"114.22397362053"},{"id":"001510","name":"觀塘站","lat":"22.311633112091","long":"114.22761751053"},{"id":"001518","name":"觀塘游泳池, 鯉魚門道","lat":"22.310380582091","long":"114.22952246053"},{"id":"001519","name":"藍田站","lat":"22.307091882091","long":"114.23347123053"},{"id":"001463","name":"東區海底隧道巴士轉乘站","lat":"22.300498232091","long":"114.23351297053"},{"id":"001265","name":"健康村, 英皇道","lat":"22.292089592091","long":"114.20652344053"},{"id":"001266","name":"模範邨, 英皇道","lat":"22.291271952091","long":"114.20871956053"},{"id":"003338","name":"民新街, 英皇道","lat":"22.290055362091","long":"114.20945578053"},{"id":"001268","name":"新威園, 英皇道","lat":"22.285544382091","long":"114.21133814053"},{"id":"001393","name":"船塢里, 英皇道","lat":"22.284773752091","long":"114.21420833053"},{"id":"001270","name":"太古城中心, 英皇道","lat":"22.285287892091","long":"114.21758355053"},{"id":"001313","name":"太康樓, 太康街","lat":"22.283340892091","long":"114.22177946053"},{"id":"001315","name":"港島民生書院, 太安街","lat":"22.283046192091","long":"114.22329985053"},{"id":"001299","name":"南安里, 筲箕灣道","lat":"22.277849882091","long":"114.22690650053"},{"id":"001216","name":"阿公岩道, 柴灣道","lat":"22.274447992091","long":"114.23121621053"},{"id":"001217","name":"鯉魚門公園, 柴灣道","lat":"22.273682822091","long":"114.23182613053"},{"id":"001218","name":"大潭道, 柴灣道","lat":"22.271469842091","long":"114.23323635053"},{"id":"001219","name":"東區醫院, 柴灣道","lat":"22.268521772091","long":"114.23362526053"},{"id":"001220","name":"高威閣, 柴灣道","lat":"22.266776752091","long":"114.23370630053"},{"id":"001336","name":"興華邨興翠樓, 環翠道","lat":"22.262856432091","long":"114.23450941053"},{"id":"001337","name":"興華邨卓華樓, 環翠道","lat":"22.261984002091","long":"114.23556086053"},{"id":"001338","name":"青年廣場, 環翠道","lat":"22.262812062091","long":"114.23696165053"},{"id":"001222","name":"怡泰街, 柴灣道","lat":"22.263309472091","long":"114.23896966053"},{"id":"001224","name":"漁灣邨, 柴灣道","lat":"22.265262802091","long":"114.24180700053"},{"id":"001225","name":"常安街, 柴灣道","lat":"22.265964212091","long":"114.24531836053"},{"id":"001362","name":"富欣花園, 小西灣道","lat":"22.264655872091","long":"114.24820799053"},{"id":"001383","name":"培僑小學, 富怡道","lat":"22.263544722091","long":"114.25009797053"},{"id":"001382","name":"小西灣 (藍灣半島)","lat":"22.266350942091","long":"114.25095264053"}],"routeId":"606","description":"正常班次"},{"company":"ctb","route":"606","routeType":null,"dir":"O","orig":"小西灣 (藍灣半島)","dest":"彩雲 (豐盛街)","stopList":[{"id":"001382","name":"小西灣 (藍灣半島)","lat":"22.266350942091","long":"114.25095264053"},{"id":"001384","name":"富怡花園, 富怡道","lat":"22.263309502091","long":"114.25005285053"},{"id":"001386","name":"小西灣邨, 小西灣道","lat":"22.263205022091","long":"114.24912997053"},{"id":"001226","name":"富城閣, 柴灣道","lat":"22.265804172091","long":"114.24535768053"},{"id":"001227","name":"樂軒臺, 柴灣道","lat":"22.264883822091","long":"114.24156861053"},{"id":"001228","name":"環翠商場, 柴灣道","lat":"22.263138192091","long":"114.23878619053"},{"id":"001339","name":"環翠邨澤翠樓, 環翠道","lat":"22.262518442091","long":"114.23664512053"},{"id":"001340","name":"興華邨卓華樓, 環翠道","lat":"22.261748512091","long":"114.23498678053"},{"id":"001341","name":"興華邨豐興樓, 環翠道","lat":"22.262516262091","long":"114.23426978053"},{"id":"001229","name":"天主教海星堂, 柴灣道","lat":"22.265027152091","long":"114.23373522053"},{"id":"001230","name":"興民邨, 柴灣道","lat":"22.267894132091","long":"114.23341093053"},{"id":"001231","name":"山翠苑, 柴灣道","lat":"22.269331482091","long":"114.23354147053"},{"id":"001232","name":"筲箕灣東官立中學, 柴灣道","lat":"22.272471812091","long":"114.23263770053"},{"id":"001233","name":"阿公岩道, 柴灣道","lat":"22.274719782091","long":"114.23085406053"},{"id":"001300","name":"南安里, 筲箕灣道","lat":"22.277420312091","long":"114.22717089053"},{"id":"001301","name":"新成街, 筲箕灣道","lat":"22.278724872091","long":"114.22622512053"},{"id":"001303","name":"西灣河文娛中心, 筲箕灣道","lat":"22.281794772091","long":"114.22202073053"},{"id":"001288","name":"康怡廣場, 康山道","lat":"22.284499762091","long":"114.21671745053"},{"id":"001271","name":"寶峰園, 英皇道","lat":"22.284594642091","long":"114.21416959053"},{"id":"001365","name":"新威園, 英皇道","lat":"22.285529212091","long":"114.21108139053"},{"id":"001274","name":"民新街, 英皇道","lat":"22.289926312091","long":"114.20930325053"},{"id":"001276","name":"健康村, 英皇道","lat":"22.291912702091","long":"114.20634072053"},{"id":"001323","name":"電照街","lat":"22.292679562091","long":"114.20283216053"},{"id":"001464","name":"東區海底隧道巴士轉乘站","lat":"22.301175862091","long":"114.23338190053"},{"id":"001522","name":"藍田站, 鯉魚門道","lat":"22.305529462091","long":"114.23413329053"},{"id":"001521","name":"觀塘法院, 鯉魚門道","lat":"22.309748242091","long":"114.22987703053"},{"id":"001647","name":"裕民坊","lat":"22.313588222091","long":"114.22464493053"},{"id":"001648","name":"牛頭角站, 牛頭角道","lat":"22.315247332091","long":"114.21981384053"},{"id":"001650","name":"觀塘官立小學, 牛頭角道","lat":"22.316965702091","long":"114.21762044053"},{"id":"001649","name":"常悅道, 宏照道","lat":"22.321241952091","long":"114.20897841053"},{"id":"001607","name":"臨華街, 宏照道","lat":"22.322591022091","long":"114.20883070053"},{"id":"001800","name":"彩雲聖若瑟小學, 清水灣道","lat":"22.334293392091","long":"114.21177304053"},{"id":"001652","name":"彩雲邨白虹樓, 新清水灣道","lat":"22.332613332091","long":"114.21556010053"},{"id":"001651","name":"彩雲 (豐盛街)","lat":"22.333441022091","long":"114.21648658053"}],"routeId":"606","description":"正常班次"}]