[{"company":"kmb","route":"606","routeType":"1","dir":"O","orig":"彩雲(豐盛街)","dest":"小西灣(藍灣半島)","stopList":[{"id":"360587444784CEAB","name":"彩雲(豐盛街)總站 (WT240)","lat":"22.333288","long":"114.216453"},{"id":"1EF5FAB9266BD6C8","name":"彩雲邨 (WT987)","lat":"22.333471","long":"114.214923"},{"id":"54733D2BB5BE7121","name":"牛池灣轉車站 - 彩虹站 (WT895)","lat":"22.334196","long":"114.210123"},{"id":"8CFDFD3B86662D91","name":"翠石樓 (WT618)","lat":"22.333261","long":"114.207770"},{"id":"9A0959AB68FA5E1F","name":"九龍灣臨華街 (KT123)","lat":"22.323512","long":"114.208973"},{"id":"94358F5481BAE505","name":"常悅道 (KT130)","lat":"22.321438","long":"114.207948"},{"id":"017A10A009B4A409","name":"常怡道 (KT136)","lat":"22.320610","long":"114.207918"},{"id":"C32B9494869D5BBF","name":"喜鵲樓 (KT379)","lat":"22.317173","long":"114.217511"},{"id":"3F9AE21DC3A540B9","name":"牛頭角站 (KT338)","lat":"22.314739","long":"114.220539"},{"id":"F2127FD781019971","name":"觀塘轉車站-觀塘市中心 (KT351)","lat":"22.313042","long":"114.224931"},{"id":"AB2BD1CDDCB213CB","name":"觀塘站 (KT991)","lat":"22.311530","long":"114.227804"},{"id":"5AAC6A858427D04E","name":"觀塘游泳池 (KT360)","lat":"22.310432","long":"114.229545"},{"id":"5BDD5F9F4C89D3E1","name":"藍田站 (LT909)","lat":"22.307106","long":"114.233517"},{"id":"9535298A652873DB","name":"東隧轉車站 (LT411)","lat":"22.300285","long":"114.233264"},{"id":"B6E124DFD59022EF","name":"健康村","lat":"22.292173","long":"114.206222"},{"id":"40CB528985641937","name":"模範邨","lat":"22.291725","long":"114.207756"},{"id":"17A5341790B188CB","name":"民新街","lat":"22.290048","long":"114.209490"},{"id":"633C082A94176ED0","name":"新威園","lat":"22.285925","long":"114.211174"},{"id":"7ADCBB1CA80611B0","name":"船塢里","lat":"22.284791","long":"114.214125"},{"id":"F63A6E7548CF6D44","name":"太古城中心","lat":"22.285388","long":"114.217396"},{"id":"D3A622F2C90CF194","name":"太康樓","lat":"22.283309","long":"114.221732"},{"id":"37A527C88AEA72AC","name":"港島民生書院","lat":"22.283317","long":"114.223718"},{"id":"EE5EC4A3D89B15A2","name":"東欣苑","lat":"22.280777","long":"114.220835"},{"id":"919E4DD5F0CD1EB8","name":"東熹苑","lat":"22.280510","long":"114.219654"},{"id":"C5047114FD7095C2","name":"逸熹閣","lat":"22.279692","long":"114.218320"},{"id":"09C3C495C7DF0E37","name":"耀華樓","lat":"22.279341","long":"114.221004"},{"id":"D709FAE71F6D5238","name":"耀東邨","lat":"22.277965","long":"114.222893"},{"id":"52F78710210E94E6","name":"耀興樓","lat":"22.276444","long":"114.224227"},{"id":"0D34F002BAE8E646","name":"耀貴樓","lat":"22.275616","long":"114.225548"},{"id":"092A3C151699DEC0","name":"筲箕灣廣場","lat":"22.277358","long":"114.225979"},{"id":"249030228FF24B3F","name":"南安里","lat":"22.277870","long":"114.226934"},{"id":"72F07CA66230A1BE","name":"阿公岩道","lat":"22.274977","long":"114.231063"},{"id":"3C20E46D2F60DA28","name":"鯉魚門公園","lat":"22.273126","long":"114.232520"},{"id":"EC157EA93B3DD279","name":"大潭道","lat":"22.271611","long":"114.233266"},{"id":"FACE7DC841CEF78F","name":"東區醫院","lat":"22.268443","long":"114.233719"},{"id":"41E537666558ED07","name":"高威閣","lat":"22.266651","long":"114.233785"},{"id":"B4CF77BA0F9D34B8","name":"興華邨興翠樓","lat":"22.262733","long":"114.234551"},{"id":"671C0B06B1582C54","name":"興華邨卓華樓","lat":"22.262078","long":"114.235508"},{"id":"5F0966CBF6A909A3","name":"青年廣場","lat":"22.262852","long":"114.236829"},{"id":"B83A88488B3F6EAB","name":"怡泰街","lat":"22.263349","long":"114.238992"},{"id":"D533E8F25C189485","name":"漁灣邨","lat":"22.265312","long":"114.241787"},{"id":"0F421E6B729C2D24","name":"常安街","lat":"22.266015","long":"114.245230"},{"id":"27039EC5E64E6137","name":"富欣花園","lat":"22.264888","long":"114.248010"},{"id":"2E0D7F52D1608C12","name":"培僑小學","lat":"22.263691","long":"114.250182"},{"id":"3F06E3B155C6A4BF","name":"藍灣半島巴士總站","lat":"22.266297","long":"114.250656"}],"routeId":"606","description":"正常班次"},{"company":"kmb","route":"606","routeType":"4","dir":"O","orig":"彩雲(豐盛街)","dest":"小西灣(藍灣半島)","stopList":[{"id":"360587444784CEAB","name":"彩雲(豐盛街)總站 (WT240)","lat":"22.333288","long":"114.216453"},{"id":"1EF5FAB9266BD6C8","name":"彩雲邨 (WT987)","lat":"22.333471","long":"114.214923"},{"id":"54733D2BB5BE7121","name":"牛池灣轉車站 - 彩虹站 (WT895)","lat":"22.334196","long":"114.210123"},{"id":"8CFDFD3B86662D91","name":"翠石樓 (WT618)","lat":"22.333261","long":"114.207770"},{"id":"23AF5995FEBCA8E6","name":"啟業邨 (KT314)","lat":"22.330675","long":"114.210388"},{"id":"C970D8254790191E","name":"彩興路 (KT411)","lat":"22.331230","long":"114.212443"},{"id":"E905F8E518AE17B6","name":"盈安樓 (KT406)","lat":"22.329075","long":"114.214996"},{"id":"24AD2532770CF399","name":"盈順樓 (KT407)","lat":"22.326815","long":"114.215265"},{"id":"5564FED01546FF23","name":"彩頤居 (KT408)","lat":"22.325779","long":"114.216743"},{"id":"F140654A12BA066A","name":"牛頭角總站 (KT956)","lat":"22.323044","long":"114.216814"},{"id":"5358062C769CEC05","name":"牛頭角上邨 (KT377)","lat":"22.320611","long":"114.215750"},{"id":"C32B9494869D5BBF","name":"喜鵲樓 (KT379)","lat":"22.317173","long":"114.217511"},{"id":"3F9AE21DC3A540B9","name":"牛頭角站 (KT338)","lat":"22.314739","long":"114.220539"},{"id":"F2127FD781019971","name":"觀塘轉車站-觀塘市中心 (KT351)","lat":"22.313042","long":"114.224931"},{"id":"AB2BD1CDDCB213CB","name":"觀塘站 (KT991)","lat":"22.311530","long":"114.227804"},{"id":"5AAC6A858427D04E","name":"觀塘游泳池 (KT360)","lat":"22.310432","long":"114.229545"},{"id":"5BDD5F9F4C89D3E1","name":"藍田站 (LT909)","lat":"22.307106","long":"114.233517"},{"id":"9535298A652873DB","name":"東隧轉車站 (LT411)","lat":"22.300285","long":"114.233264"},{"id":"B6E124DFD59022EF","name":"健康村","lat":"22.292173","long":"114.206222"},{"id":"40CB528985641937","name":"模範邨","lat":"22.291725","long":"114.207756"},{"id":"17A5341790B188CB","name":"民新街","lat":"22.290048","long":"114.209490"},{"id":"633C082A94176ED0","name":"新威園","lat":"22.285925","long":"114.211174"},{"id":"7ADCBB1CA80611B0","name":"船塢里","lat":"22.284791","long":"114.214125"},{"id":"F63A6E7548CF6D44","name":"太古城中心","lat":"22.285388","long":"114.217396"},{"id":"D3A622F2C90CF194","name":"太康樓","lat":"22.283309","long":"114.221732"},{"id":"37A527C88AEA72AC","name":"港島民生書院","lat":"22.283317","long":"114.223718"},{"id":"EE5EC4A3D89B15A2","name":"東欣苑","lat":"22.280777","long":"114.220835"},{"id":"919E4DD5F0CD1EB8","name":"東熹苑","lat":"22.280510","long":"114.219654"},{"id":"C5047114FD7095C2","name":"逸熹閣","lat":"22.279692","long":"114.218320"},{"id":"09C3C495C7DF0E37","name":"耀華樓","lat":"22.279341","long":"114.221004"},{"id":"D709FAE71F6D5238","name":"耀東邨","lat":"22.277965","long":"114.222893"},{"id":"52F78710210E94E6","name":"耀興樓","lat":"22.276444","long":"114.224227"},{"id":"0D34F002BAE8E646","name":"耀貴樓","lat":"22.275616","long":"114.225548"},{"id":"092A3C151699DEC0","name":"筲箕灣廣場","lat":"22.277358","long":"114.225979"},{"id":"249030228FF24B3F","name":"南安里","lat":"22.277870","long":"114.226934"},{"id":"72F07CA66230A1BE","name":"阿公岩道","lat":"22.274977","long":"114.231063"},{"id":"3C20E46D2F60DA28","name":"鯉魚門公園","lat":"22.273126","long":"114.232520"},{"id":"EC157EA93B3DD279","name":"大潭道","lat":"22.271611","long":"114.233266"},{"id":"FACE7DC841CEF78F","name":"東區醫院","lat":"22.268443","long":"114.233719"},{"id":"41E537666558ED07","name":"高威閣","lat":"22.266651","long":"114.233785"},{"id":"B4CF77BA0F9D34B8","name":"興華邨興翠樓","lat":"22.262733","long":"114.234551"},{"id":"671C0B06B1582C54","name":"興華邨卓華樓","lat":"22.262078","long":"114.235508"},{"id":"5F0966CBF6A909A3","name":"青年廣場","lat":"22.262852","long":"114.236829"},{"id":"B83A88488B3F6EAB","name":"怡泰街","lat":"22.263349","long":"114.238992"},{"id":"D533E8F25C189485","name":"漁灣邨","lat":"22.265312","long":"114.241787"},{"id":"0F421E6B729C2D24","name":"常安街","lat":"22.266015","long":"114.245230"},{"id":"27039EC5E64E6137","name":"富欣花園","lat":"22.264888","long":"114.248010"},{"id":"2E0D7F52D1608C12","name":"培僑小學","lat":"22.263691","long":"114.250182"},{"id":"3F06E3B155C6A4BF","name":"藍灣半島巴士總站","lat":"22.266297","long":"114.250656"}],"routeId":"606","description":"特別班次"},{"company":"kmb","route":"606","routeType":"1","dir":"I","orig":"小西灣(藍灣半島)","dest":"彩雲(豐盛街)","stopList":[{"id":"3F06E3B155C6A4BF","name":"藍灣半島巴士總站","lat":"22.266297","long":"114.250656"},{"id":"5C1471822EE10AF3","name":"富怡花園","lat":"22.263499","long":"114.250287"},{"id":"2567DBD44B8B1328","name":"小西灣邨","lat":"22.263050","long":"114.249186"},{"id":"906F89BBA32AEF7E","name":"富城閣","lat":"22.265767","long":"114.245620"},{"id":"3D5712E812B2A644","name":"樂軒臺","lat":"22.264966","long":"114.241738"},{"id":"BB5C1DCDD6B2BC9D","name":"環翠商場","lat":"22.263066","long":"114.238644"},{"id":"C539A7A9365F64D0","name":"環翠邨澤翠樓","lat":"22.262584","long":"114.236716"},{"id":"51B7D1F60A5BA724","name":"興華邨卓華樓","lat":"22.261630","long":"114.234893"},{"id":"4BD11538EEA40F55","name":"興華邨豐興樓","lat":"22.262597","long":"114.234260"},{"id":"073E1DD8599E7315","name":"天主教海星堂","lat":"22.265149","long":"114.233614"},{"id":"41FA91EC4FFF5A19","name":"興民邨","lat":"22.268293","long":"114.233358"},{"id":"0DCC18C3A018C1DA","name":"山翠苑","lat":"22.269457","long":"114.233556"},{"id":"75767448DA6FA081","name":"筲箕灣東官立中學","lat":"22.272293","long":"114.232641"},{"id":"4073C7B5B3D72456","name":"阿公岩道","lat":"22.274823","long":"114.230902"},{"id":"EBBFDA8142CCE90D","name":"南安里","lat":"22.277319","long":"114.227279"},{"id":"96B1319F18A47BA5","name":"新成街","lat":"22.278789","long":"114.226149"},{"id":"223C710D32CE25F0","name":"筲箕灣廣場","lat":"22.277134","long":"114.226274"},{"id":"ACF62AEB50A6E73F","name":"東盛苑","lat":"22.275883","long":"114.226417"},{"id":"E71AA0E0F0D0377A","name":"耀明樓","lat":"22.275895","long":"114.224552"},{"id":"D715DFCAE9DEB3E7","name":"耀東商場","lat":"22.277323","long":"114.223499"},{"id":"E114ADD0B146D4CA","name":"耀華樓","lat":"22.279016","long":"114.220208"},{"id":"A919C2BFC31695EE","name":"景熹閣","lat":"22.279757","long":"114.217927"},{"id":"47E68CD8B89FD64D","name":"興東邨","lat":"22.280616","long":"114.219706"},{"id":"58858CC869297C4A","name":"太寧街","lat":"22.282099","long":"114.220325"},{"id":"F1C0B762655B89E4","name":"康怡廣場","lat":"22.284482","long":"114.216757"},{"id":"996069D6FEF7D71A","name":"寶峰園","lat":"22.284577","long":"114.214738"},{"id":"75CE4282D2043790","name":"新威園","lat":"22.285505","long":"114.211081"},{"id":"C00C986B85A2220E","name":"民新街","lat":"22.289658","long":"114.209342"},{"id":"3328A22FC67A46F9","name":"健康村","lat":"22.291872","long":"114.206378"},{"id":"9335E0F061724158","name":"電照街","lat":"22.292559","long":"114.202798"},{"id":"D678B3364437D16B","name":"東隧轉車站 (LT101)","lat":"22.301070","long":"114.232925"},{"id":"6C6B36F7550907CE","name":"藍田站 (LT608)","lat":"22.305444","long":"114.234043"},{"id":"F1A90CEE2B8C40CC","name":"觀塘法院 (KT611)","lat":"22.309991","long":"114.229553"},{"id":"45C2286729E1475B","name":"裕民坊 (KT556)","lat":"22.313405","long":"114.225071"},{"id":"DBEA3F848C7981F2","name":"牛頭角站 (KT691)","lat":"22.315272","long":"114.219744"},{"id":"84BACA14B0C50790","name":"觀塘官立小學 (KT692)","lat":"22.316752","long":"114.217683"},{"id":"CDF0D5A4E1023C8E","name":"九龍灣常悅道 (KT477)","lat":"22.321241","long":"114.208988"},{"id":"9268B442F0C2807E","name":"九龍灣臨華街 (KT481)","lat":"22.322347","long":"114.208909"},{"id":"E7116B44D9E9393A","name":"牛池灣轉車站-彩雲聖若瑟","lat":"22.334458","long":"114.211619"},{"id":"942E95B4336BDFA7","name":"白虹樓 (WT230)","lat":"22.332599","long":"114.215269"},{"id":"360587444784CEAB","name":"彩雲(豐盛街)總站 (WT240)","lat":"22.333288","long":"114.216453"}],"routeId":"606","description":"正常班次"},{"company":"ctb","route":"606","routeType":null,"dir":"I","orig":"彩雲 (豐盛街)","dest":"小西灣 (藍灣半島)","stopList":[{"id":"001651","name":"彩雲 (豐盛街)","lat":"22.333441","long":"114.216487"},{"id":"001776","name":"彩雲邨, 清水灣道","lat":"22.333499","long":"114.214761"},{"id":"001654","name":"坪石邨","lat":"22.334128","long":"114.210020"},{"id":"001768","name":"坪石邨翠石樓, 彩虹交匯處","lat":"22.333271","long":"114.207730"},{"id":"001504","name":"啟業邨, 觀塘道","lat":"22.330616","long":"114.210343"},{"id":"003605","name":"彩興路","lat":"22.331222","long":"114.212365"},{"id":"003292","name":"彩盈邨盈安樓, 彩霞道","lat":"22.329094","long":"114.215141"},{"id":"003293","name":"彩盈邨盈順樓, 彩霞道","lat":"22.326756","long":"114.215312"},{"id":"003354","name":"彩頤居, 彩霞道","lat":"22.325601","long":"114.216860"},{"id":"002584","name":"牛頭角","lat":"22.323140","long":"114.216783"},{"id":"001669","name":"牛頭角上邨, 牛頭角道","lat":"22.320625","long":"114.215691"},{"id":"001773","name":"臨華街, 宏照道","lat":"22.323544","long":"114.208890"},{"id":"001655","name":"企業廣場, 常悅道","lat":"22.321529","long":"114.207938"},{"id":"001657","name":"MegaBox, 常怡道","lat":"22.320844","long":"114.207726"},{"id":"001656","name":"花園大廈喜鵲樓, 牛頭角道","lat":"22.317085","long":"114.217614"},{"id":"001508","name":"牛頭角站, 觀塘道","lat":"22.315131","long":"114.219546"},{"id":"001509","name":"觀塘市中心, 觀塘道","lat":"22.313441","long":"114.223974"},{"id":"001510","name":"觀塘站","lat":"22.311633","long":"114.227618"},{"id":"001518","name":"觀塘游泳池, 鯉魚門道","lat":"22.310381","long":"114.229522"},{"id":"001519","name":"藍田站","lat":"22.307092","long":"114.233471"},{"id":"001463","name":"東區海底隧道巴士轉乘站","lat":"22.300498","long":"114.233513"},{"id":"001265","name":"健康村, 英皇道","lat":"22.292090","long":"114.206523"},{"id":"001266","name":"模範邨, 英皇道","lat":"22.291272","long":"114.208720"},{"id":"003338","name":"民新街, 英皇道","lat":"22.290055","long":"114.209456"},{"id":"001268","name":"新威園, 英皇道","lat":"22.285544","long":"114.211338"},{"id":"001393","name":"船塢里, 英皇道","lat":"22.284774","long":"114.214208"},{"id":"001270","name":"太古城中心, 英皇道","lat":"22.285288","long":"114.217584"},{"id":"001313","name":"太康樓, 太康街","lat":"22.283341","long":"114.221779"},{"id":"001315","name":"港島民生書院, 太安街","lat":"22.283046","long":"114.223300"},{"id":"001376","name":"東欣苑, 耀興道","lat":"22.280709","long":"114.220824"},{"id":"001350","name":"東熹苑, 耀興道","lat":"22.280367","long":"114.219685"},{"id":"001351","name":"東熹苑逸熹閣, 耀興道","lat":"22.279405","long":"114.218323"},{"id":"001352","name":"耀東邨耀華樓, 耀興道","lat":"22.279322","long":"114.221109"},{"id":"002676","name":"耀東邨","lat":"22.277950","long":"114.222880"},{"id":"001353","name":"耀東邨耀興樓, 耀興道","lat":"22.276338","long":"114.224302"},{"id":"001354","name":"耀東邨耀貴樓, 耀興道","lat":"22.275634","long":"114.225741"},{"id":"001355","name":"筲箕灣廣場, 耀興道","lat":"22.277483","long":"114.225942"},{"id":"001299","name":"南安里, 筲箕灣道","lat":"22.277850","long":"114.226907"},{"id":"001216","name":"阿公岩道, 柴灣道","lat":"22.274448","long":"114.231216"},{"id":"001217","name":"鯉魚門公園, 柴灣道","lat":"22.273215","long":"114.232422"},{"id":"001218","name":"大潭道, 柴灣道","lat":"22.271470","long":"114.233236"},{"id":"001219","name":"東區醫院, 柴灣道","lat":"22.268522","long":"114.233625"},{"id":"001220","name":"高威閣, 柴灣道","lat":"22.266777","long":"114.233706"},{"id":"001336","name":"興華邨興翠樓, 環翠道","lat":"22.262856","long":"114.234509"},{"id":"001337","name":"興華邨卓華樓, 環翠道","lat":"22.261984","long":"114.235561"},{"id":"001338","name":"青年廣場, 環翠道","lat":"22.262812","long":"114.236962"},{"id":"001222","name":"怡泰街, 柴灣道","lat":"22.263309","long":"114.238970"},{"id":"001224","name":"漁灣邨, 柴灣道","lat":"22.265263","long":"114.241807"},{"id":"001225","name":"常安街, 柴灣道","lat":"22.265964","long":"114.245318"},{"id":"001362","name":"富欣花園, 小西灣道","lat":"22.264656","long":"114.248208"},{"id":"001383","name":"培僑小學, 富怡道","lat":"22.263545","long":"114.250098"},{"id":"001382","name":"小西灣 (藍灣半島)","lat":"22.266351","long":"114.250953"}],"routeId":"606","description":"正常班次"},{"company":"ctb","route":"606","routeType":null,"dir":"O","orig":"小西灣 (藍灣半島)","dest":"彩雲 (豐盛街)","stopList":[{"id":"001382","name":"小西灣 (藍灣半島)","lat":"22.266351","long":"114.250953"},{"id":"001384","name":"富怡花園, 富怡道","lat":"22.263310","long":"114.250053"},{"id":"001386","name":"小西灣邨, 小西灣道","lat":"22.263205","long":"114.249130"},{"id":"001226","name":"富城閣, 柴灣道","lat":"22.265804","long":"114.245358"},{"id":"001227","name":"樂軒臺, 柴灣道","lat":"22.264884","long":"114.241569"},{"id":"001228","name":"環翠商場, 柴灣道","lat":"22.263138","long":"114.238786"},{"id":"001339","name":"環翠邨澤翠樓, 環翠道","lat":"22.262518","long":"114.236645"},{"id":"001340","name":"興華邨卓華樓, 環翠道","lat":"22.261749","long":"114.234987"},{"id":"001341","name":"興華邨豐興樓, 環翠道","lat":"22.262516","long":"114.234270"},{"id":"001229","name":"天主教海星堂, 柴灣道","lat":"22.265027","long":"114.233735"},{"id":"001230","name":"興民邨, 柴灣道","lat":"22.267894","long":"114.233411"},{"id":"001231","name":"山翠苑, 柴灣道","lat":"22.269331","long":"114.233541"},{"id":"001232","name":"筲箕灣官立中學, 柴灣道","lat":"22.272472","long":"114.232638"},{"id":"001233","name":"阿公岩道, 柴灣道","lat":"22.274720","long":"114.230854"},{"id":"001300","name":"南安里, 筲箕灣道","lat":"22.277420","long":"114.227171"},{"id":"001301","name":"新成街, 筲箕灣道","lat":"22.278725","long":"114.226225"},{"id":"001356","name":"筲箕灣廣場, 耀興道","lat":"22.277142","long":"114.226226"},{"id":"001357","name":"東盛苑, 耀興道","lat":"22.276099","long":"114.226511"},{"id":"003781","name":"耀東邨耀明樓, 耀興道","lat":"22.276010","long":"114.224467"},{"id":"001358","name":"耀東商場, 耀興道","lat":"22.277462","long":"114.223368"},{"id":"001359","name":"耀東邨耀華樓, 耀興道","lat":"22.278961","long":"114.220173"},{"id":"001360","name":"東熹苑景熹閣, 耀興道","lat":"22.280372","long":"114.217891"},{"id":"001361","name":"興東邨, 耀興道","lat":"22.280802","long":"114.219584"},{"id":"001375","name":"太寧街, 惠亨街","lat":"22.281801","long":"114.220498"},{"id":"001288","name":"康怡廣場, 康山道","lat":"22.284500","long":"114.216717"},{"id":"001271","name":"寶峰園, 英皇道","lat":"22.284595","long":"114.214170"},{"id":"001365","name":"新威園, 英皇道","lat":"22.285529","long":"114.211081"},{"id":"001274","name":"民新街, 英皇道","lat":"22.289926","long":"114.209303"},{"id":"001276","name":"健康村, 英皇道","lat":"22.291913","long":"114.206341"},{"id":"001323","name":"電照街","lat":"22.292680","long":"114.202832"},{"id":"001464","name":"東區海底隧道巴士轉乘站","lat":"22.301112","long":"114.233206"},{"id":"001522","name":"藍田站, 鯉魚門道","lat":"22.305529","long":"114.234133"},{"id":"001521","name":"觀塘法院, 鯉魚門道","lat":"22.309748","long":"114.229877"},{"id":"001647","name":"裕民坊","lat":"22.313588","long":"114.224645"},{"id":"001648","name":"牛頭角站, 牛頭角道","lat":"22.315247","long":"114.219814"},{"id":"001650","name":"觀塘官立小學, 牛頭角道","lat":"22.316966","long":"114.217620"},{"id":"001649","name":"MegaBox, 宏照道","lat":"22.321242","long":"114.208978"},{"id":"001607","name":"臨華街, 宏照道","lat":"22.322591","long":"114.208831"},{"id":"001800","name":"彩雲聖若瑟小學, 清水灣道","lat":"22.334293","long":"114.211773"},{"id":"001652","name":"彩雲邨白虹樓, 新清水灣道","lat":"22.332613","long":"114.215560"},{"id":"001651","name":"彩雲 (豐盛街)","lat":"22.333441","long":"114.216487"}],"routeId":"606","description":"正常班次"}]