[{"company":"ctb","route":"608","routeType":null,"dir":"I","orig":"筲箕灣","dest":"馬頭圍邨","stopList":[{"id":"001207","name":"筲箕灣","lat":"22.278421","long":"114.228331"},{"id":"001301","name":"新成街, 筲箕灣道","lat":"22.278725","long":"114.226225"},{"id":"001302","name":"海晏街, 筲箕灣道","lat":"22.280717","long":"114.223456"},{"id":"001303","name":"西灣河文娛中心, 筲箕灣道","lat":"22.281795","long":"114.222021"},{"id":"001367","name":"太富街, 筲箕灣道","lat":"22.283157","long":"114.220949"},{"id":"001288","name":"康怡廣場, 康山道","lat":"22.284500","long":"114.216717"},{"id":"001271","name":"寶峰園, 英皇道","lat":"22.284595","long":"114.214170"},{"id":"001365","name":"新威園, 英皇道","lat":"22.285529","long":"114.211081"},{"id":"001274","name":"民新街, 英皇道","lat":"22.289926","long":"114.209303"},{"id":"001276","name":"健康村, 英皇道","lat":"22.291913","long":"114.206341"},{"id":"001323","name":"電照街","lat":"22.292680","long":"114.202832"},{"id":"001464","name":"東區海底隧道巴士轉乘站","lat":"22.301112","long":"114.233206"},{"id":"001649","name":"MegaBox, 宏照道","lat":"22.321242","long":"114.208978"},{"id":"001607","name":"臨華街, 宏照道","lat":"22.322591","long":"114.208831"},{"id":"001608","name":"九龍灣運動場, 宏照道","lat":"22.326599","long":"114.208423"},{"id":"001645","name":"麗晶花園第 18 座, 宏照道","lat":"22.329778","long":"114.208104"},{"id":"001609","name":"麗晶花園第 13 座, 宏照道","lat":"22.330827","long":"114.206840"},{"id":"003537","name":"德朗邨, 承啟道","lat":"22.329425","long":"114.204880"},{"id":"003705","name":"德朗邨停車場, 承啟道","lat":"22.327859","long":"114.204438"},{"id":"003507","name":"啟德 - 天寰, 沐安街","lat":"22.328877","long":"114.201987"},{"id":"003611","name":"機電工程署總部, 承啟道","lat":"22.326170","long":"114.202598"},{"id":"003911","name":"中電總部, 承啟道","lat":"22.322879","long":"114.195030"},{"id":"001811","name":"翔龍灣, 土瓜灣道","lat":"22.319877","long":"114.193120"},{"id":"001812","name":"貴州街, 土瓜灣道","lat":"22.318294","long":"114.191633"},{"id":"001813","name":"落山道, 土瓜灣道","lat":"22.317071","long":"114.190473"},{"id":"003538","name":"銀漢街, 土瓜灣道","lat":"22.314961","long":"114.188476"},{"id":"001534","name":"落山道, 馬頭圍道","lat":"22.316614","long":"114.187478"},{"id":"001535","name":"天光道, 馬頭圍道","lat":"22.319316","long":"114.187458"},{"id":"001536","name":"馬頭圍邨洋葵樓, 馬頭圍道","lat":"22.322095","long":"114.187436"},{"id":"003536","name":"馬頭圍邨","lat":"22.323834","long":"114.187606"}],"routeId":"608","description":"正常班次"},{"company":"ctb","route":"608","routeType":null,"dir":"O","orig":"馬頭圍邨","dest":"筲箕灣","stopList":[{"id":"003536","name":"馬頭圍邨","lat":"22.323834","long":"114.187606"},{"id":"002981","name":"宋皇臺道, 馬頭涌道","lat":"22.324129","long":"114.188641"},{"id":"001809","name":"北帝街, 木廠街","lat":"22.322934","long":"114.190090"},{"id":"001810","name":"香港盲人輔導會, 木廠街","lat":"22.321440","long":"114.193561"},{"id":"003708","name":"沐泰街, 承啟道","lat":"22.325203","long":"114.200536"},{"id":"003612","name":"機電工程署總部, 承啟道","lat":"22.326253","long":"114.202377"},{"id":"003504","name":"啟德 - 天寰, 沐安街","lat":"22.328842","long":"114.202206"},{"id":"003706","name":"德朗邨停車場, 承啟道","lat":"22.327952","long":"114.204272"},{"id":"003369","name":"德朗邨, 承啟道","lat":"22.330102","long":"114.204683"},{"id":"001610","name":"麗晶花園第 8 座, 宏照道","lat":"22.331369","long":"114.205832"},{"id":"001611","name":"啟業邨, 宏照道","lat":"22.328732","long":"114.208380"},{"id":"003036","name":"香港輔助警察隊總部, 啟祥道","lat":"22.325209","long":"114.206943"},{"id":"003404","name":"宏展街, 啟祥道","lat":"22.324995","long":"114.204615"},{"id":"003365","name":"香港郵政大樓, 啟福道","lat":"22.322371","long":"114.204189"},{"id":"001773","name":"臨華街, 宏照道","lat":"22.323544","long":"114.208890"},{"id":"001655","name":"企業廣場, 常悅道","lat":"22.321529","long":"114.207938"},{"id":"001657","name":"MegaBox, 常怡道","lat":"22.320844","long":"114.207726"},{"id":"001463","name":"東區海底隧道巴士轉乘站","lat":"22.300498","long":"114.233513"},{"id":"001265","name":"健康村, 英皇道","lat":"22.292090","long":"114.206523"},{"id":"002677","name":"模範邨, 英皇道","lat":"22.291670","long":"114.207851"},{"id":"001267","name":"北角官立小學, 英皇道","lat":"22.288826","long":"114.209867"},{"id":"001268","name":"新威園, 英皇道","lat":"22.285544","long":"114.211338"},{"id":"001393","name":"船塢里, 英皇道","lat":"22.284774","long":"114.214208"},{"id":"001270","name":"太古城中心, 英皇道","lat":"22.285288","long":"114.217584"},{"id":"001296","name":"太安樓, 筲箕灣道","lat":"22.282504","long":"114.221706"},{"id":"001297","name":"海晏街, 筲箕灣道","lat":"22.280776","long":"114.223639"},{"id":"001298","name":"愛秩序灣道, 筲箕灣道","lat":"22.280350","long":"114.225041"},{"id":"001380","name":"南康街, 筲箕灣道","lat":"22.278883","long":"114.226272"},{"id":"001207","name":"筲箕灣","lat":"22.278421","long":"114.228331"}],"routeId":"608","description":"正常班次"},{"company":"gmb","route":"608","routeType":1,"orig":"橫台山","dest":"元朗鳳翔路(循環線)","stopList":[{"id":20002474,"name":"橫台山村公所, 橫台山遊樂場外","lat":"22.441445","long":"114.095506"},{"id":20007541,"name":"錦田公路, 石崗菜站","lat":"22.441467","long":"114.085695"},{"id":20007542,"name":"錦田公路, 石崗軍營","lat":"22.440407","long":"114.079721"},{"id":20002366,"name":"錦上路站公共運輸交滙處","lat":"22.434813","long":"114.064948"},{"id":20003183,"name":"錦田郵政局","lat":"22.439676","long":"114.066763"},{"id":20002465,"name":"錦田公路, 蒙養公立學校對面","lat":"22.439899","long":"114.062003"},{"id":20007107,"name":"錦田公路, 近高埔村","lat":"22.440093","long":"114.056290"},{"id":20008020,"name":"錦田公路, 近下高埔村","lat":"22.441707","long":"114.052951"},{"id":20019402,"name":"青山公路 (元朗段), 近凹頭迴旋處","lat":"22.443161","long":"114.050038"},{"id":20001280,"name":"青山公路, 近凹頭迴旋處","lat":"22.443878","long":"114.046184"},{"id":20001286,"name":"青山公路－元朗段, 近楊屋村","lat":"22.444173","long":"114.042589"},{"id":20001287,"name":"青山公路－元朗段, 近YOHO Midtown","lat":"22.444311","long":"114.034351"},{"id":20001288,"name":"青山公路－元朗段, 近又新街","lat":"22.444335","long":"114.031223"},{"id":20002203,"name":"阜財街, 光華廣場外","lat":"22.443900","long":"114.029436"},{"id":20001296,"name":"鳳翔路小巴總站","lat":"22.442927","long":"114.032575"},{"id":20002436,"name":"朗日路(近元朗站)","lat":"22.446614","long":"114.035009"},{"id":20001283,"name":"青山公路－元朗段, 近東成里路","lat":"22.444391","long":"114.043599"},{"id":20007464,"name":"錦田公路, 近下高埔村","lat":"22.442059","long":"114.052821"},{"id":20007102,"name":"錦田公路, 近高埔村","lat":"22.440346","long":"114.056329"},{"id":20003184,"name":"錦田郵政局","lat":"22.439821","long":"114.066704"},{"id":20002366,"name":"錦上路站公共運輸交滙處","lat":"22.434813","long":"114.064948"},{"id":20007543,"name":"錦田公路, 石崗軍營","lat":"22.440597","long":"114.079612"},{"id":20003179,"name":"錦田公路, 石崗菜站","lat":"22.441630","long":"114.085753"},{"id":20002474,"name":"橫台山村公所, 橫台山遊樂場外","lat":"22.441445","long":"114.095506"}],"routeId":2001194,"description":"正常班次"},{"company":"gmb","route":"608","routeType":1,"orig":"橫台山","dest":"錦上路站(循環線)","stopList":[{"id":20002474,"name":"橫台山村公所, 橫台山遊樂場外","lat":"22.441445","long":"114.095506"},{"id":20007541,"name":"錦田公路, 石崗菜站","lat":"22.441467","long":"114.085695"},{"id":20007542,"name":"錦田公路, 石崗軍營","lat":"22.440407","long":"114.079721"},{"id":20002366,"name":"錦上路站公共運輸交滙處","lat":"22.434813","long":"114.064948"},{"id":20007543,"name":"錦田公路, 石崗軍營","lat":"22.440597","long":"114.079612"},{"id":20003179,"name":"錦田公路, 石崗菜站","lat":"22.441630","long":"114.085753"},{"id":20002474,"name":"橫台山村公所, 橫台山遊樂場外","lat":"22.441445","long":"114.095506"}],"routeId":2001195,"description":"短程班次"}]