[{"company":"ctb","route":"608P","routeType":null,"dir":"I","orig":"啟德","dest":"小西灣 (藍灣半島)","stopList":[{"id":"003835","name":"啟德 - Airside","lat":"22.330743","long":"114.197767"},{"id":"003709","name":"稅務中心, 協調道","lat":"22.332661","long":"114.199168"},{"id":"003795","name":"東九龍總區警察總部, 協調道","lat":"22.334509","long":"114.201881"},{"id":"003370","name":"啟晴邨","lat":"22.331937","long":"114.203800"},{"id":"001610","name":"麗晶花園第 8 座, 宏照道","lat":"22.331369","long":"114.205832"},{"id":"001611","name":"啟業邨, 宏照道","lat":"22.328732","long":"114.208380"},{"id":"001773","name":"臨華街, 宏照道","lat":"22.323544","long":"114.208890"},{"id":"001655","name":"企業廣場, 常悅道","lat":"22.321529","long":"114.207938"},{"id":"001657","name":"MegaBox, 常怡道","lat":"22.320844","long":"114.207726"},{"id":"001463","name":"東區海底隧道巴士轉乘站","lat":"22.300498","long":"114.233513"},{"id":"001316","name":"西灣河站, 太安街","lat":"22.282355","long":"114.222399"},{"id":"001297","name":"海晏街, 筲箕灣道","lat":"22.280776","long":"114.223639"},{"id":"001298","name":"愛秩序灣道, 筲箕灣道","lat":"22.280350","long":"114.225041"},{"id":"002694","name":"愛賢街, 愛秩序灣道","lat":"22.279807","long":"114.227206"},{"id":"003305","name":"香港東樹木組, 東喜道","lat":"22.281498","long":"114.230141"},{"id":"001377","name":"香港抗戰及海防博物館, 東喜道","lat":"22.282749","long":"114.233506"},{"id":"002624","name":"杏花新城 (東翼), 盛泰道","lat":"22.276444","long":"114.240489"},{"id":"001308","name":"城巴柴灣車廠, 盛泰道","lat":"22.270807","long":"114.240753"},{"id":"001343","name":"柴灣工業城, 永泰道","lat":"22.267581","long":"114.242365"},{"id":"001225","name":"常安街, 柴灣道","lat":"22.265964","long":"114.245318"},{"id":"001362","name":"富欣花園, 小西灣道","lat":"22.264656","long":"114.248208"},{"id":"001383","name":"培僑小學, 富怡道","lat":"22.263545","long":"114.250098"},{"id":"001382","name":"小西灣 (藍灣半島)","lat":"22.266351","long":"114.250953"}],"routeId":"608P","description":"正常班次"},{"company":"ctb","route":"608P","routeType":null,"dir":"O","orig":"小西灣 (藍灣半島)","dest":"啟德","stopList":[{"id":"001382","name":"小西灣 (藍灣半島)","lat":"22.266351","long":"114.250953"},{"id":"001384","name":"富怡花園, 富怡道","lat":"22.263310","long":"114.250053"},{"id":"001312","name":"曉翠街, 小西灣道","lat":"22.264667","long":"114.247967"},{"id":"001226","name":"富城閣, 柴灣道","lat":"22.265804","long":"114.245358"},{"id":"001344","name":"翠灣邨, 永泰道","lat":"22.268493","long":"114.241003"},{"id":"001309","name":"香港專業教育學院 (柴灣分校), 順泰道","lat":"22.270468","long":"114.239612"},{"id":"001306","name":"杏花邨","lat":"22.275254","long":"114.241213"},{"id":"001307","name":"杏花新城 (西翼), 盛泰道","lat":"22.277518","long":"114.239517"},{"id":"001301","name":"新成街, 筲箕灣道","lat":"22.278725","long":"114.226225"},{"id":"001302","name":"海晏街, 筲箕灣道","lat":"22.280717","long":"114.223456"},{"id":"001303","name":"西灣河文娛中心, 筲箕灣道","lat":"22.281795","long":"114.222021"},{"id":"001313","name":"太康樓, 太康街","lat":"22.283341","long":"114.221779"},{"id":"001464","name":"東區海底隧道巴士轉乘站","lat":"22.301112","long":"114.233206"},{"id":"001649","name":"MegaBox, 宏照道","lat":"22.321242","long":"114.208978"},{"id":"001607","name":"臨華街, 宏照道","lat":"22.322591","long":"114.208831"},{"id":"003706","name":"德朗邨停車場, 承啟道","lat":"22.327952","long":"114.204272"},{"id":"003369","name":"德朗邨, 承啟道","lat":"22.330102","long":"114.204683"},{"id":"003505","name":"沐虹街, 承啟道","lat":"22.332201","long":"114.204651"},{"id":"003808","name":"東九龍總區警察總部, 協調道","lat":"22.334239","long":"114.201907"},{"id":"003835","name":"啟德 - Airside","lat":"22.330743","long":"114.197767"}],"routeId":"608P","description":"正常班次"}]