[{"company":"ctb","route":"608P","routeType":null,"dir":"I","orig":"啟德","dest":"小西灣 (藍灣半島)","stopList":[{"id":"003835","name":"啟德 - Airside","lat":"22.330742742091","long":"114.19776733053"},{"id":"003709","name":"稅務中心, 協調道","lat":"22.332660982091","long":"114.19916783053"},{"id":"003795","name":"東九龍總區警察總部, 協調道","lat":"22.334509052091","long":"114.20188119053"},{"id":"003370","name":"啟晴邨","lat":"22.331936732091","long":"114.20380015053"},{"id":"001610","name":"麗晶花園第 8 座, 宏照道","lat":"22.331369192091","long":"114.20583246053"},{"id":"001611","name":"啟業邨, 宏照道","lat":"22.328732482091","long":"114.20838013053"},{"id":"001773","name":"臨華街, 宏照道","lat":"22.323544232091","long":"114.20888965053"},{"id":"001655","name":"企業廣場, 常悅道","lat":"22.321528602091","long":"114.20793837053"},{"id":"001657","name":"MegaBox, 常怡道","lat":"22.320843992091","long":"114.20772571053"},{"id":"001463","name":"東區海底隧道巴士轉乘站","lat":"22.300498232091","long":"114.23351297053"},{"id":"001316","name":"西灣河站, 太安街","lat":"22.282354632091","long":"114.22239868053"},{"id":"001297","name":"海晏街, 筲箕灣道","lat":"22.280776032091","long":"114.22363882053"},{"id":"001298","name":"愛秩序灣道, 筲箕灣道","lat":"22.280349712091","long":"114.22504094053"},{"id":"002694","name":"愛賢街, 愛秩序灣道","lat":"22.279807302091","long":"114.22720635053"},{"id":"003305","name":"香港東樹木組, 東喜道","lat":"22.281346692091","long":"114.23008649053"},{"id":"001377","name":"香港抗戰及海防博物館, 東喜道","lat":"22.282748932091","long":"114.23350634053"},{"id":"002624","name":"杏花新城 (東翼), 盛泰道","lat":"22.276444212091","long":"114.24048923053"},{"id":"001308","name":"城巴柴灣車廠, 盛泰道","lat":"22.270807152091","long":"114.24075282053"},{"id":"001343","name":"柴灣工業城, 永泰道","lat":"22.267580942091","long":"114.24236493053"},{"id":"001225","name":"常安街, 柴灣道","lat":"22.265964212091","long":"114.24531836053"},{"id":"001362","name":"富欣花園, 小西灣道","lat":"22.264655872091","long":"114.24820799053"},{"id":"001383","name":"培僑小學, 富怡道","lat":"22.263544722091","long":"114.25009797053"},{"id":"001382","name":"小西灣 (藍灣半島)","lat":"22.266350942091","long":"114.25095264053"}],"routeId":"608P","description":"正常班次"},{"company":"ctb","route":"608P","routeType":null,"dir":"O","orig":"小西灣 (藍灣半島)","dest":"啟德","stopList":[{"id":"001382","name":"小西灣 (藍灣半島)","lat":"22.266350942091","long":"114.25095264053"},{"id":"001384","name":"富怡花園, 富怡道","lat":"22.263309502091","long":"114.25005285053"},{"id":"001312","name":"曉翠街, 小西灣道","lat":"22.264667222091","long":"114.24796685053"},{"id":"001226","name":"富城閣, 柴灣道","lat":"22.265804172091","long":"114.24535768053"},{"id":"001344","name":"翠灣邨, 永泰道","lat":"22.268492732091","long":"114.24100291053"},{"id":"001309","name":"香港專業教育學院 (柴灣分校), 順泰道","lat":"22.270467832091","long":"114.23961196053"},{"id":"001306","name":"杏花邨","lat":"22.275253582091","long":"114.24121292053"},{"id":"001307","name":"杏花新城 (西翼), 盛泰道","lat":"22.277517942091","long":"114.23951676053"},{"id":"001301","name":"新成街, 筲箕灣道","lat":"22.278724872091","long":"114.22622512053"},{"id":"001302","name":"海晏街, 筲箕灣道","lat":"22.280716692091","long":"114.22345551053"},{"id":"001303","name":"西灣河文娛中心, 筲箕灣道","lat":"22.281794772091","long":"114.22202073053"},{"id":"001313","name":"太康樓, 太康街","lat":"22.283340892091","long":"114.22177946053"},{"id":"001464","name":"東區海底隧道巴士轉乘站","lat":"22.301175862091","long":"114.23338190053"},{"id":"001649","name":"MegaBox, 宏照道","lat":"22.321241952091","long":"114.20897841053"},{"id":"001607","name":"臨華街, 宏照道","lat":"22.322591022091","long":"114.20883070053"},{"id":"003706","name":"德朗邨停車場, 承啟道","lat":"22.327952492091","long":"114.20427191053"},{"id":"003369","name":"德朗邨, 承啟道","lat":"22.330536462091","long":"114.20469159053"},{"id":"003505","name":"沐虹街, 承啟道","lat":"22.332201092091","long":"114.20465053053"},{"id":"003808","name":"東九龍總區警察總部, 協調道","lat":"22.334238952091","long":"114.20190745053"},{"id":"003835","name":"啟德 - Airside","lat":"22.330742742091","long":"114.19776733053"}],"routeId":"608P","description":"正常班次"}]