[{"company":"ctb","route":"608P","routeType":null,"dir":"O","orig":"小西灣 (藍灣半島)","dest":"九龍城 (盛德街)","stopList":[{"id":"001382","name":"小西灣 (藍灣半島)","lat":"22.266350942091","long":"114.25095264053"},{"id":"001384","name":"富怡花園, 富怡道","lat":"22.263309502091","long":"114.25005285053"},{"id":"001312","name":"曉翠街, 小西灣道","lat":"22.264667222091","long":"114.24796685053"},{"id":"001226","name":"富城閣, 柴灣道","lat":"22.265804172091","long":"114.24535768053"},{"id":"001344","name":"翠灣邨, 永泰道","lat":"22.268492732091","long":"114.24100291053"},{"id":"001309","name":"香港專業教育學院 (柴灣分校), 順泰道","lat":"22.270467832091","long":"114.23961196053"},{"id":"001306","name":"杏花邨","lat":"22.275253582091","long":"114.24121292053"},{"id":"001307","name":"杏花新城 (西翼), 盛泰道","lat":"22.277517942091","long":"114.23951676053"},{"id":"001301","name":"新成街, 筲箕灣道","lat":"22.278724872091","long":"114.22622512053"},{"id":"001302","name":"海晏街, 筲箕灣道","lat":"22.280716692091","long":"114.22345551053"},{"id":"001303","name":"西灣河文娛中心, 筲箕灣道","lat":"22.281794772091","long":"114.22202073053"},{"id":"001313","name":"太康樓, 太康街","lat":"22.283340892091","long":"114.22177946053"},{"id":"001464","name":"東區海底隧道巴士轉乘站","lat":"22.301175862091","long":"114.23338190053"},{"id":"001649","name":"常悅道, 宏照道","lat":"22.321241952091","long":"114.20897841053"},{"id":"001607","name":"臨華街, 宏照道","lat":"22.322591022091","long":"114.20883070053"},{"id":"001608","name":"九龍灣運動場, 宏照道","lat":"22.326599152091","long":"114.20842271053"},{"id":"001645","name":"麗晶花園第 18 座, 宏照道","lat":"22.329777772091","long":"114.20810420053"},{"id":"001609","name":"麗晶花園第 13 座, 宏照道","lat":"22.330826612091","long":"114.20684023053"},{"id":"003537","name":"德朗邨, 承啟道","lat":"22.329424582091","long":"114.20487963053"},{"id":"003705","name":"德朗邨停車場, 承啟道","lat":"22.327858522091","long":"114.20443849053"},{"id":"003611","name":"機電工程署總部, 承啟道","lat":"22.326170162091","long":"114.20259762053"},{"id":"001811","name":"翔龍灣, 土瓜灣道","lat":"22.319877362091","long":"114.19312049053"},{"id":"001812","name":"貴州街, 土瓜灣道","lat":"22.318293832091","long":"114.19163321053"},{"id":"001813","name":"落山道, 土瓜灣道","lat":"22.317070972091","long":"114.19047281053"},{"id":"003538","name":"銀漢街, 土瓜灣道","lat":"22.314961322091","long":"114.18847609053"},{"id":"001534","name":"落山道, 馬頭圍道","lat":"22.316614492091","long":"114.18747797053"},{"id":"001535","name":"天光道, 馬頭圍道","lat":"22.319316112091","long":"114.18745764053"},{"id":"001536","name":"馬頭圍邨洋葵樓, 馬頭圍道","lat":"22.322094642091","long":"114.18743596053"},{"id":"003536","name":"九龍城 (盛德街)","lat":"22.323834302091","long":"114.18760630053"}],"routeId":"608P","description":"正常班次"}]