[{"company":"gmb","route":"609B","routeType":1,"orig":"朗善邨","dest":"元朗港鐵站(循環線)","stopList":[{"id":20002217,"name":"朗善邨","lat":"22.442125","long":"114.044757"},{"id":20001286,"name":"青山公路－元朗段, 近楊屋村","lat":"22.444173","long":"114.042589"},{"id":20007415,"name":"元朗港鐵站","lat":"22.446271","long":"114.035447"},{"id":20002216,"name":"博愛醫院南翼外","lat":"22.444958","long":"114.041471"},{"id":20001280,"name":"青山公路, 近凹頭迴旋處","lat":"22.443878","long":"114.046184"},{"id":20002217,"name":"朗善邨","lat":"22.442125","long":"114.044757"}],"routeId":2001197,"description":"正常班次"},{"company":"gmb","route":"609B","routeType":1,"orig":"朗善邨","dest":"元朗港鐵站(循環線)","stopList":[{"id":20002217,"name":"朗善邨","lat":"22.442125","long":"114.044757"},{"id":20001286,"name":"青山公路－元朗段, 近楊屋村","lat":"22.444173","long":"114.042589"},{"id":20001282,"name":"元朗站(北)公共運輸交匯處","lat":"22.446451","long":"114.034281"},{"id":20007415,"name":"元朗港鐵站","lat":"22.446271","long":"114.035447"},{"id":20002216,"name":"博愛醫院南翼外","lat":"22.444958","long":"114.041471"},{"id":20001280,"name":"青山公路, 近凹頭迴旋處","lat":"22.443878","long":"114.046184"},{"id":20002217,"name":"朗善邨","lat":"22.442125","long":"114.044757"}],"routeId":2001200,"description":"特別班次"}]