[{"company":"kmb","route":"60M","routeType":"1","dir":"O","orig":"屯門站","dest":"荃灣站","stopList":[{"id":"A6A60ADA171EE7C8","name":"屯門站總站 (V8)","lat":"22.394951","long":"113.973622"},{"id":"F490C6051AA2E1F3","name":"屯門市中心總站","lat":"22.391301","long":"113.975958"},{"id":"20EB4ED56F4442E9","name":"安定邨","lat":"22.387716","long":"113.975340"},{"id":"07B714029E91FD81","name":"兆麟苑","lat":"22.384918","long":"113.975370"},{"id":"4D777935A801201A","name":"豐景園","lat":"22.383837","long":"113.972655"},{"id":"376C4835851621D4","name":"屯門公路轉車站 (A15)","lat":"22.362928","long":"114.015522"},{"id":"2560149CE75EABA0","name":"屯門公路轉車站 (A6)","lat":"22.362528","long":"114.015847"},{"id":"D893FD9E88E2A98D","name":"荃景圍天橋","lat":"22.375764","long":"114.107846"},{"id":"81C7DC25FD107DD2","name":"愉景新城","lat":"22.375033","long":"114.112864"},{"id":"3917263246285F3E","name":"荃灣站巴士總站","lat":"22.373829","long":"114.116388"}],"routeId":"60M","description":"正常班次"},{"company":"kmb","route":"60M","routeType":"1","dir":"I","orig":"荃灣站","dest":"屯門站","stopList":[{"id":"3917263246285F3E","name":"荃灣站巴士總站","lat":"22.373829","long":"114.116388"},{"id":"36C3B12BD3112CCB","name":"福來邨永康樓","lat":"22.374590","long":"114.113206"},{"id":"E083D2189A733B79","name":"荃景圍天橋","lat":"22.375398","long":"114.108928"},{"id":"0269A1F9D98C737E","name":"屯門公路轉車站 (B7)","lat":"22.357963","long":"114.019242"},{"id":"47FF0EDCD6926932","name":"屯門公路轉車站 (B5)","lat":"22.358356","long":"114.018872"},{"id":"64312A5DFF11636C","name":"豐景園","lat":"22.384009","long":"113.972822"},{"id":"CB2A65E69B2B71BE","name":"翠寧花園","lat":"22.383922","long":"113.974412"},{"id":"59081A58EA5BC728","name":"友愛邨","lat":"22.387839","long":"113.975112"},{"id":"5D14B75687F60509","name":"屯門公園","lat":"22.392122","long":"113.975127"},{"id":"79D68EE7C6CBAB9D","name":"屯門站總站 (V6)","lat":"22.395081","long":"113.973782"},{"id":"A6A60ADA171EE7C8","name":"屯門站總站 (V8)","lat":"22.394951","long":"113.973622"}],"routeId":"60M","description":"正常班次"}]