[{"company":"gmb","route":"611B","routeType":1,"orig":"鈞樂里","dest":"元朗站(循環線)","stopList":[{"id":20016756,"name":"鈞樂里, 近尚豪庭One Regent Place House 1","lat":"22.449254","long":"114.032168"},{"id":20015596,"name":"朗日路(近元朗站)","lat":"22.446612","long":"114.035154"},{"id":20016742,"name":"元朗舊墟路, 近東頭村","lat":"22.446665","long":"114.033869"},{"id":20016756,"name":"鈞樂里, 近尚豪庭One Regent Place House 1","lat":"22.449254","long":"114.032168"}],"routeId":2008598,"description":"正常班次"},{"company":"gmb","route":"611B","routeType":1,"orig":"德業街","dest":"阜財街(循環線)","stopList":[{"id":20016758,"name":"德業街, 近東頭工業區寶威大廈","lat":"22.451881","long":"114.030045"},{"id":20016759,"name":"康業街, 近采葉庭６座","lat":"22.449595","long":"114.032912"},{"id":20002436,"name":"朗日路(近元朗站)","lat":"22.446614","long":"114.035009"},{"id":20002203,"name":"阜財街, 光華廣場外","lat":"22.443900","long":"114.029436"},{"id":20016760,"name":"元朗舊墟路, 近鐘聲學校","lat":"22.449210","long":"114.033370"},{"id":20016761,"name":"康業街, 近采葉庭9座","lat":"22.449666","long":"114.032070"},{"id":20016758,"name":"德業街, 近東頭工業區寶威大廈","lat":"22.451881","long":"114.030045"}],"routeId":2008599,"description":"特別服務班次"}]