[{"company":"gmb","route":"611B","routeType":1,"orig":"鈞樂里","dest":"元朗站(循環線)","stopList":[{"id":20016756,"name":"鈞樂里, 近尚豪庭One Regent Place House 1","lat":22.449254162751213,"long":114.03216822487065},{"id":20015596,"name":"朗日路, 近元朗站","lat":22.44661159607862,"long":114.03515428304674},{"id":20016742,"name":"元朗舊墟路, 近東頭村","lat":22.446665305562284,"long":114.03386866382218},{"id":20016756,"name":"鈞樂里, 近尚豪庭One Regent Place House 1","lat":22.449254162751213,"long":114.03216822487065}],"routeId":2008598,"description":"正常班次"},{"company":"gmb","route":"611B","routeType":1,"orig":"德業街","dest":"阜財街(循環線)","stopList":[{"id":20016758,"name":"德業街, 近東頭工業區寶威大廈","lat":22.451880978354808,"long":114.0300448756142},{"id":20016759,"name":"康業街, 近采葉庭６座","lat":22.449595130391906,"long":114.03291167125059},{"id":20002436,"name":"朗日路(近元朗站)","lat":22.446613991219326,"long":114.03500931805169},{"id":20002203,"name":"阜財街, 光華廣場外","lat":22.443899868246895,"long":114.02943590547137},{"id":20016760,"name":"元朗舊墟路, 近鐘聲學校","lat":22.44921048878894,"long":114.03336976942971},{"id":20016761,"name":"康業街, 近采葉庭9座","lat":22.449665521887358,"long":114.03207035315212},{"id":20016758,"name":"德業街, 近東頭工業區寶威大廈","lat":22.451880978354808,"long":114.0300448756142}],"routeId":2008599,"description":"特別服務班次"}]