[{"company":"mtr_lr","route":"614","routeType":null,"dir":"1","orig":"屯門碼頭","dest":"元朗","stopList":[{"id":"001","name":"屯門碼頭","lat":"22.372716","long":"113.967119"},{"id":"240","name":"兆禧","lat":"22.375244","long":"113.966900"},{"id":"250","name":"屯門泳池","lat":"22.381164","long":"113.970406"},{"id":"260","name":"豐景園","lat":"22.383271","long":"113.972986"},{"id":"265","name":"兆麟","lat":"22.384556","long":"113.975091"},{"id":"270","name":"安定","lat":"22.387645","long":"113.975067"},{"id":"280","name":"市中心","lat":"22.392523","long":"113.975078"},{"id":"300","name":"杯渡","lat":"22.394609","long":"113.976805"},{"id":"310","name":"何福堂","lat":"22.397373","long":"113.977403"},{"id":"320","name":"新墟","lat":"22.400219","long":"113.978040"},{"id":"330","name":"景峰","lat":"22.403128","long":"113.979502"},{"id":"340","name":"鳳地","lat":"22.406740","long":"113.978740"},{"id":"100","name":"兆康","lat":"22.410972","long":"113.976344"},{"id":"350","name":"藍地","lat":"22.418501","long":"113.981627"},{"id":"360","name":"泥圍","lat":"22.423654","long":"113.986321"},{"id":"370","name":"鍾屋村","lat":"22.429657","long":"113.992228"},{"id":"380","name":"洪水橋","lat":"22.429657","long":"113.992228"},{"id":"390","name":"塘坊村","lat":"22.440112","long":"114.007039"},{"id":"400","name":"屏山","lat":"22.442817","long":"114.011757"},{"id":"560","name":"水邊圍","lat":"22.444460","long":"114.020449"},{"id":"570","name":"豐年路","lat":"22.444473","long":"114.023898"},{"id":"580","name":"康樂路","lat":"22.444547","long":"114.026608"},{"id":"590","name":"大棠路","lat":"22.444523","long":"114.028969"},{"id":"600","name":"元朗","lat":"22.442817","long":"114.011757"}],"routeId":"614","description":"正常班次"},{"company":"mtr_lr","route":"614","routeType":null,"dir":"2","orig":"元朗","dest":"屯門碼頭","stopList":[{"id":"600","name":"元朗","lat":"22.442817","long":"114.011757"},{"id":"590","name":"大棠路","lat":"22.444523","long":"114.028969"},{"id":"580","name":"康樂路","lat":"22.444547","long":"114.026608"},{"id":"570","name":"豐年路","lat":"22.444473","long":"114.023898"},{"id":"560","name":"水邊圍","lat":"22.444460","long":"114.020449"},{"id":"400","name":"屏山","lat":"22.442817","long":"114.011757"},{"id":"390","name":"塘坊村","lat":"22.440112","long":"114.007039"},{"id":"380","name":"洪水橋","lat":"22.429657","long":"113.992228"},{"id":"370","name":"鍾屋村","lat":"22.429657","long":"113.992228"},{"id":"360","name":"泥圍","lat":"22.423654","long":"113.986321"},{"id":"350","name":"藍地","lat":"22.418501","long":"113.981627"},{"id":"100","name":"兆康","lat":"22.410972","long":"113.976344"},{"id":"340","name":"鳳地","lat":"22.406740","long":"113.978740"},{"id":"330","name":"景峰","lat":"22.403128","long":"113.979502"},{"id":"320","name":"新墟","lat":"22.400219","long":"113.978040"},{"id":"310","name":"何福堂","lat":"22.397373","long":"113.977403"},{"id":"300","name":"杯渡","lat":"22.394609","long":"113.976805"},{"id":"280","name":"市中心","lat":"22.392523","long":"113.975078"},{"id":"270","name":"安定","lat":"22.387645","long":"113.975067"},{"id":"265","name":"兆麟","lat":"22.384556","long":"113.975091"},{"id":"260","name":"豐景園","lat":"22.383271","long":"113.972986"},{"id":"250","name":"屯門泳池","lat":"22.381164","long":"113.970406"},{"id":"240","name":"兆禧","lat":"22.375244","long":"113.966900"},{"id":"001","name":"屯門碼頭","lat":"22.372716","long":"113.967119"}],"routeId":"614","description":"正常班次"}]