[{"company":"mtr_lr","route":"614","routeType":null,"dir":"1","orig":"屯門碼頭","dest":"元朗","stopList":[{"id":"001","name":"屯門碼頭","lat":"22.37272","long":"113.96712"},{"id":"240","name":"兆禧","lat":"22.37524","long":"113.9669"},{"id":"250","name":"屯門泳池","lat":"22.38116","long":"113.97041"},{"id":"260","name":"豐景園","lat":"22.38327","long":"113.97299"},{"id":"265","name":"兆麟","lat":"22.38456","long":"113.97509"},{"id":"270","name":"安定","lat":"22.38764","long":"113.97507"},{"id":"280","name":"市中心","lat":"22.39136","long":"113.97489"},{"id":"300","name":"杯渡","lat":"22.39461","long":"113.9768"},{"id":"310","name":"何福堂","lat":"22.39737","long":"113.9774"},{"id":"320","name":"新墟","lat":"22.40022","long":"113.97804"},{"id":"330","name":"景峰","lat":"22.40313","long":"113.9795"},{"id":"340","name":"鳳地","lat":"22.40674","long":"113.97874"},{"id":"100","name":"兆康","lat":"22.4119","long":"113.97822"},{"id":"350","name":"藍地","lat":"22.4185","long":"113.98163"},{"id":"360","name":"泥圍","lat":"22.42365","long":"113.98632"},{"id":"370","name":"鍾屋村","lat":"22.42966","long":"113.99223"},{"id":"380","name":"洪水橋","lat":"22.43364","long":"113.99736"},{"id":"390","name":"塘坊村","lat":"22.44011","long":"114.00704"},{"id":"400","name":"屏山","lat":"22.44282","long":"114.01176"},{"id":"560","name":"水邊圍","lat":"22.44446","long":"114.02045"},{"id":"570","name":"豐年路","lat":"22.44447","long":"114.0239"},{"id":"580","name":"康樂路","lat":"22.44455","long":"114.02661"},{"id":"590","name":"大棠路","lat":"22.44452","long":"114.02897"},{"id":"600","name":"元朗","lat":"22.44572","long":"114.03437"}],"routeId":"614","description":"正常班次"},{"company":"mtr_lr","route":"614","routeType":null,"dir":"2","orig":"元朗","dest":"屯門碼頭","stopList":[{"id":"600","name":"元朗","lat":"22.44572","long":"114.03437"},{"id":"590","name":"大棠路","lat":"22.44452","long":"114.02897"},{"id":"580","name":"康樂路","lat":"22.44455","long":"114.02661"},{"id":"570","name":"豐年路","lat":"22.44447","long":"114.0239"},{"id":"560","name":"水邊圍","lat":"22.44446","long":"114.02045"},{"id":"400","name":"屏山","lat":"22.44282","long":"114.01176"},{"id":"390","name":"塘坊村","lat":"22.44011","long":"114.00704"},{"id":"380","name":"洪水橋","lat":"22.43364","long":"113.99736"},{"id":"370","name":"鍾屋村","lat":"22.42966","long":"113.99223"},{"id":"360","name":"泥圍","lat":"22.42365","long":"113.98632"},{"id":"350","name":"藍地","lat":"22.4185","long":"113.98163"},{"id":"100","name":"兆康","lat":"22.4119","long":"113.97822"},{"id":"340","name":"鳳地","lat":"22.40674","long":"113.97874"},{"id":"330","name":"景峰","lat":"22.40313","long":"113.9795"},{"id":"320","name":"新墟","lat":"22.40022","long":"113.97804"},{"id":"310","name":"何福堂","lat":"22.39737","long":"113.9774"},{"id":"300","name":"杯渡","lat":"22.39461","long":"113.9768"},{"id":"280","name":"市中心","lat":"22.39136","long":"113.97489"},{"id":"270","name":"安定","lat":"22.38764","long":"113.97507"},{"id":"265","name":"兆麟","lat":"22.38456","long":"113.97509"},{"id":"260","name":"豐景園","lat":"22.38327","long":"113.97299"},{"id":"250","name":"屯門泳池","lat":"22.38116","long":"113.97041"},{"id":"240","name":"兆禧","lat":"22.37524","long":"113.9669"},{"id":"001","name":"屯門碼頭","lat":"22.37272","long":"113.96712"}],"routeId":"614","description":"正常班次"}]