[{"company":"kmb","route":"619","routeType":"1","dir":"O","orig":"順利","dest":"中環(港澳碼頭)","stopList":[{"id":"ECCCAB1120D6B6C6","name":"順利總站 (KT859)","lat":"22.331331","long":"114.226410"},{"id":"A28048B524056C9D","name":"利明樓 (KT160)","lat":"22.331578","long":"114.224804"},{"id":"484F835517494767","name":"安逸樓 (KT422)","lat":"22.328625","long":"114.227099"},{"id":"2CFCDB6EA2892637","name":"順天總站 (KT851)","lat":"22.326262","long":"114.226668"},{"id":"E308599CF719FE37","name":"天韻樓 (KT430)","lat":"22.326009","long":"114.228653"},{"id":"6765DD696FA8BF8D","name":"寧波第二中學 (KT504)","lat":"22.323885","long":"114.227862"},{"id":"0CA3C6C38D2F3F75","name":"康寧道公園 (KT542)","lat":"22.321413","long":"114.224419"},{"id":"FAF9EF8853A3B65E","name":"樂華南邨 (KT545)","lat":"22.320642","long":"114.222775"},{"id":"C9F3531BB5050372","name":"樂雅苑 (KT546)","lat":"22.321831","long":"114.220956"},{"id":"9D431DF484149B75","name":"安基苑 (KT549)","lat":"22.322840","long":"114.217634"},{"id":"5358062C769CEC05","name":"牛頭角上邨 (KT377)","lat":"22.320611","long":"114.215750"},{"id":"C32B9494869D5BBF","name":"喜鵲樓 (KT379)","lat":"22.317173","long":"114.217511"},{"id":"A880D4A7E3310AEB","name":"創紀之城 (KT339)","lat":"22.314630","long":"114.220789"},{"id":"F2127FD781019971","name":"觀塘轉車站-觀塘市中心 (KT351)","lat":"22.313042","long":"114.224931"},{"id":"114381B039350CBB","name":"觀塘站 (KT992)","lat":"22.311431","long":"114.227935"},{"id":"5AAC6A858427D04E","name":"觀塘游泳池 (KT360)","lat":"22.310432","long":"114.229545"},{"id":"5BDD5F9F4C89D3E1","name":"藍田站 (LT909)","lat":"22.307106","long":"114.233517"},{"id":"E0558D2901ECC032","name":"東隧轉車站 (LT412)","lat":"22.300400","long":"114.233560"},{"id":"745B539CC1A71251","name":"港運城","lat":"22.291453","long":"114.202388"},{"id":"DDAA6CA9D68D3BA5","name":"美麗閣","lat":"22.290644","long":"114.198396"},{"id":"DA2677E4FF848D7C","name":"炮台山站","lat":"22.288858","long":"114.194230"},{"id":"5B0682EF0C8397A2","name":"清風街天橋","lat":"22.286387","long":"114.193069"},{"id":"A68AAD43AC1A238F","name":"百德新街","lat":"22.282487","long":"114.185193"},{"id":"68A16FFD6C0EC2A2","name":"伊利莎伯大廈","lat":"22.280958","long":"114.181248"},{"id":"C2B8BCB3CC0D2214","name":"杜老誌道","lat":"22.279823","long":"114.178001"},{"id":"93D084D7713119D8","name":"柯布連道","lat":"22.279123","long":"114.173685"},{"id":"9B01BEC701652627","name":"分域街","lat":"22.279064","long":"114.171201"},{"id":"4395252CFDC7AB1F","name":"皇后像廣場","lat":"22.281928","long":"114.160194"},{"id":"52C01B7F122297BD","name":"砵典乍街","lat":"22.283712","long":"114.157197"},{"id":"B42222C6800A33A2","name":"租庇利街","lat":"22.285203","long":"114.156015"},{"id":"A8CD8C1198907526","name":"林士街","lat":"22.286471","long":"114.154022"},{"id":"3E2E0FF05B36999C","name":"中環(港澳碼頭)","lat":"22.288303","long":"114.150240"}],"routeId":"619","description":"正常班次"},{"company":"kmb","route":"619","routeType":"1","dir":"I","orig":"中環(港澳碼頭)","dest":"順利","stopList":[{"id":"3E2E0FF05B36999C","name":"中環(港澳碼頭)","lat":"22.288303","long":"114.150240"},{"id":"89ED5D96534CED83","name":"中環街市","lat":"22.285077","long":"114.155435"},{"id":"5298A15B8CCAEF42","name":"德忌利士街","lat":"22.283274","long":"114.156906"},{"id":"A9069A17B1474D76","name":"皇后像廣場","lat":"22.280854","long":"114.159427"},{"id":"3007D34FB91FB27E","name":"金鐘站","lat":"22.278270","long":"114.165080"},{"id":"255401DABB64289D","name":"盧押道","lat":"22.277721","long":"114.171104"},{"id":"16CE9E8D17681839","name":"菲林明道","lat":"22.277778","long":"114.173601"},{"id":"A71457854D13E9DE","name":"史釗域道","lat":"22.278055","long":"114.176009"},{"id":"2B9DA1FE14596F2E","name":"杜老誌道","lat":"22.278543","long":"114.178441"},{"id":"A07CC0A6D462A579","name":"灣仔消防局","lat":"22.279790","long":"114.181986"},{"id":"4EE6F43CF8D6217D","name":"百德新街","lat":"22.280005","long":"114.185477"},{"id":"9541036143D6CCF1","name":"維多利亞公園","lat":"22.281144","long":"114.190058"},{"id":"1A0BCDF4BDC3E1A9","name":"銀幕街","lat":"22.283562","long":"114.192415"},{"id":"A4EBD881BA65C831","name":"七海商業中心","lat":"22.287699","long":"114.192943"},{"id":"05C0C27B083F2C00","name":"電廠街","lat":"22.289997","long":"114.195036"},{"id":"322A5914FD96DE4B","name":"書局街","lat":"22.291222","long":"114.200013"},{"id":"33D2B3AB9D2CCDF3","name":"港運城","lat":"22.291733","long":"114.202568"},{"id":"D678B3364437D16B","name":"東隧轉車站 (LT101)","lat":"22.301070","long":"114.232925"},{"id":"2EF9764BE18FC290","name":"藍田站 (LT607)","lat":"22.305354","long":"114.234128"},{"id":"5B04604E989BBDF0","name":"觀塘法院 (KT612)","lat":"22.310012","long":"114.229524"},{"id":"CCD89A67612BB17B","name":"裕民坊 (KT555)","lat":"22.313474","long":"114.224887"},{"id":"DBEA3F848C7981F2","name":"牛頭角站 (KT691)","lat":"22.315272","long":"114.219744"},{"id":"84BACA14B0C50790","name":"觀塘官立小學 (KT692)","lat":"22.316752","long":"114.217683"},{"id":"9C4CA9F8953C0C88","name":"牛頭角下邨貴輝樓 (KT694)","lat":"22.320741","long":"114.215545"},{"id":"921C19F6147C74A6","name":"振華苑 (KT304)","lat":"22.322426","long":"114.218357"},{"id":"47C3597662B81B47","name":"樂雅苑 (KT305)","lat":"22.322730","long":"114.220872"},{"id":"7EF64469471FE344","name":"樂華南邨 (KT306)","lat":"22.320826","long":"114.222941"},{"id":"0A03521DFD20FEA9","name":"康寧道公園 (KT244)","lat":"22.320977","long":"114.224024"},{"id":"0511A6AC2CBC9A21","name":"寧波第二中學 (KT170)","lat":"22.324359","long":"114.228816"},{"id":"6E113B962058A553","name":"順天總站 (KT852)","lat":"22.326367","long":"114.226727"},{"id":"62F953A6FC5652BE","name":"順安邨 (KT175)","lat":"22.328777","long":"114.227035"},{"id":"ECCCAB1120D6B6C6","name":"順利總站 (KT859)","lat":"22.331331","long":"114.226410"}],"routeId":"619","description":"正常班次"},{"company":"ctb","route":"619","routeType":null,"dir":"I","orig":"順利邨","dest":"中環 (港澳碼頭)","stopList":[{"id":"001664","name":"順利邨","lat":"22.331335","long":"114.226406"},{"id":"001786","name":"順利邨利明樓, 順清街","lat":"22.331739","long":"114.224524"},{"id":"001744","name":"順安邨安逸樓, 利安道","lat":"22.327285","long":"114.226768"},{"id":"001663","name":"順天邨","lat":"22.326370","long":"114.226746"},{"id":"001745","name":"順天邨天韻樓, 順安道","lat":"22.326063","long":"114.228363"},{"id":"001665","name":"寧波第二中學, 秀茂坪道","lat":"22.323814","long":"114.227711"},{"id":"001756","name":"康寧道公園, 康寧道","lat":"22.321443","long":"114.224445"},{"id":"001666","name":"樂華南邨, 振華道","lat":"22.320782","long":"114.222602"},{"id":"001667","name":"樂雅苑, 振華道","lat":"22.321901","long":"114.220874"},{"id":"001668","name":"安基苑, 振華道","lat":"22.322755","long":"114.217142"},{"id":"001669","name":"牛頭角上邨, 牛頭角道","lat":"22.320625","long":"114.215691"},{"id":"001656","name":"花園大廈喜鵲樓, 牛頭角道","lat":"22.317085","long":"114.217614"},{"id":"003458","name":"創紀之城, 觀塘道","lat":"22.314561","long":"114.220919"},{"id":"001509","name":"觀塘市中心, 觀塘道","lat":"22.313441","long":"114.223974"},{"id":"001510","name":"觀塘站","lat":"22.311633","long":"114.227618"},{"id":"001518","name":"觀塘游泳池, 鯉魚門道","lat":"22.310381","long":"114.229522"},{"id":"001519","name":"藍田站","lat":"22.307092","long":"114.233471"},{"id":"001463","name":"東區海底隧道巴士轉乘站","lat":"22.300498","long":"114.233513"},{"id":"001278","name":"港運城, 英皇道","lat":"22.291506","long":"114.202413"},{"id":"001281","name":"美麗閣, 英皇道","lat":"22.290568","long":"114.197884"},{"id":"001283","name":"炮台山站, 英皇道","lat":"22.288147","long":"114.193555"},{"id":"001285","name":"清風街天橋, 英皇道","lat":"22.286175","long":"114.193035"},{"id":"002568","name":"百德新街, 告士打道","lat":"22.282502","long":"114.185034"},{"id":"002415","name":"伊利莎伯大廈, 告士打道","lat":"22.281056","long":"114.181411"},{"id":"002564","name":"杜老誌道, 告士打道","lat":"22.279901","long":"114.178136"},{"id":"002418","name":"柯布連道, 告士打道","lat":"22.279144","long":"114.173457"},{"id":"002420","name":"分域街, 告士打道","lat":"22.279104","long":"114.170855"},{"id":"001033","name":"皇后像廣場, 干諾道中","lat":"22.281992","long":"114.160038"},{"id":"001034","name":"砵典乍街, 干諾道中","lat":"22.283588","long":"114.157304"},{"id":"001036","name":"租庇利街, 干諾道中","lat":"22.285204","long":"114.156044"},{"id":"001037","name":"林士街, 干諾道中","lat":"22.286484","long":"114.154043"},{"id":"001027","name":"中環 (港澳碼頭)","lat":"22.288274","long":"114.150422"}],"routeId":"619","description":"正常班次"},{"company":"ctb","route":"619","routeType":null,"dir":"O","orig":"中環 (港澳碼頭)","dest":"順利邨","stopList":[{"id":"001027","name":"中環 (港澳碼頭)","lat":"22.288274","long":"114.150422"},{"id":"001046","name":"中環街市, 德輔道中","lat":"22.285208","long":"114.155173"},{"id":"001047","name":"德忌利士街, 德輔道中","lat":"22.283302","long":"114.156834"},{"id":"001051","name":"皇后像廣場, 德輔道中","lat":"22.280749","long":"114.159644"},{"id":"001137","name":"金鐘 - 統一中心, 金鐘道","lat":"22.278349","long":"114.164939"},{"id":"002430","name":"盧押道, 軒尼詩道","lat":"22.277681","long":"114.170998"},{"id":"002432","name":"菲林明道, 軒尼詩道","lat":"22.277753","long":"114.173695"},{"id":"002434","name":"史釗域道, 軒尼詩道","lat":"22.278010","long":"114.176171"},{"id":"002435","name":"杜老誌道, 軒尼詩道","lat":"22.278721","long":"114.179097"},{"id":"002437","name":"灣仔消防局, 軒尼詩道","lat":"22.279687","long":"114.181788"},{"id":"002555","name":"銅鑼灣 - 百德新街, 怡和街","lat":"22.279935","long":"114.185585"},{"id":"001213","name":"維多利亞公園, 高士威道","lat":"22.281133","long":"114.190066"},{"id":"001259","name":"銀幕街, 英皇道","lat":"22.283616","long":"114.192460"},{"id":"001260","name":"七海商業中心, 英皇道","lat":"22.287743","long":"114.192966"},{"id":"001261","name":"電廠街, 英皇道","lat":"22.290057","long":"114.195058"},{"id":"001263","name":"書局街, 英皇道","lat":"22.291181","long":"114.199901"},{"id":"001264","name":"港運城, 英皇道","lat":"22.291704","long":"114.202490"},{"id":"001464","name":"東區海底隧道巴士轉乘站","lat":"22.301112","long":"114.233206"},{"id":"001522","name":"藍田站, 鯉魚門道","lat":"22.305529","long":"114.234133"},{"id":"001521","name":"觀塘法院, 鯉魚門道","lat":"22.309748","long":"114.229877"},{"id":"001647","name":"裕民坊","lat":"22.313588","long":"114.224645"},{"id":"001648","name":"牛頭角站, 牛頭角道","lat":"22.315247","long":"114.219814"},{"id":"001650","name":"觀塘官立小學, 牛頭角道","lat":"22.316966","long":"114.217620"},{"id":"001658","name":"牛頭角下邨, 牛頭角道","lat":"22.320518","long":"114.215532"},{"id":"001659","name":"振華苑, 振華道","lat":"22.322402","long":"114.218423"},{"id":"001660","name":"樂雅苑, 振華道","lat":"22.322760","long":"114.220918"},{"id":"001661","name":"樂華南邨, 振華道","lat":"22.320919","long":"114.222616"},{"id":"001799","name":"康寧道公園, 康寧道","lat":"22.320839","long":"114.224025"},{"id":"001662","name":"寧波第二中學, 順安道","lat":"22.324597","long":"114.228863"},{"id":"001663","name":"順天邨","lat":"22.326370","long":"114.226746"},{"id":"001722","name":"順安邨, 利安道","lat":"22.328819","long":"114.226978"},{"id":"001664","name":"順利邨","lat":"22.331335","long":"114.226406"}],"routeId":"619","description":"正常班次"}]