[{"company":"ctb","route":"61R","routeType":null,"dir":"I","orig":"藍田站","dest":"沙田第一城","stopList":[{"id":"001520","name":"藍田站, 鯉魚門道","lat":"22.306756","long":"114.233535"},{"id":"001739","name":"創紀之城, 觀塘道","lat":"22.313762","long":"114.222389"},{"id":"001497","name":"定富街, 觀塘道","lat":"22.316906","long":"114.215350"},{"id":"001940","name":"置富第一城, 銀城街","lat":"22.386884","long":"114.203566"},{"id":"001943","name":"沙田第一城","lat":"22.386286","long":"114.202507"}],"routeId":"61R","description":"正常班次"},{"company":"ctb","route":"61R","routeType":null,"dir":"O","orig":"沙田第一城","dest":"藍田站","stopList":[{"id":"001943","name":"沙田第一城","lat":"22.386286","long":"114.202507"},{"id":"001948","name":"置富第一城, 寶城街","lat":"22.386371","long":"114.204862"},{"id":"001506","name":"牛頭角下邨, 觀塘道","lat":"22.321455","long":"114.214632"},{"id":"001508","name":"牛頭角站, 觀塘道","lat":"22.315131","long":"114.219546"},{"id":"001474","name":"同仁街, 協和街","lat":"22.313044","long":"114.226484"},{"id":"001520","name":"藍田站, 鯉魚門道","lat":"22.306756","long":"114.233535"}],"routeId":"61R","description":"正常班次"}]