[{"company":"ctb","route":"61R","routeType":null,"dir":"I","orig":"藍田站","dest":"沙田第一城","stopList":[{"id":"001520","name":"藍田站, 鯉魚門道","lat":"22.306755832091","long":"114.23353539053"},{"id":"001739","name":"創紀之城, 觀塘道","lat":"22.313762022091","long":"114.22238881053"},{"id":"001497","name":"定富街, 觀塘道","lat":"22.316906342091","long":"114.21534954053"},{"id":"001940","name":"置富第一城, 銀城街","lat":"22.386883952091","long":"114.20356624053"},{"id":"001943","name":"沙田第一城","lat":"22.386285762091","long":"114.20250742053"}],"routeId":"61R","description":"正常班次"},{"company":"ctb","route":"61R","routeType":null,"dir":"O","orig":"沙田第一城","dest":"藍田站","stopList":[{"id":"001943","name":"沙田第一城","lat":"22.386285762091","long":"114.20250742053"},{"id":"001948","name":"置富第一城, 寶城街","lat":"22.386371362091","long":"114.20486186053"},{"id":"001506","name":"牛頭角下邨, 觀塘道","lat":"22.321454812091","long":"114.21463179053"},{"id":"001508","name":"牛頭角站, 觀塘道","lat":"22.315130552091","long":"114.21954638053"},{"id":"001474","name":"同仁街, 協和街","lat":"22.313044482091","long":"114.22648429053"},{"id":"001520","name":"藍田站, 鯉魚門道","lat":"22.306755832091","long":"114.23353539053"}],"routeId":"61R","description":"正常班次"}]