[{"company":"gmb","route":"62K","routeType":1,"orig":"沙田站","dest":"沙田山莊","stopList":[{"id":20001492,"name":"沙田站","lat":"22.383155","long":"114.187585"},{"id":20001518,"name":"源禾路,瀝源邨外的巴士停車灣","lat":"22.384817","long":"114.193547"},{"id":20001494,"name":"豐順街,　近禾輋邨香港耀能協會高福耀紀念學校","lat":"22.387977","long":"114.194033"},{"id":20001495,"name":"德厚街, 禾輋商場外","lat":"22.387489","long":"114.194985"},{"id":20006601,"name":"源禾路,禾輋邨外的巴士停車灣","lat":"22.388302","long":"114.196859"},{"id":20010671,"name":"松頭下路, 喜利佳工業大廈外","lat":"22.397820","long":"114.194280"},{"id":20001520,"name":"松頭下路, 拔子窩村對面","lat":"22.399735","long":"114.195074"},{"id":20001521,"name":"樂林路西行線, 近樂林路及松頭下路交界","lat":"22.400891","long":"114.196647"},{"id":20001522,"name":"樂楓徑, 景峰閣外","lat":"22.401767","long":"114.196783"}],"routeId":2003679,"description":"正常班次  "},{"company":"gmb","route":"62K","routeType":2,"orig":"沙田山莊","dest":"沙田站","stopList":[{"id":20001522,"name":"樂楓徑, 景峰閣外","lat":"22.401767","long":"114.196783"},{"id":20001523,"name":"樂林路及樂葵徑交界","lat":"22.401198","long":"114.195511"},{"id":20001524,"name":"樂林路東行線, 近樂林路及松頭下路交界","lat":"22.400972","long":"114.196657"},{"id":20001525,"name":"松頭下路, 拔子窩村外","lat":"22.399347","long":"114.195074"},{"id":20001505,"name":"坳背灣街, 金豪工業大廈外","lat":"22.397549","long":"114.195180"},{"id":20001513,"name":"源禾路近沙田運動場外的巴士停車灣","lat":"22.387543","long":"114.196403"},{"id":20001507,"name":"源禾路近賽馬會泳池外的巴士停車灣","lat":"22.384329","long":"114.193402"},{"id":20001492,"name":"沙田站","lat":"22.383155","long":"114.187585"}],"routeId":2003679,"description":"正常班次  "}]