[{"company":"ctb","route":"63","routeType":null,"dir":"I","orig":"赤柱市場","dest":"北角碼頭","stopList":[{"id":"002305","name":"赤柱監獄, 東頭灣道","lat":"22.215507","long":"114.217660"},{"id":"002302","name":"聖士提反書院, 東頭灣道","lat":"22.216536","long":"114.217194"},{"id":"002277","name":"赤柱村","lat":"22.219213","long":"114.213004"},{"id":"002378","name":"赤柱廣場","lat":"22.220223","long":"114.209202"},{"id":"002387","name":"馬坑邨駿馬樓, 環角道","lat":"22.222205","long":"114.205849"},{"id":"002175","name":"馬坑邨觀馬樓, 環角道","lat":"22.220581","long":"114.206694"},{"id":"002180","name":"赤柱觀音寺, 環角道","lat":"22.218425","long":"114.206826"},{"id":"002178","name":"柏濤小築, 環角道","lat":"22.217404","long":"114.206371"},{"id":"002177","name":"環角徑, 環角道","lat":"22.217299","long":"114.205089"},{"id":"002397","name":"海天徑, 舂磡角道","lat":"22.218475","long":"114.204701"},{"id":"002194","name":"舂坎角消防局, 舂磡角道","lat":"22.220322","long":"114.203226"},{"id":"002192","name":"舂磡角道 11 號, 舂磡角道","lat":"22.223190","long":"114.202937"},{"id":"002272","name":"赫蘭道, 淺水灣道","lat":"22.225869","long":"114.203142"},{"id":"002380","name":"淺水灣道 102 號, 淺水灣道","lat":"22.233939","long":"114.200933"},{"id":"002242","name":"淺水灣道 90 號, 淺水灣道","lat":"22.235555","long":"114.199646"},{"id":"002257","name":"淺水灣別墅, 淺水灣道","lat":"22.238099","long":"114.198066"},{"id":"002241","name":"淺水灣海灘, 淺水灣道","lat":"22.238581","long":"114.194902"},{"id":"002251","name":"麗景道, 淺水灣道","lat":"22.237393","long":"114.192660"},{"id":"002381","name":"怡峰, 淺水灣道","lat":"22.237794","long":"114.189666"},{"id":"002249","name":"曼克頓大廈, 淺水灣道","lat":"22.240703","long":"114.189132"},{"id":"002246","name":"明慧園, 淺水灣道","lat":"22.244158","long":"114.190970"},{"id":"002370","name":"南山別墅, 淺水灣道","lat":"22.246079","long":"114.191091"},{"id":"002255","name":"淺水灣道 16 號, 淺水灣道","lat":"22.249572","long":"114.191593"},{"id":"002258","name":"蔚峰園, 淺水灣道","lat":"22.252812","long":"114.192451"},{"id":"002544","name":"大潭水塘道, 黃泥涌峽道","lat":"22.257461","long":"114.192496"},{"id":"002545","name":"香港網球中心, 黃泥涌峽道","lat":"22.259090","long":"114.192309"},{"id":"002546","name":"怡園, 黃泥涌峽道","lat":"22.263140","long":"114.185760"},{"id":"002524","name":"瑪利曼小學, 大坑道","lat":"22.262654","long":"114.190711"},{"id":"002525","name":"畢拉山道, 大坑道","lat":"22.266390","long":"114.190466"},{"id":"002526","name":"渣甸山花園大廈, 大坑道","lat":"22.268758","long":"114.189914"},{"id":"002527","name":"白建時道, 大坑道","lat":"22.271106","long":"114.191482"},{"id":"002528","name":"瑞士花園, 大坑道","lat":"22.272945","long":"114.191876"},{"id":"002529","name":"龍風臺, 大坑道","lat":"22.274783","long":"114.191977"},{"id":"002530","name":"大寶閣, 大坑道","lat":"22.276889","long":"114.191495"},{"id":"002531","name":"優悠台, 大坑道","lat":"22.275810","long":"114.193239"},{"id":"002532","name":"香港真光中學, 大坑道","lat":"22.276325","long":"114.195202"},{"id":"002533","name":"利群道, 大坑道","lat":"22.276758","long":"114.194227"},{"id":"002534","name":"豪園, 大坑道","lat":"22.277983","long":"114.190766"},{"id":"002465","name":"香港中央圖書館, 摩頓台","lat":"22.279537","long":"114.188970"},{"id":"002474","name":"邊寧頓街","lat":"22.278459","long":"114.186031"},{"id":"001213","name":"維多利亞公園, 高士威道","lat":"22.281133","long":"114.190066"},{"id":"001259","name":"銀幕街, 英皇道","lat":"22.283616","long":"114.192460"},{"id":"001260","name":"七海商業中心, 英皇道","lat":"22.287743","long":"114.192966"},{"id":"001261","name":"電廠街, 英皇道","lat":"22.290057","long":"114.195058"},{"id":"001262","name":"糖水道, 英皇道","lat":"22.290808","long":"114.198106"},{"id":"001310","name":"馬寶道, 書局街","lat":"22.291616","long":"114.200125"},{"id":"001249","name":"北角碼頭","lat":"22.293288","long":"114.201498"}],"routeId":"63","description":"正常班次"},{"company":"ctb","route":"63","routeType":null,"dir":"O","orig":"北角碼頭","dest":"赤柱市場","stopList":[{"id":"001249","name":"北角碼頭","lat":"22.293288","long":"114.201498"},{"id":"001279","name":"琴行街, 英皇道","lat":"22.291204","long":"114.200959"},{"id":"001280","name":"新都城大廈, 英皇道","lat":"22.290877","long":"114.199380"},{"id":"001281","name":"美麗閣, 英皇道","lat":"22.290568","long":"114.197884"},{"id":"001282","name":"新時代廣場, 英皇道","lat":"22.289910","long":"114.195157"},{"id":"001283","name":"炮台山站, 英皇道","lat":"22.288147","long":"114.193555"},{"id":"001286","name":"清風街, 英皇道","lat":"22.284714","long":"114.192917"},{"id":"001214","name":"皇仁書院, 高士威道","lat":"22.281287","long":"114.190652"},{"id":"002573","name":"伊榮街","lat":"22.278906","long":"114.186409"},{"id":"002535","name":"聖保祿醫院, 銅鑼灣道","lat":"22.278920","long":"114.188062"},{"id":"002512","name":"豪園, 大坑道","lat":"22.278402","long":"114.190346"},{"id":"002513","name":"光明臺, 大坑道","lat":"22.277046","long":"114.193596"},{"id":"002514","name":"上林, 大坑道","lat":"22.276095","long":"114.195345"},{"id":"002515","name":"昍逵閣, 大坑道","lat":"22.275632","long":"114.193320"},{"id":"002516","name":"宏豐台, 大坑道","lat":"22.275680","long":"114.191761"},{"id":"002517","name":"龍風臺, 大坑道","lat":"22.274387","long":"114.192440"},{"id":"002518","name":"瑞士花園, 大坑道","lat":"22.273227","long":"114.191924"},{"id":"002519","name":"佛教李嘉誠護理安老院, 大坑道","lat":"22.272107","long":"114.192205"},{"id":"002520","name":"白建時道, 大坑道","lat":"22.270862","long":"114.191446"},{"id":"002521","name":"樂活道, 大坑道","lat":"22.267616","long":"114.190245"},{"id":"002522","name":"畢拉山道, 大坑道","lat":"22.265786","long":"114.190621"},{"id":"002523","name":"雅麗閣, 大坑道","lat":"22.262560","long":"114.190355"},{"id":"002541","name":"大坑道, 黃泥涌峽道","lat":"22.263404","long":"114.185365"},{"id":"002542","name":"香港網球中心, 黃泥涌峽道","lat":"22.260060","long":"114.191828"},{"id":"002543","name":"黃泥涌水塘公園, 黃泥涌峽道","lat":"22.257475","long":"114.193189"},{"id":"002243","name":"聚豪居, 淺水灣道","lat":"22.251836","long":"114.192958"},{"id":"002250","name":"南山別墅, 淺水灣道","lat":"22.245751","long":"114.191398"},{"id":"002244","name":"曼克頓大廈, 淺水灣道","lat":"22.240324","long":"114.189089"},{"id":"002245","name":"怡峰, 淺水灣道","lat":"22.238593","long":"114.189542"},{"id":"002247","name":"麗景道, 淺水灣道","lat":"22.238414","long":"114.193009"},{"id":"002252","name":"淺水灣海灘, 淺水灣道","lat":"22.238611","long":"114.195268"},{"id":"002248","name":"保華大廈, 淺水灣道","lat":"22.238416","long":"114.198760"},{"id":"002256","name":"淺水灣道 127 號, 淺水灣道","lat":"22.236746","long":"114.199400"},{"id":"002267","name":"赫蘭道, 淺水灣道","lat":"22.226580","long":"114.202951"},{"id":"002191","name":"舂磡角道 11 號, 舂磡角道","lat":"22.223997","long":"114.203742"},{"id":"002193","name":"舂坎角消防局, 舂磡角道","lat":"22.219895","long":"114.203465"},{"id":"002195","name":"環角道, 舂磡角道","lat":"22.218023","long":"114.204758"},{"id":"002176","name":"環角徑, 環角道","lat":"22.217324","long":"114.205151"},{"id":"002179","name":"赤柱觀音寺, 環角道","lat":"22.218834","long":"114.206689"},{"id":"002181","name":"龍欣苑龍騰閣, 環角道","lat":"22.220933","long":"114.205463"},{"id":"002386","name":"馬坑邨駿馬樓, 環角道","lat":"22.222241","long":"114.206649"},{"id":"002378","name":"赤柱廣場","lat":"22.220223","long":"114.209202"},{"id":"002281","name":"赤柱村, 赤柱村道","lat":"22.219070","long":"114.212919"},{"id":"002303","name":"香港航海學校, 東頭灣道","lat":"22.218215","long":"114.214141"},{"id":"002304","name":"聖士提反書院, 東頭灣道","lat":"22.216555","long":"114.217254"},{"id":"002305","name":"赤柱監獄, 東頭灣道","lat":"22.215507","long":"114.217660"},{"id":"002302","name":"聖士提反書院, 東頭灣道","lat":"22.216536","long":"114.217194"},{"id":"002277","name":"赤柱村","lat":"22.219213","long":"114.213004"}],"routeId":"63","description":"正常班次"},{"company":"gmb","route":"63","routeType":1,"orig":"海怡半島","dest":"瑪麗醫院","stopList":[{"id":20000356,"name":"海怡半島巴士總站","lat":"22.242710","long":"114.149247"},{"id":20000358,"name":"怡南路, 海怡東商場外","lat":"22.243486","long":"114.148888"},{"id":20000359,"name":"鴨脷洲橋道, 利澤樓外","lat":"22.244254","long":"114.149770"},{"id":20000360,"name":"鴨脷洲橋道, 鴨脷洲邨巴士總站外","lat":"22.244101","long":"114.150624"},{"id":20000157,"name":"鴨脷洲橋道, 近利枝道","lat":"22.243252","long":"114.155087"},{"id":20000361,"name":"香港仔海傍道, 逸港居外","lat":"22.247569","long":"114.159316"},{"id":20000169,"name":"香港仔海傍道, 香港仔海濱公園外","lat":"22.246955","long":"114.155872"},{"id":20000328,"name":"香港仔海傍道,香港仔魚類批發市場外","lat":"22.247894","long":"114.152670"},{"id":20000329,"name":"香港仔海傍道, 近田灣街","lat":"22.248610","long":"114.148209"},{"id":20000362,"name":"華林徑","lat":"22.252154","long":"114.138991"},{"id":20010261,"name":"華景街,華景樓對面","lat":"22.253096","long":"114.137467"},{"id":20010264,"name":"薄扶林道, 薄扶林村對面","lat":"22.260285","long":"114.136271"},{"id":20019072,"name":"瑪麗醫院","lat":"22.270674","long":"114.130654"}],"routeId":2003405,"description":"正常班次 "},{"company":"gmb","route":"63","routeType":2,"orig":"瑪麗醫院","dest":"海怡半島","stopList":[{"id":20019072,"name":"瑪麗醫院","lat":"22.270674","long":"114.130654"},{"id":20000367,"name":"薄扶林道, 薄扶林村","lat":"22.260660","long":"114.136534"},{"id":20000368,"name":"薄扶林道, 余振強紀念第二中學外","lat":"22.256578","long":"114.137573"},{"id":20000362,"name":"華林徑","lat":"22.252154","long":"114.138991"},{"id":20010261,"name":"華景街,華景樓對面","lat":"22.253096","long":"114.137467"},{"id":20000369,"name":"石排灣道, 萬景樓外","lat":"22.249726","long":"114.147848"},{"id":20000370,"name":"石排灣道, 近田灣街","lat":"22.249357","long":"114.148558"},{"id":20000340,"name":"香港仔大道, 聖伯多祿中學外","lat":"22.249835","long":"114.153669"},{"id":20000327,"name":"香港仔大道178號","lat":"22.248969","long":"114.155765"},{"id":20010271,"name":"鴨脷洲橋道, 近利枝道","lat":"22.243250","long":"114.155475"},{"id":20010272,"name":"鴨脷洲橋道, 利澤樓對面","lat":"22.244114","long":"114.149660"},{"id":20000356,"name":"海怡半島巴士總站","lat":"22.242710","long":"114.149247"}],"routeId":2003405,"description":"正常班次 "},{"company":"gmb","route":"63","routeType":1,"orig":"藍田(廣田邨)","dest":"裕民坊公共運輸交匯處 (循環線)","stopList":[{"id":20012043,"name":"廣田邨巴士總站","lat":"22.302679","long":"114.241363"},{"id":20012044,"name":"碧雲道, 廣田商場對面","lat":"22.302490","long":"114.239759"},{"id":20012045,"name":"碧雲道, 康柏苑龍柏閣外","lat":"22.303160","long":"114.238683"},{"id":20012062,"name":"碧雲道, 廣田邨廣靖樓對面","lat":"22.304681","long":"114.238211"},{"id":20012063,"name":"碧雲道, 德田邨德瑞樓外","lat":"22.308637","long":"114.239198"},{"id":20012064,"name":"碧雲道, 德田邨多層停車場外","lat":"22.309411","long":"114.238951"},{"id":20012065,"name":"碧雲道, 德田邨德敬樓外","lat":"22.310731","long":"114.238324"},{"id":20012066,"name":"連德道, 興田邨彩田樓外","lat":"22.312964","long":"114.239413"},{"id":20012060,"name":"裕民坊公共運輸交匯處","lat":"22.314393","long":"114.225092"},{"id":20012068,"name":"連德道, 彩田樓對面","lat":"22.313016","long":"114.239670"},{"id":20012069,"name":"連德道, 美田樓對面","lat":"22.312711","long":"114.239168"},{"id":20012070,"name":"碧雲道, 德田邨德敬樓外","lat":"22.310925","long":"114.238388"},{"id":20012073,"name":"碧雲道, 德田邨德樂樓外","lat":"22.309096","long":"114.239177"},{"id":20012071,"name":"碧雲道, 德田邨德隆樓對面","lat":"22.306676","long":"114.239230"},{"id":20012074,"name":"碧雲道, 廣田邨廣靖樓","lat":"22.304599","long":"114.238329"},{"id":20012072,"name":"碧雲道, 廣田商場外","lat":"22.302572","long":"114.239890"},{"id":20012043,"name":"廣田邨巴士總站","lat":"22.302679","long":"114.241363"}],"routeId":2004396,"description":"正常班次 "}]