[{"company":"ctb","route":"63","routeType":null,"dir":"I","orig":"赤柱市場","dest":"北角碼頭","stopList":[{"id":"002305","name":"赤柱監獄, 東頭灣道","lat":"22.215506742091","long":"114.21766010053"},{"id":"002302","name":"聖士提反書院, 東頭灣道","lat":"22.216536362091","long":"114.21719449053"},{"id":"002277","name":"赤柱村","lat":"22.219212682091","long":"114.21300366053"},{"id":"002378","name":"赤柱廣場","lat":"22.220223252091","long":"114.20920230053"},{"id":"002387","name":"馬坑邨駿馬樓, 環角道","lat":"22.222205242091","long":"114.20584898053"},{"id":"002175","name":"馬坑邨觀馬樓, 環角道","lat":"22.220581052091","long":"114.20669370053"},{"id":"002180","name":"赤柱觀音寺, 環角道","lat":"22.218424852091","long":"114.20682598053"},{"id":"002178","name":"柏濤小築, 環角道","lat":"22.217403942091","long":"114.20637101053"},{"id":"002177","name":"環角徑, 環角道","lat":"22.217298792091","long":"114.20508929053"},{"id":"002397","name":"海天徑, 舂磡角道","lat":"22.218475062091","long":"114.20470134053"},{"id":"002194","name":"舂坎角消防局, 舂磡角道","lat":"22.220322062091","long":"114.20322613053"},{"id":"002192","name":"舂磡角道 11 號, 舂磡角道","lat":"22.223190412091","long":"114.20293698053"},{"id":"002272","name":"赫蘭道, 淺水灣道","lat":"22.225869452091","long":"114.20314234053"},{"id":"002380","name":"淺水灣道 102 號, 淺水灣道","lat":"22.233938732091","long":"114.20093324053"},{"id":"002242","name":"淺水灣道 90 號, 淺水灣道","lat":"22.235555362091","long":"114.19964630053"},{"id":"002257","name":"淺水灣別墅, 淺水灣道","lat":"22.238098772091","long":"114.19806596053"},{"id":"002241","name":"淺水灣海灘, 淺水灣道","lat":"22.238580522091","long":"114.19490222053"},{"id":"002251","name":"麗景道, 淺水灣道","lat":"22.237393012091","long":"114.19266000053"},{"id":"002381","name":"怡峰, 淺水灣道","lat":"22.237793702091","long":"114.18966644053"},{"id":"002249","name":"曼克頓大廈, 淺水灣道","lat":"22.240702802091","long":"114.18913196053"},{"id":"002246","name":"明慧園, 淺水灣道","lat":"22.244158102091","long":"114.19096981053"},{"id":"002370","name":"南山別墅, 淺水灣道","lat":"22.246079362091","long":"114.19109135053"},{"id":"002255","name":"淺水灣道 16 號, 淺水灣道","lat":"22.249572072091","long":"114.19159341053"},{"id":"002258","name":"蔚峰園, 淺水灣道","lat":"22.252812112091","long":"114.19245051053"},{"id":"002544","name":"大潭水塘道, 黃泥涌峽道","lat":"22.257461242091","long":"114.19249610053"},{"id":"002545","name":"香港網球中心, 黃泥涌峽道","lat":"22.259090472091","long":"114.19230905053"},{"id":"002546","name":"怡園, 黃泥涌峽道","lat":"22.263140312091","long":"114.18575988053"},{"id":"002524","name":"瑪利曼小學, 大坑道","lat":"22.262654342091","long":"114.19071124053"},{"id":"002525","name":"畢拉山道, 大坑道","lat":"22.266390032091","long":"114.19046582053"},{"id":"002526","name":"渣甸山花園大廈, 大坑道","lat":"22.268757812091","long":"114.18991393053"},{"id":"002527","name":"白建時道, 大坑道","lat":"22.271106362091","long":"114.19148188053"},{"id":"002528","name":"瑞士花園, 大坑道","lat":"22.272945472091","long":"114.19187613053"},{"id":"002529","name":"龍風臺, 大坑道","lat":"22.274782692091","long":"114.19197716053"},{"id":"002530","name":"大寶閣, 大坑道","lat":"22.276889492091","long":"114.19149485053"},{"id":"002531","name":"優悠台, 大坑道","lat":"22.275810472091","long":"114.19323932053"},{"id":"002532","name":"香港真光中學, 大坑道","lat":"22.276324832091","long":"114.19520168053"},{"id":"002533","name":"利群道, 大坑道","lat":"22.276757522091","long":"114.19422681053"},{"id":"002534","name":"豪園, 大坑道","lat":"22.277982862091","long":"114.19076599053"},{"id":"002465","name":"香港中央圖書館, 摩頓台","lat":"22.279536862091","long":"114.18897018053"},{"id":"002474","name":"邊寧頓街","lat":"22.278458822091","long":"114.18603081053"},{"id":"001213","name":"維多利亞公園, 高士威道","lat":"22.281133262091","long":"114.19006592053"},{"id":"001259","name":"銀幕街, 英皇道","lat":"22.283615512091","long":"114.19246041053"},{"id":"001260","name":"七海商業中心, 英皇道","lat":"22.287742812091","long":"114.19296558053"},{"id":"001261","name":"電廠街, 英皇道","lat":"22.290056622091","long":"114.19505769053"},{"id":"001262","name":"糖水道, 英皇道","lat":"22.290808072091","long":"114.19810570053"},{"id":"001310","name":"馬寶道, 書局街","lat":"22.291615512091","long":"114.20012532053"},{"id":"001249","name":"北角碼頭","lat":"22.293287872091","long":"114.20149753053"}],"routeId":"63","description":"正常班次"},{"company":"ctb","route":"63","routeType":null,"dir":"O","orig":"北角碼頭","dest":"赤柱市場","stopList":[{"id":"001249","name":"北角碼頭","lat":"22.293287872091","long":"114.20149753053"},{"id":"001279","name":"琴行街, 英皇道","lat":"22.291204122091","long":"114.20095851053"},{"id":"001280","name":"新都城大廈, 英皇道","lat":"22.290876932091","long":"114.19937984053"},{"id":"001281","name":"美麗閣, 英皇道","lat":"22.290567652091","long":"114.19788360053"},{"id":"001282","name":"新時代廣場, 英皇道","lat":"22.289909792091","long":"114.19515688053"},{"id":"001283","name":"炮台山站, 英皇道","lat":"22.288146742091","long":"114.19355472053"},{"id":"001286","name":"清風街, 英皇道","lat":"22.284713662091","long":"114.19291666053"},{"id":"001214","name":"皇仁書院, 高士威道","lat":"22.281286912091","long":"114.19065162053"},{"id":"002573","name":"伊榮街","lat":"22.278905632091","long":"114.18640907053"},{"id":"002535","name":"聖保祿醫院, 銅鑼灣道","lat":"22.278919992091","long":"114.18806171053"},{"id":"002512","name":"豪園, 大坑道","lat":"22.278402192091","long":"114.19034583053"},{"id":"002513","name":"光明臺, 大坑道","lat":"22.277046402091","long":"114.19359621053"},{"id":"002514","name":"上林, 大坑道","lat":"22.276095132091","long":"114.19534532053"},{"id":"002515","name":"昍逵閣, 大坑道","lat":"22.275631802091","long":"114.19332040053"},{"id":"002516","name":"宏豐台, 大坑道","lat":"22.275680462091","long":"114.19176128053"},{"id":"002517","name":"龍風臺, 大坑道","lat":"22.274386982091","long":"114.19244035053"},{"id":"002518","name":"瑞士花園, 大坑道","lat":"22.273226942091","long":"114.19192384053"},{"id":"002519","name":"佛教李嘉誠護理安老院, 大坑道","lat":"22.272107042091","long":"114.19220460053"},{"id":"002520","name":"白建時道, 大坑道","lat":"22.270861812091","long":"114.19144648053"},{"id":"002521","name":"樂活道, 大坑道","lat":"22.267616432091","long":"114.19024501053"},{"id":"002522","name":"畢拉山道, 大坑道","lat":"22.265786052091","long":"114.19062089053"},{"id":"002523","name":"雅麗閣, 大坑道","lat":"22.262559822091","long":"114.19035461053"},{"id":"002541","name":"大坑道, 黃泥涌峽道","lat":"22.263404082091","long":"114.18536491053"},{"id":"002542","name":"香港網球中心, 黃泥涌峽道","lat":"22.260060482091","long":"114.19182820053"},{"id":"002543","name":"黃泥涌水塘公園, 黃泥涌峽道","lat":"22.257475342091","long":"114.19318927053"},{"id":"002243","name":"聚豪居, 淺水灣道","lat":"22.251835802091","long":"114.19295818053"},{"id":"002250","name":"南山別墅, 淺水灣道","lat":"22.245751182091","long":"114.19139839053"},{"id":"002244","name":"曼克頓大廈, 淺水灣道","lat":"22.240324042091","long":"114.18908940053"},{"id":"002245","name":"怡峰, 淺水灣道","lat":"22.238593462091","long":"114.18954202053"},{"id":"002247","name":"麗景道, 淺水灣道","lat":"22.238413782091","long":"114.19300890053"},{"id":"002252","name":"淺水灣海灘, 淺水灣道","lat":"22.238611492091","long":"114.19526796053"},{"id":"002248","name":"保華大廈, 淺水灣道","lat":"22.238416412091","long":"114.19875982053"},{"id":"002256","name":"淺水灣道 127 號, 淺水灣道","lat":"22.236745832091","long":"114.19939985053"},{"id":"002267","name":"赫蘭道, 淺水灣道","lat":"22.226579762091","long":"114.20295050053"},{"id":"002191","name":"舂磡角道 11 號, 舂磡角道","lat":"22.223997212091","long":"114.20374227053"},{"id":"002193","name":"舂坎角消防局, 舂磡角道","lat":"22.219895052091","long":"114.20346523053"},{"id":"002195","name":"環角道, 舂磡角道","lat":"22.218023062091","long":"114.20475752053"},{"id":"002176","name":"環角徑, 環角道","lat":"22.217324122091","long":"114.20515101053"},{"id":"002179","name":"赤柱觀音寺, 環角道","lat":"22.218833832091","long":"114.20668864053"},{"id":"002181","name":"龍欣苑龍騰閣, 環角道","lat":"22.220932832091","long":"114.20546270053"},{"id":"002386","name":"馬坑邨駿馬樓, 環角道","lat":"22.222240822091","long":"114.20664854053"},{"id":"002378","name":"赤柱廣場","lat":"22.220223252091","long":"114.20920230053"},{"id":"002281","name":"赤柱村, 赤柱村道","lat":"22.219069792091","long":"114.21291885053"},{"id":"002303","name":"香港航海學校, 東頭灣道","lat":"22.218215302091","long":"114.21414073053"},{"id":"002304","name":"聖士提反書院, 東頭灣道","lat":"22.216554552091","long":"114.21725399053"},{"id":"002305","name":"赤柱監獄, 東頭灣道","lat":"22.215506742091","long":"114.21766010053"},{"id":"002302","name":"聖士提反書院, 東頭灣道","lat":"22.216536362091","long":"114.21719449053"},{"id":"002277","name":"赤柱村","lat":"22.219212682091","long":"114.21300366053"}],"routeId":"63","description":"正常班次"},{"company":"gmb","route":"63","routeType":1,"orig":"海怡半島","dest":"瑪麗醫院","stopList":[{"id":20000356,"name":"海怡半島巴士總站","lat":22.24270958944825,"long":114.14924680690409},{"id":20000358,"name":"怡南路, 海怡東商場外","lat":22.243486166462947,"long":114.14888772789686},{"id":20000359,"name":"鴨脷洲橋道, 利澤樓外","lat":22.24425392330572,"long":114.14977034690091},{"id":20000360,"name":"鴨脷洲橋道, 鴨脷洲邨巴士總站外","lat":22.24410054162036,"long":114.15062404431944},{"id":20000157,"name":"鴨脷洲橋道, 近利枝道","lat":22.243252315836124,"long":114.15508653053519},{"id":20000361,"name":"香港仔海傍道, 逸港居外","lat":22.24756948944506,"long":114.15931550542977},{"id":20000169,"name":"香港仔海傍道, 香港仔海濱公園外","lat":22.246954996200248,"long":114.15587173771375},{"id":20000328,"name":"香港仔海傍道,香港仔魚類批發市場外","lat":22.24789374206594,"long":114.15267025693798},{"id":20000329,"name":"香港仔海傍道, 近田灣街","lat":22.248609928294652,"long":114.14820939302446},{"id":20000362,"name":"華林徑","lat":22.25215360987974,"long":114.13899065582659},{"id":20010261,"name":"華景街,華景樓對面","lat":22.253095765977374,"long":114.13746714591981},{"id":20010264,"name":"薄扶林道, 薄扶林村對面","lat":22.260284722455115,"long":114.13627088069917},{"id":20019072,"name":"瑪麗醫院","lat":22.270674048420364,"long":114.13065433502197}],"routeId":2003405,"description":"正常班次 "},{"company":"gmb","route":"63","routeType":2,"orig":"瑪麗醫院","dest":"海怡半島","stopList":[{"id":20019072,"name":"瑪麗醫院","lat":22.270674048420364,"long":114.13065433502197},{"id":20000367,"name":"薄扶林道, 薄扶林村","lat":22.26065990347667,"long":114.1365337863174},{"id":20000368,"name":"薄扶林道, 余振強紀念第二中學外","lat":22.256578299475926,"long":114.13757302889053},{"id":20000362,"name":"華林徑","lat":22.25215360987974,"long":114.13899065582659},{"id":20010261,"name":"華景街,華景樓對面","lat":22.253095765977374,"long":114.13746714591981},{"id":20000369,"name":"石排灣道, 萬景樓外","lat":22.249726180420055,"long":114.14784846631281},{"id":20000370,"name":"石排灣道, 近田灣街","lat":22.249357164135926,"long":114.1485580801964},{"id":20000340,"name":"香港仔大道, 聖伯多祿中學外","lat":22.24983548190872,"long":114.15366914420626},{"id":20000327,"name":"香港仔大道178號","lat":22.248968822474296,"long":114.15576472597299},{"id":20010271,"name":"鴨脷洲橋道, 近利枝道","lat":22.24325006998432,"long":114.1554754972458},{"id":20010272,"name":"鴨脷洲橋道, 利澤樓對面","lat":22.244114016544977,"long":114.1496604681015},{"id":20000356,"name":"海怡半島巴士總站","lat":22.24270958944825,"long":114.14924680690409}],"routeId":2003405,"description":"正常班次 "},{"company":"gmb","route":"63","routeType":1,"orig":"藍田(廣田邨)","dest":"裕民坊公共運輸交匯處 (循環線)","stopList":[{"id":20012043,"name":"廣田邨巴士總站","lat":22.302678647263313,"long":114.24136251211168},{"id":20012044,"name":"碧雲道, 廣田商場對面","lat":22.302490048708055,"long":114.23975855112079},{"id":20012045,"name":"碧雲道, 康柏苑龍柏閣外","lat":22.303160068736535,"long":114.2386829853058},{"id":20012062,"name":"碧雲道, 廣田邨廣靖樓對面","lat":22.304681250424863,"long":114.23821091651918},{"id":20012063,"name":"碧雲道, 德田邨德瑞樓外","lat":22.308636741566808,"long":114.23919796943665},{"id":20012064,"name":"碧雲道, 德田邨多層停車場外","lat":22.309410952569124,"long":114.23895120620729},{"id":20012065,"name":"碧雲道, 德田邨德敬樓外","lat":22.3107310716859,"long":114.23832356929779},{"id":20012066,"name":"連德道, 興田邨彩田樓外","lat":22.31296432748827,"long":114.23941254615785},{"id":20012060,"name":"裕民坊公共運輸交匯處","lat":22.314392642486943,"long":114.22509165138766},{"id":20012068,"name":"連德道, 彩田樓對面","lat":22.31301643636385,"long":114.23967003822328},{"id":20012069,"name":"連德道, 美田樓對面","lat":22.312711226958843,"long":114.2391684651375},{"id":20012070,"name":"碧雲道, 德田邨德敬樓外","lat":22.31092462193588,"long":114.23838794231416},{"id":20012073,"name":"碧雲道, 德田邨德樂樓外","lat":22.309095809506072,"long":114.23917651176453},{"id":20012071,"name":"碧雲道, 德田邨德隆樓對面","lat":22.306676380411588,"long":114.23923015594484},{"id":20012074,"name":"碧雲道, 廣田邨廣靖樓","lat":22.304599360152313,"long":114.23832893371583},{"id":20012072,"name":"碧雲道, 廣田商場外","lat":22.30257194021728,"long":114.2398899793625},{"id":20012043,"name":"廣田邨巴士總站","lat":22.302678647263313,"long":114.24136251211168}],"routeId":2004396,"description":"正常班次 "}]