[{"company":"gmb","route":"63A","routeType":1,"orig":"香港仔(南寧街)","dest":"華富邨(循環線)","stopList":[{"id":20000218,"name":"南寧街, 海湖閣外","lat":22.248950576811072,"long":114.15438717156482},{"id":20000362,"name":"華林徑","lat":22.25215360987974,"long":114.13899065582659},{"id":20000363,"name":"華景街, 華翠樓外","lat":22.25392303044659,"long":114.1365357141342},{"id":20010276,"name":"華富道, 華富(二)邨商場外","lat":22.253232300012087,"long":114.13596779108049},{"id":20004593,"name":"華富道, 華泰樓外","lat":22.251863954128815,"long":114.13619675749719},{"id":20010277,"name":"華富道, 華富(南)","lat":22.251261232127074,"long":114.13650691509248},{"id":20010278,"name":"華富道, 華安樓外","lat":22.251819786926625,"long":114.13848638534547},{"id":20000369,"name":"石排灣道, 萬景樓外","lat":22.249726180420055,"long":114.14784846631281},{"id":20000370,"name":"石排灣道, 近田灣街","lat":22.2489678289557,"long":114.149138869605},{"id":20000340,"name":"香港仔大道, 聖伯多祿中學外","lat":22.24983548190872,"long":114.15366914420626},{"id":20000218,"name":"南寧街, 海湖閣外","lat":22.248950576811072,"long":114.15438717156482}],"routeId":2003408,"description":"短程班次"},{"company":"gmb","route":"63A","routeType":1,"orig":"美松苑","dest":"大圍站(村南道)","stopList":[{"id":20014232,"name":"美松苑小巴總站","lat":22.380134775173097,"long":114.17298872969894},{"id":20014233,"name":"美田路, 近美城苑貴城閣","lat":22.378338750602293,"long":114.17407871796973},{"id":20014222,"name":"積存街, 近埃索－大圍加油站","lat":22.37642485435779,"long":114.17749582956442},{"id":20014223,"name":"村南道, 近金昌樓","lat":22.37411114629809,"long":114.17945809081155},{"id":20014224,"name":"村南道, 近大圍站","lat":22.373436877265814,"long":114.17845887041865}],"routeId":2008224,"description":"額外班次"},{"company":"gmb","route":"63A","routeType":2,"orig":"大圍站(村南道)","dest":"美松苑","stopList":[{"id":20014224,"name":"村南道, 近大圍站","lat":22.373436877265814,"long":114.17845887041865},{"id":20014225,"name":"大圍道, 近金禧花園第６座","lat":22.374505944842795,"long":114.17800087103744},{"id":20016564,"name":"美田路, 近美田路休憩處\t","lat":22.377503198336584,"long":114.1743379703636},{"id":20014232,"name":"美松苑小巴總站","lat":22.380134775173097,"long":114.17298872969894}],"routeId":2008224,"description":"額外班次"}]