[{"company":"gmb","route":"63A","routeType":1,"orig":"香港仔(南寧街)","dest":"華富邨(循環線)","stopList":[{"id":20000218,"name":"南寧街, 海湖閣外","lat":"22.248951","long":"114.154387"},{"id":20000362,"name":"華林徑","lat":"22.252154","long":"114.138991"},{"id":20000363,"name":"華景街, 華翠樓外","lat":"22.253923","long":"114.136536"},{"id":20010276,"name":"華富道, 華富(二)邨商場外","lat":"22.253232","long":"114.135968"},{"id":20004593,"name":"華富道, 華泰樓外","lat":"22.251864","long":"114.136197"},{"id":20010277,"name":"華富道, 華富(南)","lat":"22.251261","long":"114.136507"},{"id":20010278,"name":"華富道, 華安樓外","lat":"22.251820","long":"114.138486"},{"id":20000369,"name":"石排灣道, 萬景樓外","lat":"22.249726","long":"114.147848"},{"id":20000370,"name":"石排灣道, 近田灣街","lat":"22.249357","long":"114.148558"},{"id":20000340,"name":"香港仔大道, 聖伯多祿中學外","lat":"22.249835","long":"114.153669"},{"id":20000218,"name":"南寧街, 海湖閣外","lat":"22.248951","long":"114.154387"}],"routeId":2003408,"description":"短程班次"},{"company":"gmb","route":"63A","routeType":1,"orig":"美松苑","dest":"大圍站(村南道)","stopList":[{"id":20014232,"name":"美松苑小巴總站","lat":"22.380135","long":"114.172989"},{"id":20014233,"name":"美田路, 近美城苑貴城閣","lat":"22.378339","long":"114.174079"},{"id":20014222,"name":"積存街, 近埃索－大圍加油站","lat":"22.376425","long":"114.177496"},{"id":20014223,"name":"村南道, 近金昌樓","lat":"22.374111","long":"114.179458"},{"id":20014224,"name":"村南道, 近大圍站","lat":"22.373437","long":"114.178459"}],"routeId":2008224,"description":"額外班次"},{"company":"gmb","route":"63A","routeType":2,"orig":"大圍站(村南道)","dest":"美松苑","stopList":[{"id":20014224,"name":"村南道, 近大圍站","lat":"22.373437","long":"114.178459"},{"id":20014225,"name":"大圍道, 近金禧花園第６座","lat":"22.374506","long":"114.178001"},{"id":20016564,"name":"美田路, 美林邨對面","lat":"22.377503","long":"114.174338"},{"id":20014232,"name":"美松苑小巴總站","lat":"22.380135","long":"114.172989"}],"routeId":2008224,"description":"額外班次"}]