[{"company":"gmb","route":"63B","routeType":1,"orig":"恒峰花園","dest":"大圍站(村南道)","stopList":[{"id":20014235,"name":"碧田街, 近恒峰花園第３座","lat":22.37762915623878,"long":114.17169421107191},{"id":20014236,"name":"碧田街,近翠景花園第２座","lat":22.377708621681617,"long":114.17222331730854},{"id":20014237,"name":"碧田街, 近翠景花園第１座","lat":22.377934396256574,"long":114.172876818264},{"id":20014233,"name":"美田路, 近美城苑貴城閣","lat":22.378338750602293,"long":114.17407871796973},{"id":20014222,"name":"積存街, 近埃索－大圍加油站","lat":22.37642485435779,"long":114.17749582956442},{"id":20014223,"name":"村南道, 近金昌樓","lat":22.37411114629809,"long":114.17945809081155},{"id":20014224,"name":"村南道, 近大圍站","lat":22.373436877265814,"long":114.17845887041865}],"routeId":2008225,"description":"額外班次"},{"company":"gmb","route":"63B","routeType":2,"orig":"大圍站(村南道)","dest":"恒峰花園","stopList":[{"id":20014224,"name":"村南道, 近大圍站","lat":22.373436877265814,"long":114.17845887041865},{"id":20014225,"name":"大圍道, 近金禧花園第６座","lat":22.374505944842795,"long":114.17800087103744},{"id":20014226,"name":"美田路, 近美田路休憩處","lat":22.377126671429895,"long":114.1739429699987},{"id":20014235,"name":"碧田街, 近恒峰花園第３座","lat":22.37762915623878,"long":114.17169421107191}],"routeId":2008225,"description":"額外班次"}]