[{"company":"gmb","route":"63B","routeType":1,"orig":"恒峰花園","dest":"大圍站(村南道)","stopList":[{"id":20014235,"name":"碧田街, 近恒峰花園第３座","lat":"22.377629","long":"114.171694"},{"id":20014236,"name":"碧田街,近翠景花園第２座","lat":"22.377709","long":"114.172223"},{"id":20014237,"name":"碧田街, 近翠景花園第１座","lat":"22.377934","long":"114.172877"},{"id":20014233,"name":"美田路, 近美城苑貴城閣","lat":"22.378339","long":"114.174079"},{"id":20014222,"name":"積存街, 近埃索－大圍加油站","lat":"22.376425","long":"114.177496"},{"id":20014223,"name":"村南道, 近金昌樓","lat":"22.374111","long":"114.179458"},{"id":20014224,"name":"村南道, 近大圍站","lat":"22.373437","long":"114.178459"}],"routeId":2008225,"description":"額外班次"},{"company":"gmb","route":"63B","routeType":2,"orig":"大圍站(村南道)","dest":"恒峰花園","stopList":[{"id":20014224,"name":"村南道, 近大圍站","lat":"22.373437","long":"114.178459"},{"id":20014225,"name":"大圍道, 近金禧花園第６座","lat":"22.374506","long":"114.178001"},{"id":20014226,"name":"美田路, 美林邨對面","lat":"22.377127","long":"114.173943"},{"id":20014235,"name":"碧田街, 近恒峰花園第３座","lat":"22.377629","long":"114.171694"}],"routeId":2008225,"description":"額外班次"}]