[{"company":"gmb","route":"63K","routeType":1,"orig":"美田邨公共運輸交匯處","dest":"大圍站(村南道)","stopList":[{"id":20014231,"name":"美田邨, 美田商場","lat":"22.376199","long":"114.170694"},{"id":20014222,"name":"積存街, 近埃索－大圍加油站","lat":"22.376425","long":"114.177496"},{"id":20014223,"name":"村南道, 近金昌樓","lat":"22.374111","long":"114.179458"},{"id":20014224,"name":"村南道, 近大圍站","lat":"22.373437","long":"114.178459"}],"routeId":2008223,"description":"正常班次"},{"company":"gmb","route":"63K","routeType":2,"orig":"大圍站(村南道)","dest":"美田邨公共運輸交匯處","stopList":[{"id":20014224,"name":"村南道, 近大圍站","lat":"22.373437","long":"114.178459"},{"id":20014225,"name":"大圍道, 近金禧花園第６座","lat":"22.374506","long":"114.178001"},{"id":20014226,"name":"美田路, 近美田路休憩處","lat":"22.377127","long":"114.173943"},{"id":20014227,"name":"香粉寮街, 近美田邨美全樓","lat":"22.377254","long":"114.172974"},{"id":20014231,"name":"美田邨, 美田商場","lat":"22.376199","long":"114.170694"}],"routeId":2008223,"description":"正常班次"}]