[{"company":"gmb","route":"63S","routeType":1,"orig":"美田邨公共運輸交匯處","dest":"旺角","stopList":[{"id":20014231,"name":"美田邨, 美田商場","lat":"22.376199","long":"114.170694"},{"id":20014805,"name":"香粉寮街, 近美田邨美全樓 ","lat":"22.377470","long":"114.173091"},{"id":20003167,"name":"美田路大圍街市外的巴士停車灣","lat":"22.373863","long":"114.177020"},{"id":20014248,"name":"紅梅谷路, 近新翠邨新月樓\t","lat":"22.370297","long":"114.179923"},{"id":20014244,"name":"紅梅谷路, 近世界花園長松閣","lat":"22.364824","long":"114.181201"},{"id":20014245,"name":"太子道西, 近太和苑","lat":"22.325503","long":"114.177594"},{"id":20004126,"name":"太子道西, 新世紀廣場外","lat":"22.324719","long":"114.173021"},{"id":20014246,"name":"西洋菜南街, 長寧大廈外","lat":"22.323803","long":"114.169128"}],"routeId":2008226,"description":"通宵班次"},{"company":"gmb","route":"63S","routeType":2,"orig":"旺角","dest":"美田邨公共運輸交匯處","stopList":[{"id":20014246,"name":"西洋菜南街, 長寧大廈外","lat":"22.323803","long":"114.169128"},{"id":20012428,"name":"旺角道, 近捷利大廈","lat":"22.321067","long":"114.169828"},{"id":20000912,"name":"亞皆老街, 嘉麗園\t","lat":"22.320159","long":"114.173341"},{"id":20014247,"name":"亞皆老街, 近怡安閣Ｂ座","lat":"22.320743","long":"114.176165"},{"id":20014248,"name":"紅梅谷路, 近新翠邨新月樓\t","lat":"22.370297","long":"114.179923"},{"id":20014249,"name":"田心街, 近隆亨邨保良局朱敬文中學","lat":"22.368486","long":"114.178264"},{"id":20014250,"name":"田心街, 近隆亨邨樂心樓","lat":"22.367391","long":"114.176385"},{"id":20014251,"name":"顯徑街, 近下徑口德安苑","lat":"22.365511","long":"114.175463"},{"id":20013038,"name":"顯徑街, 近顯田羅氏宗祠","lat":"22.362858","long":"114.172469"},{"id":20013040,"name":"車公廟路, 近顯田遊樂場","lat":"22.365534","long":"114.172939"},{"id":20014252,"name":"名城第一座","lat":"22.369490","long":"114.175544"},{"id":20014253,"name":"美田路, 近海福花園福兆閣","lat":"22.373413","long":"114.176993"},{"id":20014254,"name":"青沙公路, 近沙田公立學校","lat":"22.374730","long":"114.176005"},{"id":20014227,"name":"香粉寮街, 近美田邨美全樓","lat":"22.377254","long":"114.172974"},{"id":20014231,"name":"美田邨, 美田商場","lat":"22.376199","long":"114.170694"}],"routeId":2008226,"description":"通宵班次"}]