[{"company":"gmb","route":"63S","routeType":1,"orig":"美田邨公共運輸交匯處","dest":"旺角","stopList":[{"id":20014231,"name":"美田邨, 美田商場","lat":22.37619885514911,"long":114.17069392802081},{"id":20014805,"name":"香粉寮街, 近美田邨美全樓 ","lat":22.377469565744192,"long":114.17309062519318},{"id":20003167,"name":"美田路大圍街市外的巴士停車灣","lat":22.373863430244207,"long":114.17702002355917},{"id":20014248,"name":"紅梅谷路, 近新翠邨新月樓\t","lat":22.370296949520284,"long":114.17992322675647},{"id":20014244,"name":"紅梅谷路, 近世界花園長松閣","lat":22.364824415630917,"long":114.18120136463747},{"id":20014245,"name":"太子道西, 近太和苑","lat":22.3255034812694,"long":114.17759363777127},{"id":20004126,"name":"太子道西,新世紀廣場外","lat":22.324719071141207,"long":114.1730209469322},{"id":20014246,"name":"西洋菜南街,近長寧大廈","lat":22.323803487143728,"long":114.16912844847025}],"routeId":2008226,"description":"通宵班次"},{"company":"gmb","route":"63S","routeType":2,"orig":"旺角","dest":"美田邨公共運輸交匯處","stopList":[{"id":20014246,"name":"西洋菜南街,近長寧大廈","lat":22.323803487143728,"long":114.16912844847025},{"id":20012428,"name":"旺角道, 近捷利大廈","lat":22.321067285616348,"long":114.16982761679593},{"id":20000912,"name":"亞皆老街, 嘉麗園\t","lat":22.320158629867134,"long":114.17334136941656},{"id":20014247,"name":"亞皆老街, 近怡安閣Ｂ座","lat":22.3207428272778,"long":114.17616541574432},{"id":20014248,"name":"紅梅谷路, 近新翠邨新月樓\t","lat":22.370296949520284,"long":114.17992322675647},{"id":20014249,"name":"田心街, 近隆亨邨保良局朱敬文中學","lat":22.368485802235234,"long":114.1782640185524},{"id":20014250,"name":"田心街, 近隆亨邨樂心樓","lat":22.367390654884638,"long":114.17638493842746},{"id":20014251,"name":"顯徑街, 近下徑口德安苑","lat":22.36551070097993,"long":114.17546330702622},{"id":20013038,"name":"顯徑街, 近顯田羅氏宗祠","lat":22.36285761485975,"long":114.17246860978582},{"id":20013040,"name":"車公廟路, 近顯田遊樂場","lat":22.36553446979236,"long":114.17293863267388},{"id":20014252,"name":"名城第一座","lat":22.36948951340998,"long":114.17554434670731},{"id":20014253,"name":"美田路, 近海福花園福兆閣","lat":22.373413117530774,"long":114.17699336096689},{"id":20014254,"name":"青沙公路, 近沙田公立學校","lat":22.374730167793327,"long":114.17600483086804},{"id":20014227,"name":"香粉寮街, 近美田邨美全樓","lat":22.37725447701061,"long":114.17297350285342},{"id":20014231,"name":"美田邨, 美田商場","lat":22.37619885514911,"long":114.17069392802081}],"routeId":2008226,"description":"通宵班次"}]