[{"company":"kmb","route":"64K","routeType":"1","dir":"O","orig":"元朗(西)","dest":"大埔墟站","stopList":[{"id":"C7ACD35D5D7C153B","name":"元朗（西）總站","lat":"22.445520","long":"114.024812"},{"id":"D54B0CA58FE5559D","name":"元朗同樂街 (N12)","lat":"22.444616","long":"114.028395"},{"id":"445B2A02DB891CA9","name":"元朗谷亭街 (N14)","lat":"22.444580","long":"114.030435"},{"id":"0C943B7308FF4DCC","name":"形點 II","lat":"22.446616","long":"114.035376"},{"id":"73CDC61EBA1C9431","name":"形點 I","lat":"22.445065","long":"114.036445"},{"id":"D9AB3B959A46E411","name":"博愛醫院","lat":"22.445005","long":"114.040216"},{"id":"36DC37F6A54BA5E0","name":"東成里 (SA100)","lat":"22.444407","long":"114.043751"},{"id":"F5FA7ED5D5A6860D","name":"凹頭","lat":"22.444159","long":"114.048568"},{"id":"D05C7D74301D47C5","name":"下高埔村","lat":"22.442496","long":"114.051608"},{"id":"41C9D989B8B874FF","name":"高埔村","lat":"22.440430","long":"114.056288"},{"id":"E67CDE5E499A9529","name":"蒙養小學","lat":"22.440022","long":"114.061520"},{"id":"F11894F005F25CAB","name":"祠堂村","lat":"22.438117","long":"114.065458"},{"id":"6D76943277DC18FF","name":"沙田坑村","lat":"22.435974","long":"114.067605"},{"id":"E909A45B1FB3213B","name":"錦上路站","lat":"22.434510","long":"114.064924"},{"id":"13211112A23954EC","name":"沙田坑","lat":"22.435917","long":"114.067226"},{"id":"3502ABD7492B8C56","name":"吳家村","lat":"22.436591","long":"114.069034"},{"id":"B20A1163984772C9","name":"八鄉新馬路","lat":"22.434205","long":"114.070497"},{"id":"8D47F8C7AA27FCB8","name":"金錢圍","lat":"22.431918","long":"114.071005"},{"id":"7AA3F7F89AD36B1B","name":"石湖塘","lat":"22.429095","long":"114.071810"},{"id":"180648AA12CF6725","name":"田心村","lat":"22.426281","long":"114.074207"},{"id":"7525EA3D297065CC","name":"八鄉八鄉路","lat":"22.425162","long":"114.075328"},{"id":"BC3E701090D7E56E","name":"元崗村","lat":"22.424313","long":"114.077433"},{"id":"8DDFE8598C7DA354","name":"八鄉東邊路","lat":"22.425927","long":"114.080092"},{"id":"8A0B04DDC3B321A4","name":"水盞田","lat":"22.427244","long":"114.081945"},{"id":"076E1AA3258C5D0A","name":"水流田","lat":"22.428329","long":"114.083730"},{"id":"2FE9CA5CC344B5A3","name":"蓮花地","lat":"22.428871","long":"114.086602"},{"id":"AEE5D5FDC38650DB","name":"黎屋村","lat":"22.429736","long":"114.091266"},{"id":"B1E11C753EE8DC31","name":"杜屋村","lat":"22.429896","long":"114.094876"},{"id":"CD364F8B176DE0EC","name":"石上路","lat":"22.430144","long":"114.098946"},{"id":"B3CCAA9D93647348","name":"張屋村","lat":"22.430665","long":"114.100543"},{"id":"2D7EF40DC9C35085","name":"上村球場","lat":"22.431586","long":"114.102853"},{"id":"D9D98D036444BE88","name":"上村甫","lat":"22.431611","long":"114.104789"},{"id":"0BAD689F3AEEC4C6","name":"黃竹園","lat":"22.431745","long":"114.107104"},{"id":"BE84FA588F92AFA9","name":"凌雲寺","lat":"22.432057","long":"114.109828"},{"id":"76361DD9F5A6CF6A","name":"嘉道理農場","lat":"22.433705","long":"114.117368"},{"id":"66E828043D886A9F","name":"牛欄窩","lat":"22.439362","long":"114.123501"},{"id":"5242343C03385FCC","name":"梧桐寨 (白牛石)","lat":"22.440389","long":"114.125590"},{"id":"D56D56E9F6458361","name":"寨乪路","lat":"22.440799","long":"114.126793"},{"id":"3889C01BE6A7BF26","name":"寨乪","lat":"22.442000","long":"114.127799"},{"id":"6FECC341F6134448","name":"麻布尾","lat":"22.443680","long":"114.129457"},{"id":"D42A82ABE8C00558","name":"水窩","lat":"22.444813","long":"114.131208"},{"id":"81927FEBF3AF1AFD","name":"坪朗","lat":"22.446440","long":"114.132859"},{"id":"83363B1A7C100F96","name":"新塘","lat":"22.449109","long":"114.135241"},{"id":"78A272047C590D21","name":"新村","lat":"22.450874","long":"114.138025"},{"id":"FCE4B9D70351B091","name":"鍾屋村","lat":"22.454138","long":"114.140969"},{"id":"90A92A87C0491478","name":"放馬莆(林村許願樹)","lat":"22.455648","long":"114.142316"},{"id":"BCC83D8C953DC504","name":"坑下甫","lat":"22.457446","long":"114.144148"},{"id":"DC6749D20ED5C948","name":"較寮下","lat":"22.460006","long":"114.145797"},{"id":"BE5E07865E13374E","name":"康樂園 (TP225)","lat":"22.461106","long":"114.148464"},{"id":"94236C65C84D8C17","name":"三渡坑 (TP226)","lat":"22.458370","long":"114.150786"},{"id":"4C82D99D0721ADE9","name":"帝欣苑 (TP227)","lat":"22.454096","long":"114.155863"},{"id":"399EF919E10C7F33","name":"太和站 (TP981)","lat":"22.450873","long":"114.161011"},{"id":"56F79FB1FC157E22","name":"大埔政府合署 (TP611)","lat":"22.450783","long":"114.164431"},{"id":"95B249916F323BD4","name":"大埔平安里 (TP612)","lat":"22.452587","long":"114.165432"},{"id":"45628FA7B8D7C5D2","name":"大埔安祥路 (TP537)","lat":"22.451613","long":"114.167462"},{"id":"13E458C819D90940","name":"廣福道轉車站 (Y1) (TP564)","lat":"22.448685","long":"114.166993"},{"id":"A6D60802BD8DDED0","name":"大埔運頭角里 (TP568)","lat":"22.447394","long":"114.169932"},{"id":"46604706EE6CC765","name":"大埔墟站巴士總站 (TP935)","lat":"22.443620","long":"114.169716"},{"id":"7910B0EBDD33B71B","name":"大埔墟站巴士總站 (TP941)","lat":"22.443672","long":"114.169215"}],"routeId":"64K","description":"正常班次"},{"company":"kmb","route":"64K","routeType":"2","dir":"O","orig":"梧桐寨 (白牛石)","dest":"大埔(太和)","stopList":[{"id":"5242343C03385FCC","name":"梧桐寨 (白牛石)","lat":"22.440389","long":"114.125590"},{"id":"D56D56E9F6458361","name":"寨乪路","lat":"22.440799","long":"114.126793"},{"id":"3889C01BE6A7BF26","name":"寨乪","lat":"22.442000","long":"114.127799"},{"id":"6FECC341F6134448","name":"麻布尾","lat":"22.443680","long":"114.129457"},{"id":"D42A82ABE8C00558","name":"水窩","lat":"22.444813","long":"114.131208"},{"id":"81927FEBF3AF1AFD","name":"坪朗","lat":"22.446440","long":"114.132859"},{"id":"83363B1A7C100F96","name":"新塘","lat":"22.449109","long":"114.135241"},{"id":"78A272047C590D21","name":"新村","lat":"22.450874","long":"114.138025"},{"id":"FCE4B9D70351B091","name":"鍾屋村","lat":"22.454138","long":"114.140969"},{"id":"90A92A87C0491478","name":"放馬莆(林村許願樹)","lat":"22.455648","long":"114.142316"},{"id":"BCC83D8C953DC504","name":"坑下甫","lat":"22.457446","long":"114.144148"},{"id":"DC6749D20ED5C948","name":"較寮下","lat":"22.460006","long":"114.145797"},{"id":"BE5E07865E13374E","name":"康樂園 (TP225)","lat":"22.461106","long":"114.148464"},{"id":"94236C65C84D8C17","name":"三渡坑 (TP226)","lat":"22.458370","long":"114.150786"},{"id":"4C82D99D0721ADE9","name":"帝欣苑 (TP227)","lat":"22.454096","long":"114.155863"},{"id":"399EF919E10C7F33","name":"太和站 (TP981)","lat":"22.450873","long":"114.161011"}],"routeId":"64K","description":"特別班次"},{"company":"kmb","route":"64K","routeType":"1","dir":"I","orig":"大埔墟站","dest":"元朗(西)","stopList":[{"id":"7910B0EBDD33B71B","name":"大埔墟站巴士總站 (TP941)","lat":"22.443672","long":"114.169215"},{"id":"56C003E99C21984A","name":"大埔墟街市 (TP285)","lat":"22.445994","long":"114.167019"},{"id":"6219234626AC9DD5","name":"大埔寶鄉街 (TP301)","lat":"22.448218","long":"114.166325"},{"id":"DA30F5393480B81D","name":"廣福道轉車站 - 寶鄉橋 (B3)","lat":"22.449903","long":"114.167006"},{"id":"6716018C3EE42733","name":"大埔安祥路 (TP311)","lat":"22.451779","long":"114.167238"},{"id":"1A0BF02F827F6A20","name":"大埔安慈路 (TP742)","lat":"22.452495","long":"114.165632"},{"id":"CCC4773031BC0FD8","name":"太和廣場 (TP336)","lat":"22.450735","long":"114.160718"},{"id":"2A86FE3FCDB9760B","name":"帝欣苑　 (TP345)","lat":"22.453987","long":"114.155686"},{"id":"5FCD0D727920EC65","name":"康樂園 (TP346)","lat":"22.460648","long":"114.148561"},{"id":"0B786699889F0AEB","name":"較寮下","lat":"22.459351","long":"114.145609"},{"id":"A53F6592C4173B4E","name":"坑下甫","lat":"22.457393","long":"114.144278"},{"id":"A61CDC435D1C6C37","name":"放馬莆(林村許願樹)","lat":"22.455513","long":"114.142423"},{"id":"B473A39CEDD5069D","name":"鍾屋村","lat":"22.453838","long":"114.140798"},{"id":"2A092A3FB143443A","name":"新村","lat":"22.450567","long":"114.137668"},{"id":"BEEF3ECF24FF4F1A","name":"新塘","lat":"22.448946","long":"114.135293"},{"id":"A26AAC44AD49B9DB","name":"坪朗","lat":"22.445870","long":"114.132429"},{"id":"51AFF58670A6BE9B","name":"大庵","lat":"22.444288","long":"114.130576"},{"id":"C97D9654FC4427C9","name":"麻布尾","lat":"22.443573","long":"114.129458"},{"id":"42B5697C975C3953","name":"寨乪","lat":"22.442038","long":"114.127912"},{"id":"B4C010DBFBD55834","name":"梧桐寨 (白牛石)","lat":"22.440262","long":"114.125216"},{"id":"61316B564DD5D47B","name":"牛欄窩","lat":"22.438874","long":"114.123119"},{"id":"4A6A07B435D221D6","name":"嘉道理農場","lat":"22.433501","long":"114.117320"},{"id":"A8E0D10D79497444","name":"凌雲寺","lat":"22.431484","long":"114.109103"},{"id":"5CB3827F92F37568","name":"上村球場","lat":"22.431425","long":"114.102957"},{"id":"56ECE6365B40EF35","name":"上村新村","lat":"22.430518","long":"114.100194"},{"id":"F24053B64CEEE7D2","name":"石上路","lat":"22.430104","long":"114.098979"},{"id":"475B0D727574F7B8","name":"謝屋村","lat":"22.429893","long":"114.094669"},{"id":"77C4E5A2A47DD342","name":"黎屋村","lat":"22.429856","long":"114.092047"},{"id":"042C0E83759B8B21","name":"蓮花地","lat":"22.428848","long":"114.087351"},{"id":"D65ADB261B3B4BFB","name":"牛徑","lat":"22.428432","long":"114.085023"},{"id":"B0562915C29036D8","name":"水盞田","lat":"22.427476","long":"114.082512"},{"id":"A9F94ED7238542F5","name":"八鄉東邊路","lat":"22.425509","long":"114.079626"},{"id":"3F2DD4E3E4A5CCBB","name":"元崗村","lat":"22.424450","long":"114.077812"},{"id":"AB4FF374DA182B02","name":"八鄉八鄉路","lat":"22.424565","long":"114.075708"},{"id":"D5FB5BA7E9E89E5A","name":"富銀花園","lat":"22.425501","long":"114.074844"},{"id":"41C32F27390D0EF4","name":"田心村","lat":"22.427083","long":"114.073150"},{"id":"3D29F886079F85E9","name":"石湖塘","lat":"22.428924","long":"114.071842"},{"id":"7CFA6F0EF3D764C7","name":"金錢圍","lat":"22.431436","long":"114.071125"},{"id":"8447E71E45CE5452","name":"八鄉新馬路","lat":"22.433539","long":"114.070541"},{"id":"083D8BB713878707","name":"吳家村","lat":"22.435777","long":"114.069528"},{"id":"B683B48A5CCC6C2B","name":"沙田坑村","lat":"22.436280","long":"114.067890"},{"id":"4EBE182141C52094","name":"錦上路站","lat":"22.434342","long":"114.064494"},{"id":"EA74F13EEC20AD91","name":"沙田坑","lat":"22.435852","long":"114.067119"},{"id":"611596D3D8BFBA7A","name":"錦田波地路","lat":"22.437432","long":"114.067217"},{"id":"3F90F60D6947E6A0","name":"祠堂村","lat":"22.438192","long":"114.064602"},{"id":"3210F3BCFFD74E61","name":"蒙養小學","lat":"22.439838","long":"114.061013"},{"id":"BFCFEBF6F5C35402","name":"高埔村","lat":"22.440176","long":"114.056258"},{"id":"F8B3A5C8D0D3CED7","name":"下高埔村","lat":"22.441913","long":"114.052704"},{"id":"3D5F826FD00C0529","name":"凹頭","lat":"22.443185","long":"114.050075"},{"id":"876CF2E8C375F78B","name":"東成里 (SA234)","lat":"22.443935","long":"114.045892"},{"id":"6386333EDAC64C96","name":"楊屋村 (SA236)","lat":"22.444260","long":"114.042387"},{"id":"0FD6C16477F1F0E8","name":"博愛醫院","lat":"22.445093","long":"114.040096"},{"id":"6A4B371546D489BF","name":"形點 I (A3)","lat":"22.444324","long":"114.035984"},{"id":"AC935792C88AF135","name":"元朗又新街 (S5)","lat":"22.444300","long":"114.030811"},{"id":"43E5D3A445382F82","name":"元朗大棠路 (S8)","lat":"22.444344","long":"114.028219"},{"id":"C7ACD35D5D7C153B","name":"元朗（西）總站","lat":"22.445520","long":"114.024812"}],"routeId":"64K","description":"正常班次"},{"company":"gmb","route":"64K","routeType":1,"orig":"富山","dest":"大圍站(村南道)","stopList":[{"id":20014815,"name":"下城門道, 近富山火葬場\t","lat":22.374508140746308,"long":114.16999668021273},{"id":20014259,"name":"大圍新村路, 近大圍新村\t","lat":22.37461584121244,"long":114.17417983383031},{"id":20014257,"name":"積存街, 近嘉全樓","lat":22.376690008118658,"long":114.17800488648527},{"id":20014224,"name":"村南道, 近大圍站","lat":22.373436877265814,"long":114.17845887041865}],"routeId":2008227,"description":"正常班次"},{"company":"gmb","route":"64K","routeType":2,"orig":"大圍站(村南道)","dest":"富山","stopList":[{"id":20014224,"name":"村南道, 近大圍站","lat":22.373436877265814,"long":114.17845887041865},{"id":20014225,"name":"大圍道, 近金禧花園第６座","lat":22.374505944842795,"long":114.17800087103744},{"id":20014258,"name":"積運街, 近中華電力有限公司積運街支站","lat":22.37231996073474,"long":114.1769230320307},{"id":20014256,"name":"大圍新村路, 近大圍新村","lat":22.37461584121244,"long":114.17417983383031},{"id":20014814,"name":"下城門道, 近富山火葬場","lat":22.374508140746308,"long":114.16999668021273}],"routeId":2008227,"description":"正常班次"}]