[{"company":"kmb","route":"64S","routeType":"1","dir":"O","orig":"上村球場","dest":"錦上路站","stopList":[{"id":"5CB3827F92F37568","name":"上村球場 (YL681)","lat":"22.431425","long":"114.102957"},{"id":"56ECE6365B40EF35","name":"上村新村 (YL682)","lat":"22.430518","long":"114.100194"},{"id":"F24053B64CEEE7D2","name":"石上路 (YL683)","lat":"22.430104","long":"114.098979"},{"id":"475B0D727574F7B8","name":"謝屋村 (YL684)","lat":"22.429893","long":"114.094669"},{"id":"77C4E5A2A47DD342","name":"黎屋村 (YL685)","lat":"22.429856","long":"114.092047"},{"id":"042C0E83759B8B21","name":"蓮花地 (YL686)","lat":"22.428848","long":"114.087351"},{"id":"D65ADB261B3B4BFB","name":"牛徑 (YL687)","lat":"22.428432","long":"114.085023"},{"id":"B0562915C29036D8","name":"水盞田 (YL688)","lat":"22.427476","long":"114.082512"},{"id":"A9F94ED7238542F5","name":"八鄉東邊路 (YL689)","lat":"22.425509","long":"114.079626"},{"id":"3F2DD4E3E4A5CCBB","name":"元崗村 (YL690)","lat":"22.424450","long":"114.077812"},{"id":"AB4FF374DA182B02","name":"八鄉八鄉路 (YL691)","lat":"22.424565","long":"114.075708"},{"id":"D5FB5BA7E9E89E5A","name":"富銀花園 (YL692)","lat":"22.425501","long":"114.074844"},{"id":"41C32F27390D0EF4","name":"田心村 (YL693)","lat":"22.427083","long":"114.073150"},{"id":"3D29F886079F85E9","name":"石湖塘 (YL694)","lat":"22.428924","long":"114.071842"},{"id":"7CFA6F0EF3D764C7","name":"金錢圍 (YL695)","lat":"22.431436","long":"114.071125"},{"id":"8447E71E45CE5452","name":"八鄉新馬路 (YL696)","lat":"22.433539","long":"114.070541"},{"id":"083D8BB713878707","name":"吳家村 (YL697)","lat":"22.435777","long":"114.069528"},{"id":"6D76943277DC18FF","name":"沙田坑村 (YL748)","lat":"22.435974","long":"114.067605"},{"id":"4EBE182141C52094","name":"錦上路站 (YL860)","lat":"22.434342","long":"114.064494"}],"routeId":"64S","description":"正常班次"}]