[{"company":"kmb","route":"65X","routeType":"1","dir":"O","orig":"天恩邨","dest":"香港科學園","stopList":[{"id":"03FC9E0BC770B677","name":"天恩邨總站","lat":"22.462265","long":"113.996616"},{"id":"73FE2D32F218DA9C","name":"天恩邨","lat":"22.464231","long":"113.997238"},{"id":"A264255E81F51111","name":"天澤邨","lat":"22.468122","long":"113.999172"},{"id":"4C86E1F44AE9C25B","name":"香港濕地公園","lat":"22.469846","long":"114.002807"},{"id":"79C0E2525F4B50FF","name":"濕地公園路","lat":"22.465625","long":"114.006797"},{"id":"324EF7E116289941","name":"天華路美湖居","lat":"22.462053","long":"114.005688"},{"id":"D2425B7147B58E1D","name":"美湖居","lat":"22.461038","long":"114.004351"},{"id":"A4607B71730E8F46","name":"景湖居","lat":"22.457409","long":"114.005641"},{"id":"021872C0E263AC46","name":"天慈邨","lat":"22.453091","long":"114.006201"},{"id":"399EF919E10C7F33","name":"太和站","lat":"22.450873","long":"114.161011"},{"id":"56F79FB1FC157E22","name":"大埔政府合署","lat":"22.450783","long":"114.164431"},{"id":"6DE63371E5E799BA","name":"大埔舊墟公園","lat":"22.451324","long":"114.165984"},{"id":"13E458C819D90940","name":"廣福道轉車站 (Y1)","lat":"22.448685","long":"114.166993"},{"id":"A6D60802BD8DDED0","name":"大埔運頭角里","lat":"22.447394","long":"114.169932"},{"id":"12E4BAFA2B73435B","name":"廣福邨","lat":"22.446599","long":"114.173474"},{"id":"74648B92E0E80E2E","name":"白石角變電站 (S1)","lat":"22.434893","long":"114.201372"},{"id":"F3243F2A0BC4DEAD","name":"天賦海灣 (S2)","lat":"22.431492","long":"114.201558"},{"id":"3F24CFF9046300D9","name":"雲滙 (S3)","lat":"22.429805","long":"114.203323"},{"id":"3A7AC3A5F9530786","name":"創新路 (S4)","lat":"22.428649","long":"114.204981"},{"id":"39E7051B17D302DA","name":"科研路 (S5)","lat":"22.426442","long":"114.208450"},{"id":"1C6EAAF5F48167F9","name":"科學園(第一期) (S6)","lat":"22.424272","long":"114.211589"},{"id":"9C6800DD6E0CD683","name":"香港科學園","lat":"22.424662","long":"114.212396"},{"id":"6E821768CA09E8C9","name":"香港科學園第三期","lat":"22.426589","long":"114.209304"}],"routeId":"65X","description":"正常班次"},{"company":"gmb","route":"65X","routeType":1,"orig":"東區尤德夫人那打素醫院","dest":"北角渡輪碼頭公共運輸交匯處","stopList":[{"id":20000263,"name":"東區尤德夫人那打素醫院","lat":22.269137269803817,"long":114.23684638983106},{"id":20003075,"name":"英皇道,近健威花園","lat":22.29180931716363,"long":114.20395839005033},{"id":20016102,"name":"英皇道,近港運城","lat":22.29145907186823,"long":114.20231491327287},{"id":20016103,"name":"北角渡輪碼頭公共運輸交匯處","lat":22.293322859351214,"long":114.20193940401079}],"routeId":2008092,"description":"額外班次"},{"company":"gmb","route":"65X","routeType":2,"orig":"北角渡輪碼頭公共運輸交匯處","dest":"東區尤德夫人那打素醫院","stopList":[{"id":20016103,"name":"北角渡輪碼頭公共運輸交匯處","lat":22.293322859351214,"long":114.20193940401079},{"id":20016104,"name":"渣華道,近電照街","lat":22.29271855814335,"long":114.20183613896371},{"id":20016105,"name":"太安街, 近西灣河地鐵站A出口","lat":22.282320941922695,"long":114.22247707843782},{"id":20000263,"name":"東區尤德夫人那打素醫院","lat":22.269137269803817,"long":114.23684638983106}],"routeId":2008092,"description":"額外班次"}]