[{"company":"kmb","route":"671","routeType":"1","dir":"O","orig":"鑽石山站","dest":"鴨脷洲(利樂街)","stopList":[{"id":"CC0EA05EEADFA481","name":"鑽石山站巴士總站 (WT965)","lat":"22.340852","long":"114.201635"},{"id":"6FB456AE4E4CFFD4","name":"龍蟠苑 (WT134)","lat":"22.342935","long":"114.200269"},{"id":"DFAA3371878CEED2","name":"新蒲崗四美街 (WT333)","lat":"22.338348","long":"114.201507"},{"id":"3BB1407BA61E0A9B","name":"彩虹轉車站 - 金碧樓 (WT345)","lat":"22.335522","long":"114.204886"},{"id":"23AF5995FEBCA8E6","name":"啟業邨 (KT314)","lat":"22.330675","long":"114.210388"},{"id":"4BD5CE5106BB0697","name":"九龍灣站(東九文化中心) (KT317)","lat":"22.325601","long":"114.214336"},{"id":"D530D698BC181839","name":"牛頭角下邨 (KT324)","lat":"22.321874","long":"114.214633"},{"id":"3E73B73B12E25DCF","name":"觀塘道休憩處 (KT330)","lat":"22.318039","long":"114.215032"},{"id":"A880D4A7E3310AEB","name":"創紀之城 (KT339)","lat":"22.314630","long":"114.220789"},{"id":"EB177E95B39626AE","name":"觀塘轉車站-觀塘市中心 (KT347)","lat":"22.313290","long":"114.224287"},{"id":"5AAC6A858427D04E","name":"觀塘游泳池 (KT360)","lat":"22.310432","long":"114.229545"},{"id":"5BDD5F9F4C89D3E1","name":"藍田站 (LT909)","lat":"22.307106","long":"114.233517"},{"id":"E0558D2901ECC032","name":"東隧轉車站 (LT412)","lat":"22.300400","long":"114.233560"},{"id":"4618B90F316901BB","name":"健威花園","lat":"22.291792","long":"114.203957"},{"id":"5EA1BB87DFD5CADB","name":"琴行街","lat":"22.291167","long":"114.200899"},{"id":"31748E8EF7377312","name":"美麗閣","lat":"22.290630","long":"114.198308"},{"id":"3B604DDE85F00A7B","name":"新時代廣場","lat":"22.289699","long":"114.195002"},{"id":"5B0682EF0C8397A2","name":"清風街天橋","lat":"22.286387","long":"114.193069"},{"id":"388C3DB16F0F2719","name":"景隆街","lat":"22.281661","long":"114.182689"},{"id":"719B6A48C203AFBA","name":"香港仔隧道","lat":"22.249737","long":"114.175302"},{"id":"4BF5A563B95D2F42","name":"黃竹坑遊樂場","lat":"22.250307","long":"114.170477"},{"id":"9AD628EDE1178D24","name":"黃竹坑業興街","lat":"22.249172","long":"114.167885"},{"id":"3147FEC6D6DC535A","name":"勝利工廠大廈","lat":"22.248388","long":"114.162899"},{"id":"4830E097480D3AD6","name":"香港真光書院","lat":"22.241765","long":"114.157937"},{"id":"EE1C91F3EDCEBB7E","name":"東興樓","lat":"22.240597","long":"114.155756"},{"id":"277B784B9369F9E1","name":"利東街市","lat":"22.241668","long":"114.154800"},{"id":"85363AEF68CB6277","name":"鴨脷洲徑","lat":"22.243378","long":"114.156939"},{"id":"5A7CD7DCB08F92C2","name":"利枝道","lat":"22.243062","long":"114.155087"},{"id":"ED29F1957E0D38EC","name":"御庭園","lat":"22.244029","long":"114.149803"},{"id":"A082B0B376063B20","name":"怡韻閣","lat":"22.243103","long":"114.147506"},{"id":"579FD884D6371179","name":"海韻閣","lat":"22.244474","long":"114.146993"},{"id":"B1150B18848D0598","name":"鴨脷洲邨總站","lat":"22.244073","long":"114.150597"},{"id":"3332ED875BCFFB7C","name":"御庭園","lat":"22.242908","long":"114.150584"},{"id":"1EE34E904F2AEC25","name":"污水處理廠","lat":"22.239683","long":"114.149713"},{"id":"1A213BD9F2753CDE","name":"新海怡廣場","lat":"22.238917","long":"114.152044"},{"id":"FBBA97AE1E9F4B53","name":"鴨脷洲利樂街巴士總站","lat":"22.237532","long":"114.153685"}],"routeId":"671","description":"正常班次"},{"company":"kmb","route":"671","routeType":"1","dir":"I","orig":"鴨脷洲(利樂街)","dest":"鑽石山站","stopList":[{"id":"FBBA97AE1E9F4B53","name":"鴨脷洲利樂街巴士總站","lat":"22.237532","long":"114.153685"},{"id":"7F3F90F0B2C4306B","name":"利景街","lat":"22.238099","long":"114.152694"},{"id":"05E2DF7FFDEA4F9A","name":"污水處理廠","lat":"22.239621","long":"114.149667"},{"id":"90268774329160D9","name":"怡南路","lat":"22.240688","long":"114.148213"},{"id":"96BA48FFCBDB7791","name":"美暉閣","lat":"22.243021","long":"114.147593"},{"id":"2208DE69AD7B38DA","name":"海韻閣","lat":"22.244477","long":"114.146951"},{"id":"C355E5F825B9864F","name":"利澤樓","lat":"22.244247","long":"114.149802"},{"id":"38B4D64E5D9DA9AB","name":"利枝道","lat":"22.243189","long":"114.155145"},{"id":"7C27E54D8AEC683A","name":"鴨脷洲徑","lat":"22.243649","long":"114.156784"},{"id":"6D9D9FDA28C09FC0","name":"利東邨東興樓","lat":"22.240564","long":"114.154944"},{"id":"3227505D6CDA32C9","name":"利東街市","lat":"22.241612","long":"114.154802"},{"id":"7906D320A27CAD88","name":"漁安苑","lat":"22.243011","long":"114.157825"},{"id":"EC839AE65935149B","name":"香港仔工業學校","lat":"22.248699","long":"114.162511"},{"id":"AE4E8F82AD65348C","name":"黃竹坑業興街","lat":"22.249669","long":"114.168177"},{"id":"225E8FAE869B3308","name":"香港仔隧道","lat":"22.250048","long":"114.176065"},{"id":"86B81946F9FA57FB","name":"立德里","lat":"22.276210","long":"114.180209"},{"id":"A07CC0A6D462A579","name":"灣仔消防局","lat":"22.279790","long":"114.181986"},{"id":"4EE6F43CF8D6217D","name":"百德新街","lat":"22.280005","long":"114.185477"},{"id":"9541036143D6CCF1","name":"維多利亞公園","lat":"22.281144","long":"114.190058"},{"id":"1A0BCDF4BDC3E1A9","name":"銀幕街","lat":"22.283562","long":"114.192415"},{"id":"A4EBD881BA65C831","name":"七海商業中心","lat":"22.287699","long":"114.192943"},{"id":"05C0C27B083F2C00","name":"電廠街","lat":"22.289997","long":"114.195036"},{"id":"322A5914FD96DE4B","name":"書局街","lat":"22.291222","long":"114.200013"},{"id":"33D2B3AB9D2CCDF3","name":"港運城","lat":"22.291733","long":"114.202568"},{"id":"D678B3364437D16B","name":"東隧轉車站 (LT101)","lat":"22.301070","long":"114.232925"},{"id":"2EF9764BE18FC290","name":"藍田站 (LT607)","lat":"22.305354","long":"114.234128"},{"id":"25F3EF8ACD865DFB","name":"觀塘法院 (KT609)","lat":"22.309933","long":"114.229647"},{"id":"FDFA7692A141612F","name":"觀塘轉車站 - 創紀之城 (KT634)","lat":"22.313721","long":"114.222607"},{"id":"83BB162ED5F1355F","name":"觀塘轉車站 - 牛頭角站 (KT645)","lat":"22.314726","long":"114.219673"},{"id":"7380707A36C032B9","name":"觀塘定富街 (KT646)","lat":"22.316142","long":"114.216218"},{"id":"60D0B9706B352D1C","name":"香港建造學院-九龍灣院校","lat":"22.319024","long":"114.214661"},{"id":"8570495BD7C63C02","name":"九龍灣站 (KT671)","lat":"22.324805","long":"114.214033"},{"id":"F374B56E275194D8","name":"啟泰苑 (KT677)","lat":"22.328563","long":"114.212227"},{"id":"F6512E7C4A6D5C2E","name":"牛池灣轉車站-丹鳳樓 (WT700)","lat":"22.335233","long":"114.207616"},{"id":"9AC3AFC5216B9711","name":"彩虹轉車站 - 錦雲樓 (WT370)","lat":"22.337382","long":"114.204795"},{"id":"7ABFD50CAA98A9D1","name":"新蒲崗大有街 (WT545)","lat":"22.338670","long":"114.200042"},{"id":"A0FDF34B2D278750","name":"鳳德商場 (WT408)","lat":"22.343311","long":"114.199551"},{"id":"CC0EA05EEADFA481","name":"鑽石山站巴士總站 (WT965)","lat":"22.340852","long":"114.201635"}],"routeId":"671","description":"正常班次"},{"company":"ctb","route":"671","routeType":null,"dir":"I","orig":"鑽石山站","dest":"鴨脷洲 (利樂街)","stopList":[{"id":"001526","name":"鑽石山站","lat":"22.340905","long":"114.201803"},{"id":"001470","name":"龍蟠苑, 鳳德道","lat":"22.342870","long":"114.200649"},{"id":"001452","name":"四美街, 彩虹道","lat":"22.338413","long":"114.201162"},{"id":"001448","name":"彩虹邨金碧樓, 彩虹邨通道","lat":"22.335158","long":"114.204981"},{"id":"001504","name":"啟業邨, 觀塘道","lat":"22.330616","long":"114.210343"},{"id":"001505","name":"九龍灣站, 觀塘道","lat":"22.325498","long":"114.214295"},{"id":"001506","name":"牛頭角下邨, 觀塘道","lat":"22.321455","long":"114.214632"},{"id":"001797","name":"觀塘道休憩處, 觀塘道","lat":"22.318073","long":"114.215034"},{"id":"003458","name":"創紀之城, 觀塘道","lat":"22.314561","long":"114.220919"},{"id":"001509","name":"觀塘市中心, 觀塘道","lat":"22.313441","long":"114.223974"},{"id":"001518","name":"觀塘游泳池, 鯉魚門道","lat":"22.310381","long":"114.229522"},{"id":"001519","name":"藍田站","lat":"22.307092","long":"114.233471"},{"id":"001463","name":"東區海底隧道巴士轉乘站","lat":"22.300498","long":"114.233513"},{"id":"001277","name":"健威花園, 英皇道","lat":"22.291810","long":"114.203890"},{"id":"001279","name":"琴行街, 英皇道","lat":"22.291204","long":"114.200959"},{"id":"001281","name":"美麗閣, 英皇道","lat":"22.290568","long":"114.197884"},{"id":"001282","name":"新時代廣場, 英皇道","lat":"22.289910","long":"114.195157"},{"id":"001285","name":"清風街天橋, 英皇道","lat":"22.286175","long":"114.193035"},{"id":"002414","name":"景隆街, 告士打道","lat":"22.281732","long":"114.182809"},{"id":"002348","name":"香港仔隧道巴士轉乘站","lat":"22.249770","long":"114.175336"},{"id":"002355","name":"黃竹坑遊樂場, 黃竹坑道","lat":"22.250123","long":"114.169851"},{"id":"002356","name":"業興街, 黃竹坑道","lat":"22.249176","long":"114.167796"},{"id":"002358","name":"勝利工廠大廈, 黃竹坑道","lat":"22.248392","long":"114.163149"},{"id":"002213","name":"香港真光書院, 利東邨道","lat":"22.241681","long":"114.157921"},{"id":"002210","name":"利東邨東興樓, 利東邨道","lat":"22.240554","long":"114.155387"},{"id":"002211","name":"利東街市, 利東邨道","lat":"22.241480","long":"114.154832"},{"id":"002167","name":"鴨脷洲徑, 鴨脷洲橋道","lat":"22.243437","long":"114.156530"},{"id":"002168","name":"利枝道, 鴨脷洲橋道","lat":"22.243013","long":"114.155003"},{"id":"002169","name":"御庭園, 鴨脷洲橋道","lat":"22.244095","long":"114.149699"},{"id":"002936","name":"海怡半島怡韻閣, 海怡路","lat":"22.243391","long":"114.146321"},{"id":"002263","name":"海怡半島海韻閣, 海怡路","lat":"22.244439","long":"114.147329"},{"id":"002171","name":"鴨脷洲邨, 鴨脷洲橋道","lat":"22.244050","long":"114.150659"},{"id":"002206","name":"鴨脷洲橋道遊樂場, 利南道","lat":"22.242833","long":"114.150558"},{"id":"002207","name":"凱玥, 利南道","lat":"22.239671","long":"114.149811"},{"id":"002208","name":"新海怡廣場, 利南道","lat":"22.238744","long":"114.152186"},{"id":"002202","name":"鴨脷洲 (利樂街)","lat":"22.237457","long":"114.153335"}],"routeId":"671","description":"正常班次"},{"company":"ctb","route":"671","routeType":null,"dir":"O","orig":"鴨脷洲 (利樂街)","dest":"鑽石山站","stopList":[{"id":"002202","name":"鴨脷洲 (利樂街)","lat":"22.237457","long":"114.153335"},{"id":"002203","name":"利景街, 利南道","lat":"22.238358","long":"114.152400"},{"id":"002205","name":"凱玥, 利南道","lat":"22.239642","long":"114.149756"},{"id":"002204","name":"蜆殼新鴨脷洲油庫, 利南道","lat":"22.241250","long":"114.148367"},{"id":"002262","name":"海怡半島美暉閣, 海怡路","lat":"22.243157","long":"114.147152"},{"id":"002263","name":"海怡半島海韻閣, 海怡路","lat":"22.244439","long":"114.147329"},{"id":"002170","name":"鴨脷洲邨利澤樓, 鴨脷洲橋道","lat":"22.244217","long":"114.149863"},{"id":"002172","name":"利枝道, 鴨脷洲橋道","lat":"22.243306","long":"114.155253"},{"id":"002173","name":"鴨脷洲徑, 鴨脷洲橋道","lat":"22.243627","long":"114.156538"},{"id":"002210","name":"利東邨東興樓, 利東邨道","lat":"22.240554","long":"114.155387"},{"id":"002211","name":"利東街市, 利東邨道","lat":"22.241480","long":"114.154832"},{"id":"002212","name":"漁安苑, 利東邨道","lat":"22.243032","long":"114.157827"},{"id":"002343","name":"香港仔工業學校, 黃竹坑道","lat":"22.248700","long":"114.162534"},{"id":"002383","name":"業興街, 黃竹坑道","lat":"22.249541","long":"114.168112"},{"id":"002347","name":"香港仔隧道巴士轉乘站","lat":"22.249961","long":"114.175855"},{"id":"002467","name":"立德里, 摩理臣山道","lat":"22.276064","long":"114.180208"},{"id":"002437","name":"灣仔消防局, 軒尼詩道","lat":"22.279687","long":"114.181788"},{"id":"002555","name":"銅鑼灣 - 百德新街, 怡和街","lat":"22.279935","long":"114.185585"},{"id":"001213","name":"維多利亞公園, 高士威道","lat":"22.281133","long":"114.190066"},{"id":"001259","name":"銀幕街, 英皇道","lat":"22.283616","long":"114.192460"},{"id":"001260","name":"七海商業中心, 英皇道","lat":"22.287743","long":"114.192966"},{"id":"001261","name":"電廠街, 英皇道","lat":"22.290057","long":"114.195058"},{"id":"001263","name":"書局街, 英皇道","lat":"22.291181","long":"114.199901"},{"id":"001264","name":"港運城, 英皇道","lat":"22.291704","long":"114.202490"},{"id":"001464","name":"東區海底隧道巴士轉乘站","lat":"22.301112","long":"114.233206"},{"id":"001522","name":"藍田站, 鯉魚門道","lat":"22.305529","long":"114.234133"},{"id":"001521","name":"觀塘法院, 鯉魚門道","lat":"22.309748","long":"114.229877"},{"id":"001739","name":"創紀之城, 觀塘道","lat":"22.313762","long":"114.222389"},{"id":"003233","name":"牛頭角站, 觀塘道","lat":"22.314658","long":"114.219965"},{"id":"001496","name":"定富街, 觀塘道","lat":"22.316093","long":"114.216299"},{"id":"001498","name":"牛頭角下邨, 觀塘道","lat":"22.320183","long":"114.214489"},{"id":"001500","name":"九龍灣站, 觀塘道","lat":"22.325551","long":"114.213938"},{"id":"001501","name":"啟泰苑, 觀塘道","lat":"22.328832","long":"114.211755"},{"id":"001525","name":"彩虹邨丹鳳樓, 龍翔道","lat":"22.335291","long":"114.207617"},{"id":"001472","name":"彩虹邨錦雲樓, 龍翔道","lat":"22.337152","long":"114.204518"},{"id":"001453","name":"大有街, 彩虹道","lat":"22.338772","long":"114.200119"},{"id":"001469","name":"鳳德商場, 鳳德道","lat":"22.343185","long":"114.200013"},{"id":"001526","name":"鑽石山站","lat":"22.340905","long":"114.201803"}],"routeId":"671","description":"正常班次"}]