[{"company":"kmb","route":"671","routeType":"1","dir":"O","orig":"鑽石山站","dest":"鴨脷洲(利樂街)","stopList":[{"id":"CC0EA05EEADFA481","name":"鑽石山站巴士總站","lat":"22.340852","long":"114.201635"},{"id":"6FB456AE4E4CFFD4","name":"龍蟠苑","lat":"22.342935","long":"114.200269"},{"id":"DFAA3371878CEED2","name":"新蒲崗四美街","lat":"22.338348","long":"114.201507"},{"id":"3BB1407BA61E0A9B","name":"彩虹轉車站 - 金碧樓 (L1)","lat":"22.335522","long":"114.204886"},{"id":"23AF5995FEBCA8E6","name":"啟業邨","lat":"22.330675","long":"114.210388"},{"id":"4BD5CE5106BB0697","name":"九龍灣站(東九文化中心)","lat":"22.325601","long":"114.214336"},{"id":"D530D698BC181839","name":"牛頭角下邨","lat":"22.321874","long":"114.214633"},{"id":"3E73B73B12E25DCF","name":"觀塘道休憩處","lat":"22.318039","long":"114.215032"},{"id":"A880D4A7E3310AEB","name":"創紀之城 (U7)","lat":"22.314630","long":"114.220789"},{"id":"EB177E95B39626AE","name":"觀塘轉車站 - 觀塘市中心 (T6)","lat":"22.313290","long":"114.224287"},{"id":"5AAC6A858427D04E","name":"觀塘游泳池 (R3)","lat":"22.310432","long":"114.229545"},{"id":"5BDD5F9F4C89D3E1","name":"藍田站","lat":"22.307106","long":"114.233517"},{"id":"E0558D2901ECC032","name":"東隧轉車站 (K1)","lat":"22.300400","long":"114.233560"},{"id":"4618B90F316901BB","name":"健威花園","lat":"22.291792","long":"114.203957"},{"id":"5EA1BB87DFD5CADB","name":"琴行街","lat":"22.291167","long":"114.200899"},{"id":"31748E8EF7377312","name":"美麗閣","lat":"22.290630","long":"114.198308"},{"id":"3B604DDE85F00A7B","name":"新時代廣場","lat":"22.289699","long":"114.195002"},{"id":"5B0682EF0C8397A2","name":"清風街天橋","lat":"22.286387","long":"114.193069"},{"id":"388C3DB16F0F2719","name":"景隆街","lat":"22.281661","long":"114.182689"},{"id":"719B6A48C203AFBA","name":"香港仔隧道","lat":"22.249737","long":"114.175302"},{"id":"4BF5A563B95D2F42","name":"黃竹坑遊樂場","lat":"22.250307","long":"114.170477"},{"id":"9AD628EDE1178D24","name":"黃竹坑業興街","lat":"22.249172","long":"114.167885"},{"id":"3147FEC6D6DC535A","name":"勝利工廠大廈","lat":"22.248388","long":"114.162899"},{"id":"4830E097480D3AD6","name":"香港真光書院","lat":"22.241765","long":"114.157937"},{"id":"EE1C91F3EDCEBB7E","name":"東興樓","lat":"22.240597","long":"114.155756"},{"id":"277B784B9369F9E1","name":"利東街市","lat":"22.241668","long":"114.154800"},{"id":"85363AEF68CB6277","name":"鴨脷洲徑","lat":"22.243378","long":"114.156939"},{"id":"5A7CD7DCB08F92C2","name":"利枝道","lat":"22.243062","long":"114.155087"},{"id":"ED29F1957E0D38EC","name":"御庭園","lat":"22.244029","long":"114.149803"},{"id":"A082B0B376063B20","name":"怡韻閣","lat":"22.243103","long":"114.147506"},{"id":"579FD884D6371179","name":"海韻閣","lat":"22.244474","long":"114.146993"},{"id":"B1150B18848D0598","name":"鴨脷洲邨總站","lat":"22.244073","long":"114.150597"},{"id":"3332ED875BCFFB7C","name":"御庭園","lat":"22.242908","long":"114.150584"},{"id":"1EE34E904F2AEC25","name":"污水處理廠","lat":"22.239683","long":"114.149713"},{"id":"1A213BD9F2753CDE","name":"新海怡廣場","lat":"22.238917","long":"114.152044"},{"id":"FBBA97AE1E9F4B53","name":"鴨脷洲利樂街巴士總站","lat":"22.237532","long":"114.153685"}],"routeId":"671","description":"正常班次"},{"company":"kmb","route":"671","routeType":"1","dir":"I","orig":"鴨脷洲(利樂街)","dest":"鑽石山站","stopList":[{"id":"FBBA97AE1E9F4B53","name":"鴨脷洲利樂街巴士總站","lat":"22.237532","long":"114.153685"},{"id":"7F3F90F0B2C4306B","name":"利景街","lat":"22.238099","long":"114.152694"},{"id":"05E2DF7FFDEA4F9A","name":"污水處理廠","lat":"22.239621","long":"114.149667"},{"id":"90268774329160D9","name":"怡南路","lat":"22.240688","long":"114.148213"},{"id":"96BA48FFCBDB7791","name":"美暉閣","lat":"22.243021","long":"114.147593"},{"id":"2208DE69AD7B38DA","name":"海韻閣","lat":"22.244477","long":"114.146951"},{"id":"C355E5F825B9864F","name":"利澤樓","lat":"22.244247","long":"114.149802"},{"id":"38B4D64E5D9DA9AB","name":"利枝道","lat":"22.243189","long":"114.155145"},{"id":"7C27E54D8AEC683A","name":"鴨脷洲徑","lat":"22.243649","long":"114.156784"},{"id":"659365A8AB2B98E9","name":"利東邨東興樓","lat":"22.240598","long":"114.155559"},{"id":"3227505D6CDA32C9","name":"利東街市","lat":"22.241612","long":"114.154802"},{"id":"7906D320A27CAD88","name":"漁安苑","lat":"22.243011","long":"114.157825"},{"id":"EC839AE65935149B","name":"香港仔工業學校","lat":"22.248699","long":"114.162511"},{"id":"AE4E8F82AD65348C","name":"黃竹坑業興街","lat":"22.249669","long":"114.168177"},{"id":"225E8FAE869B3308","name":"香港仔隧道","lat":"22.250048","long":"114.176065"},{"id":"86B81946F9FA57FB","name":"立德里","lat":"22.276210","long":"114.180209"},{"id":"A07CC0A6D462A579","name":"灣仔消防局","lat":"22.279790","long":"114.181986"},{"id":"4EE6F43CF8D6217D","name":"百德新街","lat":"22.280005","long":"114.185477"},{"id":"9541036143D6CCF1","name":"維多利亞公園","lat":"22.281144","long":"114.190058"},{"id":"1A0BCDF4BDC3E1A9","name":"銀幕街","lat":"22.283562","long":"114.192415"},{"id":"A4EBD881BA65C831","name":"七海商業中心","lat":"22.287699","long":"114.192943"},{"id":"05C0C27B083F2C00","name":"電廠街","lat":"22.289997","long":"114.195036"},{"id":"322A5914FD96DE4B","name":"書局街","lat":"22.291222","long":"114.200013"},{"id":"33D2B3AB9D2CCDF3","name":"港運城","lat":"22.291733","long":"114.202568"},{"id":"D678B3364437D16B","name":"東隧轉車站 (L1)","lat":"22.301070","long":"114.232925"},{"id":"2EF9764BE18FC290","name":"藍田站","lat":"22.305354","long":"114.234128"},{"id":"25F3EF8ACD865DFB","name":"觀塘法院 (F4)","lat":"22.309933","long":"114.229647"},{"id":"FDFA7692A141612F","name":"觀塘轉車站 - 創紀之城 (B10)","lat":"22.313721","long":"114.222607"},{"id":"83BB162ED5F1355F","name":"觀塘轉車站 - 牛頭角站 (A1)","lat":"22.314726","long":"114.219673"},{"id":"7380707A36C032B9","name":"觀塘定富街","lat":"22.316142","long":"114.216218"},{"id":"60D0B9706B352D1C","name":"牛頭角下邨","lat":"22.319024","long":"114.214661"},{"id":"8570495BD7C63C02","name":"九龍灣站","lat":"22.324805","long":"114.214033"},{"id":"F374B56E275194D8","name":"啟泰苑","lat":"22.328563","long":"114.212227"},{"id":"F6512E7C4A6D5C2E","name":"牛池灣轉車站 - 丹鳳樓 (J1)","lat":"22.335233","long":"114.207616"},{"id":"9AC3AFC5216B9711","name":"彩虹轉車站 - 錦雲樓 (P1)","lat":"22.337382","long":"114.204795"},{"id":"7ABFD50CAA98A9D1","name":"新蒲崗大有街","lat":"22.338670","long":"114.200042"},{"id":"A0FDF34B2D278750","name":"鳳德商場","lat":"22.343311","long":"114.199551"},{"id":"CC0EA05EEADFA481","name":"鑽石山站巴士總站","lat":"22.340852","long":"114.201635"}],"routeId":"671","description":"正常班次"},{"company":"ctb","route":"671","routeType":null,"dir":"I","orig":"鑽石山站","dest":"鴨脷洲 (利樂街)","stopList":[{"id":"001526","name":"鑽石山站","lat":"22.341030632091","long":"114.20154573053"},{"id":"001470","name":"龍蟠苑, 鳳德道","lat":"22.342869822091","long":"114.20064903053"},{"id":"001452","name":"四美街, 彩虹道","lat":"22.338858572091","long":"114.20021569053"},{"id":"001448","name":"彩虹邨金碧樓, 彩虹邨通道","lat":"22.335157802091","long":"114.20498066053"},{"id":"001504","name":"啟業邨, 觀塘道","lat":"22.330616082091","long":"114.21034329053"},{"id":"001505","name":"九龍灣站, 觀塘道","lat":"22.325498272091","long":"114.21429538053"},{"id":"001506","name":"牛頭角下邨, 觀塘道","lat":"22.321454812091","long":"114.21463179053"},{"id":"001797","name":"觀塘道休憩處, 觀塘道","lat":"22.318072952091","long":"114.21503387053"},{"id":"003458","name":"創紀之城, 觀塘道","lat":"22.314560622091","long":"114.22091911053"},{"id":"001509","name":"觀塘市中心, 觀塘道","lat":"22.313441392091","long":"114.22397362053"},{"id":"001518","name":"觀塘游泳池, 鯉魚門道","lat":"22.310380582091","long":"114.22952246053"},{"id":"001519","name":"藍田站","lat":"22.307091882091","long":"114.23347123053"},{"id":"001463","name":"東區海底隧道巴士轉乘站","lat":"22.300498232091","long":"114.23351297053"},{"id":"001277","name":"健威花園, 英皇道","lat":"22.291810122091","long":"114.20389006053"},{"id":"001279","name":"琴行街, 英皇道","lat":"22.291204122091","long":"114.20095851053"},{"id":"001281","name":"美麗閣, 英皇道","lat":"22.290567652091","long":"114.19788360053"},{"id":"001282","name":"新時代廣場, 英皇道","lat":"22.289909792091","long":"114.19515688053"},{"id":"001285","name":"清風街天橋, 英皇道","lat":"22.286174722091","long":"114.19303544053"},{"id":"002414","name":"景隆街, 告士打道","lat":"22.281732142091","long":"114.18280892053"},{"id":"002348","name":"香港仔隧道巴士轉乘站","lat":"22.249770482091","long":"114.17533612053"},{"id":"002355","name":"黃竹坑遊樂場, 黃竹坑道","lat":"22.250122902091","long":"114.16985106053"},{"id":"002356","name":"業興街, 黃竹坑道","lat":"22.249175622091","long":"114.16779618053"},{"id":"002358","name":"勝利工廠大廈, 黃竹坑道","lat":"22.248392422091","long":"114.16314899053"},{"id":"002213","name":"香港真光書院, 利東邨道","lat":"22.241680522091","long":"114.15792123053"},{"id":"002210","name":"利東邨東興樓, 利東邨道","lat":"22.240572052091","long":"114.15491479053"},{"id":"002211","name":"利東街市, 利東邨道","lat":"22.241479512091","long":"114.15483183053"},{"id":"002167","name":"鴨脷洲徑, 鴨脷洲橋道","lat":"22.243437112091","long":"114.15652985053"},{"id":"002168","name":"利枝道, 鴨脷洲橋道","lat":"22.243012942091","long":"114.15500259053"},{"id":"002169","name":"御庭園, 鴨脷洲橋道","lat":"22.244095462091","long":"114.14969945053"},{"id":"002936","name":"海怡半島怡韻閣, 海怡路","lat":"22.243391432091","long":"114.14632115053"},{"id":"002263","name":"海怡半島海韻閣, 海怡路","lat":"22.244439312091","long":"114.14732855053"},{"id":"002171","name":"鴨脷洲邨, 鴨脷洲橋道","lat":"22.244050472091","long":"114.15065886053"},{"id":"002206","name":"鴨脷洲橋道遊樂場, 利南道","lat":"22.242660822091","long":"114.15030606053"},{"id":"002207","name":"凱玥, 利南道","lat":"22.239670772091","long":"114.14981125053"},{"id":"002208","name":"新海怡廣場, 利南道","lat":"22.238743852091","long":"114.15218617053"},{"id":"002202","name":"鴨脷洲 (利樂街)","lat":"22.237456962091","long":"114.15333495053"}],"routeId":"671","description":"正常班次"},{"company":"ctb","route":"671","routeType":null,"dir":"O","orig":"鴨脷洲 (利樂街)","dest":"鑽石山站","stopList":[{"id":"002202","name":"鴨脷洲 (利樂街)","lat":"22.237456962091","long":"114.15333495053"},{"id":"002203","name":"利景街, 利南道","lat":"22.238357942091","long":"114.15239993053"},{"id":"002205","name":"凱玥, 利南道","lat":"22.239641852091","long":"114.14975594053"},{"id":"002204","name":"蜆殼新鴨脷洲油庫, 利南道","lat":"22.241250482091","long":"114.14836660053"},{"id":"002262","name":"海怡半島美暉閣, 海怡路","lat":"22.243157002091","long":"114.14715151053"},{"id":"002263","name":"海怡半島海韻閣, 海怡路","lat":"22.244439312091","long":"114.14732855053"},{"id":"002170","name":"鴨脷洲邨利澤樓, 鴨脷洲橋道","lat":"22.244216852091","long":"114.14986319053"},{"id":"002172","name":"利枝道, 鴨脷洲橋道","lat":"22.243305822091","long":"114.15525315053"},{"id":"002173","name":"鴨脷洲徑, 鴨脷洲橋道","lat":"22.243626692091","long":"114.15653776053"},{"id":"002210","name":"利東邨東興樓, 利東邨道","lat":"22.240572052091","long":"114.15491479053"},{"id":"002211","name":"利東街市, 利東邨道","lat":"22.241479512091","long":"114.15483183053"},{"id":"002212","name":"漁安苑, 利東邨道","lat":"22.243031932091","long":"114.15782740053"},{"id":"002343","name":"香港仔工業學校, 黃竹坑道","lat":"22.248699582091","long":"114.16253441053"},{"id":"002383","name":"業興街, 黃竹坑道","lat":"22.249540662091","long":"114.16811154053"},{"id":"002347","name":"香港仔隧道巴士轉乘站","lat":"22.249960892091","long":"114.17585543053"},{"id":"002467","name":"立德里, 摩理臣山道","lat":"22.276064312091","long":"114.18020849053"},{"id":"002437","name":"灣仔消防局, 軒尼詩道","lat":"22.279686862091","long":"114.18178779053"},{"id":"002555","name":"銅鑼灣 - 百德新街, 怡和街","lat":"22.279935442091","long":"114.18558549053"},{"id":"001213","name":"維多利亞公園, 高士威道","lat":"22.281133262091","long":"114.19006592053"},{"id":"001259","name":"銀幕街, 英皇道","lat":"22.283615512091","long":"114.19246041053"},{"id":"001260","name":"七海商業中心, 英皇道","lat":"22.287742812091","long":"114.19296558053"},{"id":"001261","name":"電廠街, 英皇道","lat":"22.290056622091","long":"114.19505769053"},{"id":"001263","name":"書局街, 英皇道","lat":"22.291180532091","long":"114.19990139053"},{"id":"001264","name":"港運城, 英皇道","lat":"22.291703622091","long":"114.20248986053"},{"id":"001464","name":"東區海底隧道巴士轉乘站","lat":"22.301112152091","long":"114.23320554053"},{"id":"001522","name":"藍田站, 鯉魚門道","lat":"22.305529462091","long":"114.23413329053"},{"id":"001521","name":"觀塘法院, 鯉魚門道","lat":"22.309748242091","long":"114.22987703053"},{"id":"001739","name":"創紀之城, 觀塘道","lat":"22.313762022091","long":"114.22238881053"},{"id":"003233","name":"牛頭角站, 觀塘道","lat":"22.314658252091","long":"114.21996487053"},{"id":"001496","name":"定富街, 觀塘道","lat":"22.316092622091","long":"114.21629897053"},{"id":"001498","name":"牛頭角下邨, 觀塘道","lat":"22.320182512091","long":"114.21448890053"},{"id":"001500","name":"九龍灣站, 觀塘道","lat":"22.325551032091","long":"114.21393835053"},{"id":"001501","name":"啟泰苑, 觀塘道","lat":"22.328831762091","long":"114.21175486053"},{"id":"001525","name":"彩虹邨丹鳳樓, 龍翔道","lat":"22.335290892091","long":"114.20761701053"},{"id":"001472","name":"彩虹邨錦雲樓, 龍翔道","lat":"22.337151872091","long":"114.20451787053"},{"id":"001453","name":"大有街, 彩虹道","lat":"22.338771722091","long":"114.20011940053"},{"id":"001469","name":"鳳德商場, 鳳德道","lat":"22.343185252091","long":"114.20001329053"},{"id":"001526","name":"鑽石山站","lat":"22.341030632091","long":"114.20154573053"}],"routeId":"671","description":"正常班次"}]