[{"company":"kmb","route":"680B","routeType":"1","dir":"O","orig":"富安花園","dest":"金鐘站(東)","stopList":[{"id":"46F034381CE08F9C","name":"富安花園巴士總站","lat":"22.405742","long":"114.224139"},{"id":"25FB047753EFD115","name":"恆輝街","lat":"22.414810","long":"114.224406"},{"id":"6B46C7E695EF21CF","name":"欣安邨","lat":"22.415305","long":"114.226294"},{"id":"FFBEBD7068E01EA4","name":"大老山隧道 (A1)","lat":"22.377571","long":"114.212260"},{"id":"9535298A652873DB","name":"東隧轉車站 (K1)","lat":"22.300285","long":"114.233264"},{"id":"B71025EB663E736F","name":"港運城","lat":"22.291395","long":"114.202081"},{"id":"8D05916401FE8BCB","name":"美麗閣","lat":"22.290652","long":"114.198441"},{"id":"3F3DBD185AC10BBE","name":"炮台山站","lat":"22.288182","long":"114.193624"},{"id":"29BF740504C5EEB6","name":"清風街","lat":"22.284865","long":"114.193037"},{"id":"1C36A07970C8909A","name":"中央圖書館","lat":"22.280906","long":"114.190221"},{"id":"9F72AC7E3C3CE65C","name":"加路連山道","lat":"22.277608","long":"114.186006"},{"id":"85342AE6060B2214","name":"禮頓中心","lat":"22.277424","long":"114.183140"},{"id":"265B143AC892EE78","name":"北海中心","lat":"22.278332","long":"114.178530"},{"id":"B65DB5330193E38E","name":"軒尼詩道官立小學","lat":"22.277752","long":"114.175652"},{"id":"D15281453EE5E0B4","name":"菲林明道","lat":"22.277543","long":"114.173776"},{"id":"A0934516C3FE8D29","name":"盧押道","lat":"22.278420","long":"114.171585"},{"id":"D2F2B3C5436007C2","name":"海富中心","lat":"22.279408","long":"114.165369"},{"id":"8F5D8F5379BAD19C","name":"金鐘(東)總站","lat":"22.278511","long":"114.165291"}],"routeId":"680B","description":"正常班次"},{"company":"ctb","route":"680B","routeType":null,"dir":"O","orig":"馬鞍山 (富安花園)","dest":"金鐘 (東)","stopList":[{"id":"002027","name":"富安花園","lat":"22.405527372091","long":"114.22402729053"},{"id":"003371","name":"恆輝街, 西沙路","lat":"22.414621382091","long":"114.22436919053"},{"id":"003348","name":"欣安邨, 恆輝街","lat":"22.414978362091","long":"114.22693467053"},{"id":"001986","name":"大老山隧道收費廣場","lat":"22.377148882091","long":"114.21256572053"},{"id":"001463","name":"東區海底隧道收費廣場","lat":"22.300498232091","long":"114.23351297053"},{"id":"001278","name":"港運城, 英皇道","lat":"22.291505782091","long":"114.20241339053"},{"id":"001281","name":"美麗閣, 英皇道","lat":"22.290567652091","long":"114.19788360053"},{"id":"001283","name":"炮台山站, 英皇道","lat":"22.288146742091","long":"114.19355472053"},{"id":"001286","name":"清風街, 英皇道","lat":"22.284713662091","long":"114.19291666053"},{"id":"001215","name":"香港中央圖書館, 高士威道","lat":"22.280082042091","long":"114.18887826053"},{"id":"002457","name":"加路連山道, 禮頓道","lat":"22.277432082091","long":"114.18577553053"},{"id":"002567","name":"禮頓中心, 禮頓道","lat":"22.277364802091","long":"114.18298954053"},{"id":"002442","name":"北海中心, 軒尼詩道","lat":"22.278327962091","long":"114.17845458053"},{"id":"002444","name":"軒尼詩道官立小學, 軒尼詩道","lat":"22.277744552091","long":"114.17543474053"},{"id":"002445","name":"菲林明道, 軒尼詩道","lat":"22.277602072091","long":"114.17407242053"},{"id":"002459","name":"盧押道","lat":"22.278430822091","long":"114.17162290053"},{"id":"001074","name":"海富中心, 夏慤道","lat":"22.279523082091","long":"114.16514437053"},{"id":"001138","name":"金鐘站","lat":"22.278641252091","long":"114.16563501053"}],"routeId":"680B","description":"正常班次"}]