[{"company":"kmb","route":"681","routeType":"1","dir":"O","orig":"中環(香港站)","dest":"馬鞍山市中心","stopList":[{"id":"A81CBBDC8206A166","name":"中環(香港站)總站","lat":"22.286179","long":"114.156633"},{"id":"FA8CD68ED6042BE2","name":"國際金融中心商場","lat":"22.285610","long":"114.157329"},{"id":"E51DA37997BE59A8","name":"交易廣場巴士總站","lat":"22.284065","long":"114.157710"},{"id":"CDA6257743B1D479","name":"大會堂","lat":"22.281882","long":"114.161646"},{"id":"3007D34FB91FB27E","name":"金鐘站","lat":"22.278270","long":"114.165080"},{"id":"1AB934EFE0E1470A","name":"軍器廠街","lat":"22.277881","long":"114.169013"},{"id":"1B5E6822783B914B","name":"柯布連道","lat":"22.277689","long":"114.172687"},{"id":"638FE52F0D97B5FC","name":"史釗域道","lat":"22.278254","long":"114.177404"},{"id":"A07CC0A6D462A579","name":"灣仔消防局","lat":"22.279790","long":"114.181986"},{"id":"9E25CF3DAA0BA0C4","name":"百德新街","lat":"22.280083","long":"114.185239"},{"id":"9541036143D6CCF1","name":"維多利亞公園","lat":"22.281144","long":"114.190058"},{"id":"DDEB0396969D004B","name":"興發街","lat":"22.283420","long":"114.191215"},{"id":"991E47DBD416B908","name":"東隧轉車站 (LT100)","lat":"22.300972","long":"114.232741"},{"id":"C57C924EEB5463E5","name":"大老山隧道 (B2) (ST112)","lat":"22.376800","long":"114.211883"},{"id":"E27820FF0AF73D52","name":"錦駿苑 (MA110)","lat":"22.411915","long":"114.224178"},{"id":"6F5592E4FF8A35E8","name":"耀安邨 (MA125)","lat":"22.419624","long":"114.229192"},{"id":"5E073AD8BC9F2AC8","name":"馬鞍山運動場 (MA127)","lat":"22.421847","long":"114.228372"},{"id":"B31E6B9D8E5B4493","name":"福安花園 (MA155)","lat":"22.423627","long":"114.228332"},{"id":"0D0D7E774E1C1575","name":"馬鞍山公園 (MA170)","lat":"22.425937","long":"114.230765"},{"id":"7005EE5654387B8A","name":"馬鞍山市中心總站 (落客站)","lat":"22.424211","long":"114.231614"}],"routeId":"681","description":"正常班次"},{"company":"kmb","route":"681","routeType":"1","dir":"I","orig":"馬鞍山市中心","dest":"中環(香港站)","stopList":[{"id":"BA6D9F93E62B8075","name":"馬鞍山市中心總站 (MA954)","lat":"22.424406","long":"114.231554"},{"id":"1D6A8B8C58C268FF","name":"馬鞍山運動場 (MA371)","lat":"22.422151","long":"114.228420"},{"id":"F86BDB236D6ACDC3","name":"耀安邨耀謙樓 (MA379)","lat":"22.418124","long":"114.230662"},{"id":"664BAA2EA12B80B1","name":"錦駿苑 (MA186)","lat":"22.413265","long":"114.226888"},{"id":"FFBEBD7068E01EA4","name":"大老山隧道 (A1) (ST792)","lat":"22.377571","long":"114.212260"},{"id":"DBF0C952CAA654B5","name":"東隧轉車站 (LT410)","lat":"22.300533","long":"114.233650"},{"id":"182976403F291FE0","name":"國際調解院","lat":"22.279390","long":"114.175398"},{"id":"82F385AE99820D83","name":"盧押道","lat":"22.279005","long":"114.172291"},{"id":"B4BC12D061EC853E","name":"循道衛理大廈","lat":"22.277545","long":"114.170128"},{"id":"6ACA5143BB7C496B","name":"高等法院","lat":"22.278480","long":"114.163697"},{"id":"A95174A6FE24B3A6","name":"長江集團中心","lat":"22.279883","long":"114.159311"},{"id":"F91F9405B5B06039","name":"畢打街","lat":"22.281924","long":"114.157433"},{"id":"EA4BD96DD55D585C","name":"香港站","lat":"22.284930","long":"114.158454"},{"id":"A81CBBDC8206A166","name":"中環(香港站)總站","lat":"22.286179","long":"114.156633"}],"routeId":"681","description":"正常班次"},{"company":"ctb","route":"681","routeType":null,"dir":"I","orig":"馬鞍山市中心","dest":"中環 (香港站)","stopList":[{"id":"001950","name":"馬鞍山市中心","lat":"22.424135","long":"114.231693"},{"id":"001914","name":"馬鞍山運動場, 恆康街","lat":"22.421916","long":"114.228729"},{"id":"001915","name":"耀安邨耀謙樓, 恆康街","lat":"22.418047","long":"114.230700"},{"id":"003851","name":"錦駿苑, 馬鞍山路","lat":"22.413317","long":"114.226882"},{"id":"001986","name":"大老山隧道巴士轉乘站","lat":"22.377149","long":"114.212566"},{"id":"001463","name":"東區海底隧道巴士轉乘站","lat":"22.300498","long":"114.233513"},{"id":"002417","name":"國際調解院, 告士打道","lat":"22.279365","long":"114.175022"},{"id":"002419","name":"六國酒店, 告士打道","lat":"22.279008","long":"114.172331"},{"id":"002448","name":"循道衛理大廈, 軒尼詩道","lat":"22.277588","long":"114.169814"},{"id":"001141","name":"金鐘 - 高等法院, 金鐘道","lat":"22.278414","long":"114.163873"},{"id":"002596","name":"長江集團中心, 皇后大道中","lat":"22.279864","long":"114.159925"},{"id":"001106","name":"畢打街","lat":"22.281824","long":"114.157381"},{"id":"001178","name":"香港站, 民祥街","lat":"22.285206","long":"114.157612"},{"id":"001196","name":"香港站","lat":"22.286284","long":"114.156490"}],"routeId":"681","description":"正常班次"},{"company":"ctb","route":"681","routeType":null,"dir":"O","orig":"中環 (香港站)","dest":"馬鞍山市中心","stopList":[{"id":"001196","name":"香港站","lat":"22.286284","long":"114.156490"},{"id":"001176","name":"國際金融中心商場, 民祥街","lat":"22.285071","long":"114.158577"},{"id":"001032","name":"中環 (交易廣場)","lat":"22.283696","long":"114.158033"},{"id":"001031","name":"大會堂, 干諾道中","lat":"22.281868","long":"114.161532"},{"id":"001137","name":"金鐘 - 統一中心, 金鐘道","lat":"22.278349","long":"114.164939"},{"id":"002427","name":"軍器廠街, 軒尼詩道","lat":"22.277849","long":"114.168945"},{"id":"002431","name":"柯布連道, 軒尼詩道","lat":"22.277694","long":"114.173130"},{"id":"002572","name":"史釗域道, 軒尼詩道","lat":"22.278204","long":"114.177342"},{"id":"002437","name":"灣仔消防局, 軒尼詩道","lat":"22.279687","long":"114.181788"},{"id":"002555","name":"銅鑼灣 - 百德新街, 怡和街","lat":"22.279935","long":"114.185585"},{"id":"001213","name":"維多利亞公園, 高士威道","lat":"22.281133","long":"114.190066"},{"id":"001251","name":"興發街","lat":"22.283574","long":"114.191093"},{"id":"001464","name":"東區海底隧道巴士轉乘站","lat":"22.301112","long":"114.233206"},{"id":"001985","name":"大老山隧道巴士轉乘站","lat":"22.376911","long":"114.211789"},{"id":"003850","name":"錦駿苑, 馬鞍山路","lat":"22.411839","long":"114.224100"},{"id":"001916","name":"耀安邨, 恆康街","lat":"22.419497","long":"114.229150"},{"id":"001917","name":"馬鞍山運動場, 恆康街","lat":"22.421804","long":"114.228505"},{"id":"001949","name":"福安花園, 西沙路","lat":"22.423505","long":"114.228216"},{"id":"001944","name":"馬鞍山公園, 鞍駿街","lat":"22.426072","long":"114.231535"},{"id":"001950","name":"馬鞍山市中心","lat":"22.424135","long":"114.231693"}],"routeId":"681","description":"正常班次"}]