[{"company":"kmb","route":"68M","routeType":"1","dir":"O","orig":"荃灣站","dest":"元朗(西)","stopList":[{"id":"BAE59C318B0E0C63","name":"荃灣站巴士總站 (TW914)","lat":"22.373806","long":"114.116447"},{"id":"36C3B12BD3112CCB","name":"福來邨永康樓 (TW152)","lat":"22.374590","long":"114.113206"},{"id":"A68A34F71D94FF13","name":"荃景圍天橋 (TW153)","lat":"22.375480","long":"114.108839"},{"id":"E55FA660A59AB64A","name":"大欖隧道轉車站 (B5) (YL232)","lat":"22.420344","long":"114.063524"},{"id":"52241C2AEB38627B","name":"大欖隧道轉車站 (B2) (YL235)","lat":"22.421143","long":"114.063778"},{"id":"6A4B371546D489BF","name":"形點 I (YL242)","lat":"22.444324","long":"114.035984"},{"id":"AC935792C88AF135","name":"元朗又新街 (YL249)","lat":"22.444300","long":"114.030811"},{"id":"43E5D3A445382F82","name":"元朗大棠路 (YL252)","lat":"22.444344","long":"114.028219"},{"id":"E62FE9EC6A0D8E35","name":"元朗（西）總站 (YL947)","lat":"22.445524","long":"114.024917"}],"routeId":"68M","description":"正常班次"},{"company":"kmb","route":"68M","routeType":"1","dir":"I","orig":"元朗(西)","dest":"荃灣站","stopList":[{"id":"E62FE9EC6A0D8E35","name":"元朗（西）總站 (YL947)","lat":"22.445524","long":"114.024917"},{"id":"2FB355A2C89B7922","name":"元朗同樂街 (YL368)","lat":"22.444569","long":"114.027507"},{"id":"FEE97828AB584E76","name":"元朗谷亭街 (YL377)","lat":"22.444575","long":"114.031020"},{"id":"5CE91F113D08B843","name":"形點 II (YL394)","lat":"22.446660","long":"114.035043"},{"id":"AB0F79ED382081D0","name":"形點 I (YL404)","lat":"22.445065","long":"114.036445"},{"id":"3ECEF3B735084236","name":"大欖隧道轉車站 (A5) (YL791)","lat":"22.420685","long":"114.064379"},{"id":"7E2E1F1269E520DE","name":"大欖隧道轉車站 (A4) (YL792)","lat":"22.420094","long":"114.064395"},{"id":"D893FD9E88E2A98D","name":"荃景圍天橋 (TW376)","lat":"22.375764","long":"114.107846"},{"id":"81C7DC25FD107DD2","name":"愉景新城 (TW381)","lat":"22.375033","long":"114.112864"},{"id":"BAE59C318B0E0C63","name":"荃灣站巴士總站 (TW914)","lat":"22.373806","long":"114.116447"}],"routeId":"68M","description":"正常班次"}]