[{"company":"kmb","route":"690S","routeType":"1","dir":"O","orig":"坑口(明德邨)","dest":"中環(交易廣場)","stopList":[{"id":"5016E25156D72ADA","name":"明德邨 (TK426)","lat":"22.317431","long":"114.268914"},{"id":"AF2DB48410CC6EC3","name":"重華路 東港城 (TK233)","lat":"22.316922","long":"114.265966"},{"id":"54FCA9F5D8F3587E","name":"銀澳路 (TK240)","lat":"22.314696","long":"114.266582"},{"id":"4E7C1C7F6D191BCB","name":"蓬萊路 (TK300)","lat":"22.308372","long":"114.267883"},{"id":"815BC43527FD9247","name":"百勝角 (TK301)","lat":"22.301733","long":"114.272574"},{"id":"E51AC47DDDA21250","name":"康城站 (TK920)","lat":"22.296239","long":"114.268098"},{"id":"B3F2EC8E42FA3184","name":"峻瀅 日出康城 (TK302)","lat":"22.297382","long":"114.272496"},{"id":"2307DECBF51E9D7F","name":"日出康城領凱 (TK303)","lat":"22.294404","long":"114.273728"},{"id":"E3DF87A934DC95EE","name":"日出康城晉海 (TK330)","lat":"22.291917","long":"114.272205"},{"id":"182976403F291FE0","name":"舊灣仔警署","lat":"22.279390","long":"114.175398"},{"id":"B8760F28D7938609","name":"分域街","lat":"22.279154","long":"114.170943"},{"id":"3225E407F87D904C","name":"海富中心","lat":"22.279438","long":"114.165264"},{"id":"A95174A6FE24B3A6","name":"長江集團中心","lat":"22.279883","long":"114.159311"},{"id":"F91F9405B5B06039","name":"畢打街","lat":"22.281924","long":"114.157433"},{"id":"8CD39F19DD49D504","name":"交易廣場巴士總站","lat":"22.284060","long":"114.157680"}],"routeId":"690S","description":"正常班次"},{"company":"kmb","route":"690S","routeType":"1","dir":"I","orig":"中環(交易廣場)","dest":"坑口","stopList":[{"id":"8CD39F19DD49D504","name":"交易廣場巴士總站","lat":"22.284060","long":"114.157680"},{"id":"228D031FB197691F","name":"域多利皇后街","lat":"22.284333","long":"114.156723"},{"id":"5298A15B8CCAEF42","name":"德忌利士街","lat":"22.283274","long":"114.156906"},{"id":"A9069A17B1474D76","name":"皇后像廣場","lat":"22.280854","long":"114.159427"},{"id":"3007D34FB91FB27E","name":"金鐘站","lat":"22.278270","long":"114.165080"},{"id":"255401DABB64289D","name":"盧押道","lat":"22.277721","long":"114.171104"},{"id":"16CE9E8D17681839","name":"菲林明道","lat":"22.277778","long":"114.173601"},{"id":"A71457854D13E9DE","name":"史釗域道","lat":"22.278055","long":"114.176009"},{"id":"2B9DA1FE14596F2E","name":"杜老誌道","lat":"22.278543","long":"114.178441"},{"id":"A07CC0A6D462A579","name":"灣仔消防局","lat":"22.279790","long":"114.181986"},{"id":"4EE6F43CF8D6217D","name":"百德新街","lat":"22.280005","long":"114.185477"},{"id":"9541036143D6CCF1","name":"維多利亞公園","lat":"22.281144","long":"114.190058"},{"id":"DDEB0396969D004B","name":"興發街","lat":"22.283420","long":"114.191215"},{"id":"E8149C288DA7DF33","name":"日出康城晉海 (TK520)","lat":"22.292169","long":"114.272190"},{"id":"07142A6203E50A47","name":"日出康城領都 (TK532)","lat":"22.294281","long":"114.273380"},{"id":"E92E009DE3307F85","name":"日出康城首都 (TK534)","lat":"22.296677","long":"114.272726"},{"id":"E51AC47DDDA21250","name":"康城站 (TK920)","lat":"22.296239","long":"114.268098"},{"id":"0A1D83D50B49933D","name":"百勝角 (TK535)","lat":"22.303500","long":"114.271368"},{"id":"38A37564B3F3CACF","name":"清水灣半島 (TK536)","lat":"22.307888","long":"114.267895"},{"id":"6C3F6AF77695CAE9","name":"銀澳路 新寶城 (TK390)","lat":"22.314326","long":"114.266633"},{"id":"D732B7AE560F7326","name":"培成路 南豐廣場 (TK253)","lat":"22.315254","long":"114.263931"},{"id":"99A3DFDBDF41F0E9","name":"富寧花園 (TK217)","lat":"22.318567","long":"114.267833"}],"routeId":"690S","description":"正常班次"},{"company":"ctb","route":"690S","routeType":null,"dir":"I","orig":"坑口 (經:日出康城)","dest":"中環 (交易廣場)","stopList":[{"id":"002910","name":"明德邨, 寶寧路","lat":"22.317519292091","long":"114.26881290053"},{"id":"001727","name":"重華路","lat":"22.316936322091","long":"114.26586361053"},{"id":"001754","name":"煜明苑, 銀澳路","lat":"22.314668952091","long":"114.26653774053"},{"id":"003160","name":"蓬萊路, 環保大道","lat":"22.308323742091","long":"114.26794468053"},{"id":"003225","name":"邵氏影城, 環保大道","lat":"22.301638722091","long":"114.27241311053"},{"id":"003329","name":"日出康城","lat":"22.295872872091","long":"114.26836001053"},{"id":"002919","name":"峻瀅, 環保大道","lat":"22.297406192091","long":"114.27252052053"},{"id":"002920","name":"MEGA Plus 數據中心, 環保大道","lat":"22.295046272091","long":"114.27357326053"},{"id":"003785","name":"日出康城晉海, 環澳路","lat":"22.291945652091","long":"114.27221086053"},{"id":"002417","name":"舊灣仔警署, 告士打道","lat":"22.279365262091","long":"114.17502194053"},{"id":"002421","name":"分域街, 告士打道","lat":"22.279171322091","long":"114.17096442053"},{"id":"001074","name":"金鐘 - 海富中心, 夏慤道","lat":"22.279523082091","long":"114.16514437053"},{"id":"002596","name":"長江集團中心, 皇后大道中","lat":"22.279863942091","long":"114.15992504053"},{"id":"001106","name":"畢打街","lat":"22.281823852091","long":"114.15738082053"},{"id":"001032","name":"中環 (交易廣場)","lat":"22.283695952091","long":"114.15803274053"}],"routeId":"690S","description":"正常班次"},{"company":"ctb","route":"690S","routeType":null,"dir":"O","orig":"中環 (交易廣場)","dest":"坑口 (經:日出康城)","stopList":[{"id":"001032","name":"中環 (交易廣場)","lat":"22.283695952091","long":"114.15803274053"},{"id":"001181","name":"域多利皇后街, 干諾道中","lat":"22.284417192091","long":"114.15666707053"},{"id":"001047","name":"德忌利士街, 德輔道中","lat":"22.283301982091","long":"114.15683404053"},{"id":"001051","name":"皇后像廣場, 德輔道中","lat":"22.280748762091","long":"114.15964401053"},{"id":"001137","name":"金鐘 - 統一中心, 金鐘道","lat":"22.278348592091","long":"114.16493918053"},{"id":"002430","name":"盧押道, 軒尼詩道","lat":"22.277681222091","long":"114.17099800053"},{"id":"002432","name":"菲林明道, 軒尼詩道","lat":"22.277753192091","long":"114.17369502053"},{"id":"002434","name":"史釗域道, 軒尼詩道","lat":"22.278009642091","long":"114.17617122053"},{"id":"002435","name":"杜老誌道, 軒尼詩道","lat":"22.278720922091","long":"114.17909682053"},{"id":"002437","name":"灣仔消防局, 軒尼詩道","lat":"22.279686862091","long":"114.18178779053"},{"id":"002555","name":"銅鑼灣 - 百德新街, 怡和街","lat":"22.279935442091","long":"114.18558549053"},{"id":"001213","name":"維多利亞公園, 高士威道","lat":"22.281133262091","long":"114.19006592053"},{"id":"001251","name":"興發街","lat":"22.283573922091","long":"114.19109346053"},{"id":"003786","name":"日出康城晉海, 環澳路","lat":"22.292122172091","long":"114.27212275053"},{"id":"002928","name":"日出康城領都, 環保大道","lat":"22.294212732091","long":"114.27339453053"},{"id":"002929","name":"日出康城首都, 環保大道","lat":"22.296755222091","long":"114.27266472053"},{"id":"003329","name":"日出康城","lat":"22.295872872091","long":"114.26836001053"},{"id":"002930","name":"邵氏影城, 環保大道","lat":"22.303469562091","long":"114.27138882053"},{"id":"003161","name":"清水灣半島, 環保大道","lat":"22.307916562091","long":"114.26788629053"},{"id":"001752","name":"新寶城, 銀澳路","lat":"22.314560952091","long":"114.26643102053"},{"id":"001736","name":"南豐廣場, 培成路","lat":"22.315095992091","long":"114.26411167053"},{"id":"003565","name":"富寧花園, 寶寧路","lat":"22.318682092091","long":"114.26756297053"}],"routeId":"690S","description":"正常班次"}]