[{"company":"ctb","route":"6A","routeType":null,"dir":"O","orig":"中環 (交易廣場)","dest":"赤柱炮台 (閘口)","stopList":[{"id":"001032","name":"中環 (交易廣場)","lat":"22.283696","long":"114.158033"},{"id":"001031","name":"大會堂, 干諾道中","lat":"22.281868","long":"114.161532"},{"id":"001136","name":"金鐘 - 金鐘花園, 金鐘道","lat":"22.278494","long":"114.164459"},{"id":"002479","name":"太古廣場三座, 皇后大道東","lat":"22.277614","long":"114.167847"},{"id":"002480","name":"聯發街, 皇后大道東","lat":"22.276093","long":"114.170174"},{"id":"002481","name":"廈門街, 皇后大道東","lat":"22.275205","long":"114.171580"},{"id":"002482","name":"尚翹峰, 皇后大道東","lat":"22.274470","long":"114.173863"},{"id":"002484","name":"聖若瑟小學, 皇后大道東","lat":"22.275165","long":"114.176921"},{"id":"002350","name":"黃竹坑新圍, 黃竹坑道","lat":"22.248619","long":"114.176313"},{"id":"002351","name":"鄉村俱樂部, 黃竹坑道","lat":"22.245760","long":"114.178733"},{"id":"002201","name":"深水灣, 香島道","lat":"22.244498","long":"114.188069"},{"id":"002199","name":"蒲苑, 香島道","lat":"22.240245","long":"114.187275"},{"id":"002200","name":"香島小築, 香島道","lat":"22.237697","long":"114.189502"},{"id":"002247","name":"麗景道, 淺水灣道","lat":"22.238414","long":"114.193009"},{"id":"002252","name":"淺水灣海灘, 淺水灣道","lat":"22.238611","long":"114.195268"},{"id":"002248","name":"保華大廈, 淺水灣道","lat":"22.238416","long":"114.198760"},{"id":"002256","name":"淺水灣道 127 號, 淺水灣道","lat":"22.236746","long":"114.199400"},{"id":"002267","name":"赫蘭道, 淺水灣道","lat":"22.226580","long":"114.202951"},{"id":"002274","name":"舂磡角道, 赤柱峽道","lat":"22.225044","long":"114.205165"},{"id":"002268","name":"衛奕信徑, 赤柱峽道","lat":"22.223713","long":"114.208796"},{"id":"002379","name":"赤柱峽道","lat":"22.225422","long":"114.209410"},{"id":"002269","name":"赤柱崗抽水站, 赤柱峽道","lat":"22.224727","long":"114.212343"},{"id":"002266","name":"赤柱峽道交匯處, 赤柱峽道","lat":"22.224755","long":"114.213730"},{"id":"002280","name":"旭逸居, 赤柱村道","lat":"22.223962","long":"114.213389"},{"id":"002276","name":"海灣園, 赤柱村道","lat":"22.221122","long":"114.211704"},{"id":"002281","name":"赤柱村, 赤柱村道","lat":"22.219070","long":"114.212919"},{"id":"002359","name":"黃麻角道公立醫局, 黃麻角道","lat":"22.218017","long":"114.213523"},{"id":"002362","name":"聖士提反書院附屬小學, 黃麻角道","lat":"22.212433","long":"114.216697"},{"id":"002578","name":"富豪海灣, 黃麻角道","lat":"22.207886","long":"114.213542"},{"id":"002400","name":"赤柱炮台, 黃麻角道","lat":"22.205281","long":"114.214351"}],"routeId":"6A","description":"正常班次"}]