[{"company":"kmb","route":"6D","routeType":"1","dir":"O","orig":"牛頭角","dest":"美孚","stopList":[{"id":"9D5EC5BD0A116058","name":"牛頭角總站 (KT959)","lat":"22.323111","long":"114.216755"},{"id":"44DE41D495197976","name":"淘大花園 (KT697)","lat":"22.324482","long":"114.215384"},{"id":"9C884013EBA1D548","name":"啟業邨 (KT681)","lat":"22.330292","long":"114.209927"},{"id":"3B35E109EB76E70D","name":"牛池灣轉車站 - 紅萼樓 (H5)","lat":"22.336996","long":"114.206102"},{"id":"442D6A78E1015EAE","name":"新蒲崗四美街 (WT541)","lat":"22.337780","long":"114.201904"},{"id":"17EB4B9A9DE2FAF6","name":"黃大仙警署 (WT546)","lat":"22.338896","long":"114.197075"},{"id":"38BDB19C8D7B8DF8","name":"彩虹道遊樂場 (WT550)","lat":"22.337502","long":"114.195595"},{"id":"401EAF24B736C5B6","name":"新蒲崗寧遠街 (WT556)","lat":"22.333999","long":"114.194959"},{"id":"B5BAED26BD56AC16","name":"九龍城轉車站-富豪東方酒店","lat":"22.327515","long":"114.191182"},{"id":"121EAC1C0D7D77BE","name":"福佬村道 (KC737)","lat":"22.327224","long":"114.187473"},{"id":"CC6ED4BD466C1CB0","name":"喇沙利道 (KC739)","lat":"22.326376","long":"114.182647"},{"id":"0A72152D4873A5C7","name":"聖德肋撒堂 (KC741)","lat":"22.325447","long":"114.177493"},{"id":"AE88B3CCA11ACCDC","name":"基堤道 (MK380)","lat":"22.325905","long":"114.174204"},{"id":"8B2FD4BDD627C211","name":"大坑東遊樂場 (SS565)","lat":"22.328198","long":"114.171990"},{"id":"0EF525CD78152127","name":"協同中學 (SS566)","lat":"22.330064","long":"114.171923"},{"id":"2F8A93ADDCEF6856","name":"石硤尾站 (SS573)","lat":"22.331455","long":"114.169457"},{"id":"A86896A010757F50","name":"石硤尾邨第20座 (SS574)","lat":"22.332431","long":"114.166897"},{"id":"CCAC1239A80FFE6B","name":"元洲街北河街 (SS167)","lat":"22.331449","long":"114.164239"},{"id":"317CDFC0C1DB2ADF","name":"營盤街 (SS170)","lat":"22.334179","long":"114.160722"},{"id":"9508A6CF0AF1E1B2","name":"東京街 (SS171)","lat":"22.335523","long":"114.158985"},{"id":"B8B71BC8E2DDCA8D","name":"發祥街 (SS173)","lat":"22.336966","long":"114.157072"},{"id":"62AB7611613EF561","name":"元州商場 (SS175)","lat":"22.338497","long":"114.155113"},{"id":"A1AA846971415968","name":"長沙灣徑 (SS234)","lat":"22.338091","long":"114.150935"},{"id":"6762DEA1B89E6354","name":"長沙灣長荔街 (SS246)","lat":"22.336786","long":"114.147023"},{"id":"FEF6F77B236DA7A5","name":"美孚巴士總站 (T4) (SS993)","lat":"22.337205","long":"114.140153"}],"routeId":"6D","description":"正常班次"},{"company":"kmb","route":"6D","routeType":"1","dir":"I","orig":"美孚","dest":"牛頭角","stopList":[{"id":"FEF6F77B236DA7A5","name":"美孚巴士總站 (T4) (SS993)","lat":"22.337205","long":"114.140153"},{"id":"854BC3A8D4DE6AA9","name":"美孚轉車站 (SS462)","lat":"22.337256","long":"114.141259"},{"id":"FB1DCF66C9508EBA","name":"通州西街 (SS511)","lat":"22.337946","long":"114.146776"},{"id":"2B0183A25DA19AE3","name":"光昌街 (SS518)","lat":"22.339349","long":"114.150865"},{"id":"70AED81BA5AE0B49","name":"昌華街 (SS523)","lat":"22.339842","long":"114.154686"},{"id":"277172A410622365","name":"永隆街 (SS530)","lat":"22.337708","long":"114.157437"},{"id":"173B80CC8B075A71","name":"東沙島街 (SS539)","lat":"22.335943","long":"114.159703"},{"id":"45AA6AF583A32F40","name":"寶血醫院 (SS545)","lat":"22.334155","long":"114.161989"},{"id":"229C618DE131245A","name":"石硤尾邨美笙樓 (SS135)","lat":"22.333562","long":"114.165756"},{"id":"90C3A9DB72F244DE","name":"石硤尾站 (SS136)","lat":"22.331837","long":"114.167987"},{"id":"81631C6B0F2D1843","name":"民樂樓 (SS137)","lat":"22.331648","long":"114.169578"},{"id":"7476BFC6F6B5D869","name":"協同中學 (SS142)","lat":"22.330661","long":"114.171935"},{"id":"F7FB52860229BBAB","name":"大坑東遊樂場 (SS143)","lat":"22.328210","long":"114.172215"},{"id":"6045969736940272","name":"花墟公園 (MK234)","lat":"22.326866","long":"114.173105"},{"id":"F851B0B122F38CCC","name":"明愛太子宿舍 (KC240)","lat":"22.326955","long":"114.176894"},{"id":"2FA93329F924968F","name":"碧華花園 (KC244)","lat":"22.327265","long":"114.182745"},{"id":"1E58DF8CAD59712E","name":"聖德肋撒醫院 (KC245)","lat":"22.327382","long":"114.185584"},{"id":"12B08A64756B780B","name":"侯王道 (KC253)","lat":"22.327760","long":"114.188940"},{"id":"E99D3F96A9F7B5EB","name":"九龍城轉車站-富豪東方酒店","lat":"22.328723","long":"114.192106"},{"id":"661FEE32A0D73EB0","name":"王仲銘中學 (WT322)","lat":"22.333958","long":"114.194661"},{"id":"51831905D7BC1802","name":"啟德花園 (WT325)","lat":"22.337218","long":"114.195091"},{"id":"E7A17EFD6E7435AF","name":"黃大仙警署 (WT327)","lat":"22.339114","long":"114.197038"},{"id":"DFAA3371878CEED2","name":"新蒲崗四美街 (WT333)","lat":"22.338348","long":"114.201507"},{"id":"3BB1407BA61E0A9B","name":"彩虹轉車站 - 金碧樓 (L1)","lat":"22.335522","long":"114.204886"},{"id":"F60097D67F33DC0C","name":"啟業邨 (KT313)","lat":"22.330767","long":"114.210263"},{"id":"830588EB9A8D26EC","name":"淘大花園 (KT375)","lat":"22.324283","long":"114.215805"},{"id":"9D5EC5BD0A116058","name":"牛頭角總站 (KT959)","lat":"22.323111","long":"114.216755"}],"routeId":"6D","description":"正常班次"}]