[{"company":"kmb","route":"6E","routeType":"1","dir":"O","orig":"長沙灣(蘇屋邨)","dest":"鯉魚門邨","stopList":[{"id":"44AF4BBD0B0BB3A0","name":"長沙灣(蘇屋邨)巴士總站 (SS941)","lat":"22.340959","long":"114.158650"},{"id":"FC29C8A636233BB4","name":"蘇屋邨杜鵑樓 (SS686)","lat":"22.339536","long":"114.156628"},{"id":"277172A410622365","name":"永隆街 (SS530)","lat":"22.337708","long":"114.157437"},{"id":"173B80CC8B075A71","name":"東沙島街 (SS539)","lat":"22.335943","long":"114.159703"},{"id":"45AA6AF583A32F40","name":"寶血醫院 (SS545)","lat":"22.334155","long":"114.161989"},{"id":"229C618DE131245A","name":"石硤尾邨美笙樓 (SS135)","lat":"22.333562","long":"114.165756"},{"id":"90C3A9DB72F244DE","name":"石硤尾站 (SS136)","lat":"22.331837","long":"114.167987"},{"id":"81631C6B0F2D1843","name":"民樂樓 (SS137)","lat":"22.331648","long":"114.169578"},{"id":"7476BFC6F6B5D869","name":"協同中學 (SS142)","lat":"22.330661","long":"114.171935"},{"id":"F7FB52860229BBAB","name":"大坑東遊樂場 (SS143)","lat":"22.328210","long":"114.172215"},{"id":"6045969736940272","name":"花墟公園 (MK234)","lat":"22.326866","long":"114.173105"},{"id":"F851B0B122F38CCC","name":"明愛太子宿舍 (KC240)","lat":"22.326955","long":"114.176894"},{"id":"2FA93329F924968F","name":"碧華花園 (KC244)","lat":"22.327265","long":"114.182745"},{"id":"1E58DF8CAD59712E","name":"聖德肋撒醫院 (KC245)","lat":"22.327382","long":"114.185584"},{"id":"12B08A64756B780B","name":"侯王道 (KC253)","lat":"22.327760","long":"114.188940"},{"id":"E99D3F96A9F7B5EB","name":"九龍城轉車站-富豪東方酒店","lat":"22.328723","long":"114.192106"},{"id":"7210357910C44570","name":"譽．港灣 (WT297)","lat":"22.333055","long":"114.196691"},{"id":"A1C65E46464147A0","name":"采頤花園 (WT302)","lat":"22.335085","long":"114.201694"},{"id":"100E6F60BAC1BDEB","name":"坪石邨 (WT307)","lat":"22.333185","long":"114.207227"},{"id":"BA03816A38B9DA7F","name":"啟業邨 (KT315)","lat":"22.330268","long":"114.210894"},{"id":"4BD5CE5106BB0697","name":"九龍灣站(東九文化中心) (KT317)","lat":"22.325601","long":"114.214336"},{"id":"6465DE9EE57F6C94","name":"牛頭角下邨 (KT323)","lat":"22.321984","long":"114.214628"},{"id":"3E73B73B12E25DCF","name":"觀塘道休憩處 (KT330)","lat":"22.318039","long":"114.215032"},{"id":"0B8C52E4C34E3B64","name":"觀塘轉車站 - 觀塘市中心 (T5)","lat":"22.313264","long":"114.224346"},{"id":"144E9479168069DD","name":"觀塘游泳池 (R2) (KT361)","lat":"22.310432","long":"114.229545"},{"id":"7459D3AB11AFD6B5","name":"藍田站 (LT911)","lat":"22.306525","long":"114.233772"},{"id":"9C839C3824F47A6A","name":"聖安當女書院 (LT367)","lat":"22.300362","long":"114.238520"},{"id":"CB4BB0008A87E4FC","name":"油塘邨 (LT368)","lat":"22.298144","long":"114.239225"},{"id":"E4E008D61686FB33","name":"鯉魚門邨 (LT391)","lat":"22.294744","long":"114.239256"}],"routeId":"6E","description":"正常班次"},{"company":"kmb","route":"6E","routeType":"1","dir":"I","orig":"鯉魚門邨","dest":"長沙灣(蘇屋邨)","stopList":[{"id":"E4E008D61686FB33","name":"鯉魚門邨 (LT391)","lat":"22.294744","long":"114.239256"},{"id":"500EB63FD4A41F66","name":"嘉榮街 (LT392)","lat":"22.293859","long":"114.238561"},{"id":"D024B008AB77435B","name":"油塘巴士總站 (LT962)","lat":"22.295827","long":"114.238484"},{"id":"5309D748976029CB","name":"鯉魚門廣場 (LT601)","lat":"22.296392","long":"114.239676"},{"id":"3C6DAB7267F9E54F","name":"油塘邨 (LT602)","lat":"22.299326","long":"114.238661"},{"id":"73E85E88E124EF2C","name":"聖安當女書院 (LT605)","lat":"22.301615","long":"114.237487"},{"id":"2EF9764BE18FC290","name":"藍田站 (LT607)","lat":"22.305354","long":"114.234128"},{"id":"F1A90CEE2B8C40CC","name":"觀塘法院 (F2) (KT611)","lat":"22.309991","long":"114.229553"},{"id":"015AD27DAC83E698","name":"觀塘轉車站 - 創紀之城 (B8)","lat":"22.313853","long":"114.222017"},{"id":"BBDFF2D05E37EE61","name":"觀塘定富街 (KT652)","lat":"22.316772","long":"114.215491"},{"id":"52AE04E9C3E77BE1","name":"牛頭角下邨 (KT654)","lat":"22.320039","long":"114.214468"},{"id":"8570495BD7C63C02","name":"九龍灣站 (KT671)","lat":"22.324805","long":"114.214033"},{"id":"9C884013EBA1D548","name":"啟業邨 (KT681)","lat":"22.330292","long":"114.209927"},{"id":"ED5554C57CF0061C","name":"麗晶花園 (WT692)","lat":"22.332530","long":"114.206872"},{"id":"4D9419874306D82F","name":"采頤花園 (WT695)","lat":"22.334909","long":"114.201967"},{"id":"CC6ED4BD466C1CB0","name":"喇沙利道 (KC739)","lat":"22.326376","long":"114.182647"},{"id":"0A72152D4873A5C7","name":"聖德肋撒堂 (KC741)","lat":"22.325447","long":"114.177493"},{"id":"AE88B3CCA11ACCDC","name":"基堤道 (MK380)","lat":"22.325905","long":"114.174204"},{"id":"8B2FD4BDD627C211","name":"大坑東遊樂場 (SS565)","lat":"22.328198","long":"114.171990"},{"id":"0EF525CD78152127","name":"協同中學 (SS566)","lat":"22.330064","long":"114.171923"},{"id":"2F8A93ADDCEF6856","name":"石硤尾站 (SS573)","lat":"22.331455","long":"114.169457"},{"id":"A86896A010757F50","name":"石硤尾邨第20座 (SS574)","lat":"22.332431","long":"114.166897"},{"id":"CCAC1239A80FFE6B","name":"元洲街北河街 (SS167)","lat":"22.331449","long":"114.164239"},{"id":"317CDFC0C1DB2ADF","name":"營盤街 (SS170)","lat":"22.334179","long":"114.160722"},{"id":"9508A6CF0AF1E1B2","name":"東京街 (SS171)","lat":"22.335523","long":"114.158985"},{"id":"63B3694BF40FBEC6","name":"寶熙苑 (SS685)","lat":"22.337426","long":"114.159322"},{"id":"F54744E6F5CDBC1A","name":"蘇屋邨海棠樓 (SS690)","lat":"22.340113","long":"114.157544"},{"id":"44AF4BBD0B0BB3A0","name":"長沙灣(蘇屋邨)巴士總站 (SS941)","lat":"22.340959","long":"114.158650"}],"routeId":"6E","description":"正常班次"}]