[{"company":"ctb","route":"701","routeType":null,"dir":"I","orig":"旺角","dest":"海麗邨／南昌站","stopList":[{"id":"003133","name":"弼街, 上海街","lat":"22.322240","long":"114.167513"},{"id":"002716","name":"花園街街市, 旺角道","lat":"22.321174","long":"114.170528"},{"id":"001395","name":"通菜街, 亞皆老街","lat":"22.319444","long":"114.170699"},{"id":"001396","name":"油尖旺地區康健中心, 亞皆老街","lat":"22.318800","long":"114.166937"},{"id":"001423","name":"銘基書院, 櫻桃街","lat":"22.318582","long":"114.164388"},{"id":"001707","name":"浪澄灣, 海輝道","lat":"22.318815","long":"114.156644"},{"id":"003408","name":"聚魚道, 深旺道","lat":"22.323765","long":"114.158813"},{"id":"002897","name":"南昌公園, 深旺道","lat":"22.325124","long":"114.156991"},{"id":"002593","name":"南昌站, 深旺道","lat":"22.327517","long":"114.154221"},{"id":"002882","name":"海達邨, 深旺道","lat":"22.329509","long":"114.151749"},{"id":"002891","name":"海麗邨","lat":"22.332182","long":"114.147276"}],"routeId":"701","description":"正常班次"},{"company":"ctb","route":"701","routeType":null,"dir":"O","orig":"海麗邨／南昌站","dest":"旺角","stopList":[{"id":"002891","name":"海麗邨","lat":"22.332182","long":"114.147276"},{"id":"002576","name":"碧海藍天, 深旺道","lat":"22.332235","long":"114.148067"},{"id":"001762","name":"凱德苑, 深旺道","lat":"22.330126","long":"114.151250"},{"id":"002593","name":"南昌站, 深旺道","lat":"22.327517","long":"114.154221"},{"id":"003133","name":"弼街, 上海街","lat":"22.322240","long":"114.167513"},{"id":"002716","name":"花園街街市, 旺角道","lat":"22.321174","long":"114.170528"},{"id":"001395","name":"通菜街, 亞皆老街","lat":"22.319444","long":"114.170699"},{"id":"001396","name":"油尖旺地區康健中心, 亞皆老街","lat":"22.318800","long":"114.166937"},{"id":"001423","name":"銘基書院, 櫻桃街","lat":"22.318582","long":"114.164388"},{"id":"001707","name":"浪澄灣, 海輝道","lat":"22.318815","long":"114.156644"}],"routeId":"701","description":"正常班次"}]