[{"company":"ctb","route":"702","routeType":null,"dir":"I","orig":"九龍塘 (又一城)","dest":"海麗邨／南昌站","stopList":[{"id":"003065","name":"又一城","lat":"22.336639","long":"114.175213"},{"id":"003313","name":"香島中學, 桃源街","lat":"22.335273","long":"114.174421"},{"id":"003314","name":"大坑東邨東輝樓, 大坑東道","lat":"22.333589","long":"114.171642"},{"id":"003315","name":"大坑東邨東海樓, 大坑東道","lat":"22.332725","long":"114.171167"},{"id":"002823","name":"石硤尾站, 窩仔街","lat":"22.331508","long":"114.169410"},{"id":"003191","name":"石硤尾商場, 南昌街","lat":"22.332315","long":"114.166117"},{"id":"002869","name":"北河街, 元州街","lat":"22.331446","long":"114.164280"},{"id":"002815","name":"福榮街, 欽州街","lat":"22.332773","long":"114.162017"},{"id":"002884","name":"大南街, 欽州街","lat":"22.330220","long":"114.159722"},{"id":"001639","name":"通州街公園, 欽州街","lat":"22.327889","long":"114.157645"},{"id":"002593","name":"南昌站, 深旺道","lat":"22.327517","long":"114.154221"},{"id":"002882","name":"海達邨, 深旺道","lat":"22.329509","long":"114.151749"},{"id":"002891","name":"海麗邨","lat":"22.332182","long":"114.147276"}],"routeId":"702","description":"正常班次"},{"company":"ctb","route":"702","routeType":null,"dir":"O","orig":"海麗邨／南昌站","dest":"九龍塘 (又一城)","stopList":[{"id":"002891","name":"海麗邨","lat":"22.332182","long":"114.147276"},{"id":"002890","name":"泓景臺, 深盛路","lat":"22.333776","long":"114.148314"},{"id":"003228","name":"碧海藍天, 興華街西","lat":"22.332981","long":"114.149737"},{"id":"001762","name":"凱德苑, 深旺道","lat":"22.330126","long":"114.151250"},{"id":"002854","name":"南昌站, 深旺道","lat":"22.328257","long":"114.153744"},{"id":"002855","name":"南昌邨, 欽州街西","lat":"22.327227","long":"114.156804"},{"id":"002856","name":"醫局街, 欽州街","lat":"22.329021","long":"114.158391"},{"id":"001635","name":"深水埗 (欽州街)","lat":"22.331355","long":"114.159840"},{"id":"002810","name":"怡靖苑, 長沙灣道","lat":"22.332577","long":"114.159711"},{"id":"001602","name":"長沙灣站, 東京街","lat":"22.335339","long":"114.157794"},{"id":"002887","name":"東京街, 青山道","lat":"22.336158","long":"114.159320"},{"id":"002809","name":"九江街, 青山道","lat":"22.334572","long":"114.161373"},{"id":"003143","name":"石硤尾邨美笙樓, 窩仔街","lat":"22.333514","long":"114.165725"},{"id":"002830","name":"石硤尾站, 窩仔街","lat":"22.331884","long":"114.167840"},{"id":"002831","name":"大坑西新邨民樂樓, 窩仔街","lat":"22.331603","long":"114.169157"},{"id":"003310","name":"南山邨南安樓, 大坑東道","lat":"22.333577","long":"114.171459"},{"id":"003311","name":"南山邨南泰樓, 大坑東道","lat":"22.334506","long":"114.172206"},{"id":"003312","name":"香島中學, 桃源街","lat":"22.335367","long":"114.174307"},{"id":"003065","name":"又一城","lat":"22.336639","long":"114.175213"}],"routeId":"702","description":"正常班次"}]