[{"company":"kmb","route":"71P","routeType":"1","dir":"O","orig":"大埔(太和)","dest":"富善/富亨/富蝶(循環線)","stopList":[{"id":"DC32010F7B9206C4","name":"太和總站 (TP985)","lat":"22.450314","long":"114.161343"},{"id":"56F79FB1FC157E22","name":"大埔政府合署 (TP611)","lat":"22.450783","long":"114.164431"},{"id":"6DE63371E5E799BA","name":"大埔舊墟公園 (TP316)","lat":"22.451324","long":"114.165984"},{"id":"13E458C819D90940","name":"廣福道轉車站 (TP564)","lat":"22.448685","long":"114.166993"},{"id":"A6D60802BD8DDED0","name":"大埔運頭角里 (TP568)","lat":"22.447394","long":"114.169932"},{"id":"46604706EE6CC765","name":"大埔墟站巴士總站 (TP935)","lat":"22.443620","long":"114.169716"},{"id":"FB5500F0D32629B2","name":"廣福球場 (TP322)","lat":"22.448010","long":"114.171768"},{"id":"BBFADA4889A61FCC","name":"大埔中心第五期 (TP326)","lat":"22.452932","long":"114.172271"},{"id":"9316961F98692D0A","name":"怡雅苑怡禮閣 (TP330)","lat":"22.454540","long":"114.174576"},{"id":"628613296EF92C64","name":"聖母聖心小學 (TP400)","lat":"22.456884","long":"114.172119"},{"id":"0962265A8720C38C","name":"富亨邨亨榮樓 (TP402)","lat":"22.459967","long":"114.172871"},{"id":"0920C5393C3560ED","name":"富蝶總站 (TP925)","lat":"22.462699","long":"114.176025"},{"id":"4C1CD2009B21E9A1","name":"頌雅苑 (TP404)","lat":"22.460204","long":"114.170277"},{"id":"1A0BF02F827F6A20","name":"大埔安慈路 (TP742)","lat":"22.452495","long":"114.165632"},{"id":"18E4449F4C5CE30B","name":"太和邨亨和樓 (TP392)","lat":"22.452199","long":"114.163197"},{"id":"DC32010F7B9206C4","name":"太和總站 (TP985)","lat":"22.450314","long":"114.161343"}],"routeId":"71P","description":"正常班次"},{"company":"ctb","route":"71P","routeType":null,"dir":"O","orig":"深灣","dest":"中環碼頭","stopList":[{"id":"002389","name":"深灣","lat":"22.243326","long":"114.164138"},{"id":"002223","name":"黃竹坑 (南朗山)","lat":"22.245241","long":"114.167236"},{"id":"002390","name":"南朗山道熟食市場, 南朗山道","lat":"22.247128","long":"114.166380"},{"id":"002357","name":"南朗山道, 黃竹坑道","lat":"22.248328","long":"114.166062"},{"id":"002358","name":"勝利工廠大廈, 黃竹坑道","lat":"22.248392","long":"114.163149"},{"id":"002160","name":"逸港居, 香港仔海傍道","lat":"22.247488","long":"114.159026"},{"id":"002161","name":"香港仔海濱公園, 香港仔海傍道","lat":"22.247000","long":"114.155783"},{"id":"002162","name":"香港仔魚類批發市場, 香港仔海傍道","lat":"22.247980","long":"114.152431"},{"id":"002298","name":"明愛張奧偉國際賓館, 田灣街","lat":"22.249830","long":"114.149338"},{"id":"002299","name":"田灣邨","lat":"22.250655","long":"114.149763"},{"id":"002294","name":"耀中幼教學院, 田灣山道","lat":"22.250299","long":"114.147563"},{"id":"002261","name":"華富道, 石排灣道","lat":"22.252557","long":"114.140248"},{"id":"002226","name":"余振強紀念第二中學, 薄扶林道","lat":"22.256090","long":"114.137535"},{"id":"002227","name":"薄扶林村, 薄扶林道","lat":"22.260643","long":"114.136122"},{"id":"002228","name":"薄扶林水塘道, 薄扶林道","lat":"22.262870","long":"114.134906"},{"id":"002229","name":"嘉林閣, 薄扶林道","lat":"22.264648","long":"114.133285"},{"id":"002230","name":"心光學校, 薄扶林道","lat":"22.267097","long":"114.132139"},{"id":"002231","name":"瑪麗醫院, 薄扶林道","lat":"22.269073","long":"114.130633"},{"id":"002232","name":"香港華人基督教聯會薄扶林道墳場, 薄扶林道","lat":"22.274060","long":"114.129880"},{"id":"001109","name":"摩星嶺道, 薄扶林道","lat":"22.278377","long":"114.130955"},{"id":"001110","name":"富林苑, 薄扶林道","lat":"22.279835","long":"114.131265"},{"id":"001111","name":"蒲飛路, 薄扶林道","lat":"22.282023","long":"114.132233"},{"id":"001112","name":"何東夫人堂, 薄扶林道","lat":"22.283611","long":"114.132960"},{"id":"001113","name":"香港大學百周年校園, 薄扶林道","lat":"22.284286","long":"114.134913"},{"id":"001114","name":"聖士提反堂中學, 薄扶林道","lat":"22.285288","long":"114.138373"},{"id":"001153","name":"第二街","lat":"22.286219","long":"114.139395"},{"id":"001062","name":"西區警署, 德輔道西","lat":"22.287960","long":"114.140350"},{"id":"001063","name":"正街, 德輔道西","lat":"22.287992","long":"114.141925"},{"id":"001064","name":"東邊街, 德輔道西","lat":"22.287915","long":"114.144225"},{"id":"001065","name":"修打蘭街, 德輔道西","lat":"22.287780","long":"114.146371"},{"id":"001028","name":"港澳碼頭, 干諾道中","lat":"22.287715","long":"114.151337"},{"id":"001029","name":"海港政府大樓, 統一碼頭道","lat":"22.286703","long":"114.155358"},{"id":"001176","name":"國際金融中心商場, 民祥街","lat":"22.285071","long":"114.158577"},{"id":"001145","name":"中環碼頭 - 巴士總站","lat":"22.286355","long":"114.159735"}],"routeId":"71P","description":"正常班次"}]