[{"company":"kmb","route":"71S","routeType":"1","dir":"O","orig":"大埔(富善)","dest":"廣福(循環線)","stopList":[{"id":"B58772294234CF74","name":"富善邨總站 (TP967)","lat":"22.453987","long":"114.174846"},{"id":"ACDCC9E65172243D","name":"新興花園 (TP382)","lat":"22.452910","long":"114.172626"},{"id":"597CE200C2824BEE","name":"廣福邨廣智樓 (TP383)","lat":"22.449785","long":"114.171981"},{"id":"7AC279608B65128C","name":"廣福球場 (TP385)","lat":"22.448044","long":"114.172048"},{"id":"46604706EE6CC765","name":"大埔墟站巴士總站 (TP935)","lat":"22.443620","long":"114.169716"},{"id":"B4721B39CC29C634","name":"大埔墟站巴士總站 (TP949)","lat":"22.443832","long":"114.169137"},{"id":"363A9BD5A7BE81D0","name":"廣福街市 (TP551)","lat":"22.448762","long":"114.174712"},{"id":"53C49B85EBFF8AAE","name":"宏福苑 (TP559)","lat":"22.447412","long":"114.174860"},{"id":"46604706EE6CC765","name":"大埔墟站巴士總站 (TP935)","lat":"22.443620","long":"114.169716"},{"id":"375591F774538709","name":"大埔墟站巴士總站 (TP946)","lat":"22.443825","long":"114.169169"},{"id":"FB5500F0D32629B2","name":"廣福球場 (TP322)","lat":"22.448010","long":"114.171768"},{"id":"55D37B4406A049FB","name":"林村河 (TP324)","lat":"22.449808","long":"114.171721"},{"id":"BBFADA4889A61FCC","name":"大埔中心第五期 (TP326)","lat":"22.452932","long":"114.172271"},{"id":"B58772294234CF74","name":"富善邨總站 (TP967)","lat":"22.453987","long":"114.174846"}],"routeId":"71S","description":"正常班次"}]