[{"company":"ctb","route":"720X","routeType":null,"dir":"O","orig":"嘉亨灣","dest":"中環(林士街)","stopList":[{"id":"003155","name":"西灣河 (嘉亨灣)","lat":"22.284739","long":"114.224255"},{"id":"001316","name":"西灣河站, 太安街","lat":"22.282355","long":"114.222399"},{"id":"001376","name":"東欣苑, 耀興道","lat":"22.280709","long":"114.220824"},{"id":"001350","name":"東熹苑, 耀興道","lat":"22.280367","long":"114.219685"},{"id":"001351","name":"東熹苑逸熹閣, 耀興道","lat":"22.279405","long":"114.218323"},{"id":"001352","name":"耀東邨耀華樓, 耀興道","lat":"22.279322","long":"114.221109"},{"id":"002676","name":"耀東邨","lat":"22.277950","long":"114.222880"},{"id":"001353","name":"耀東邨耀興樓, 耀興道","lat":"22.276338","long":"114.224302"},{"id":"001354","name":"耀東邨耀貴樓, 耀興道","lat":"22.275634","long":"114.225741"},{"id":"001355","name":"筲箕灣廣場, 耀興道","lat":"22.277483","long":"114.225942"},{"id":"001299","name":"南安里, 筲箕灣道","lat":"22.277850","long":"114.226907"},{"id":"001207","name":"筲箕灣","lat":"22.278421","long":"114.228331"},{"id":"001033","name":"皇后像廣場, 干諾道中","lat":"22.281992","long":"114.160038"},{"id":"001034","name":"砵典乍街, 干諾道中","lat":"22.283588","long":"114.157304"},{"id":"001185","name":"永和街, 干諾道中","lat":"22.285955","long":"114.154977"},{"id":"001108","name":"中環 (林士街)","lat":"22.286725","long":"114.154431"}],"routeId":"720X","description":"正常班次"}]