[{"company":"ctb","route":"720X","routeType":null,"dir":"O","orig":"嘉亨灣","dest":"中環(林士街)","stopList":[{"id":"003155","name":"西灣河 (嘉亨灣)","lat":"22.284739002091","long":"114.22425488053"},{"id":"001316","name":"西灣河站, 太安街","lat":"22.282354632091","long":"114.22239868053"},{"id":"001376","name":"東欣苑, 耀興道","lat":"22.280708762091","long":"114.22082397053"},{"id":"001350","name":"東熹苑, 耀興道","lat":"22.280367472091","long":"114.21968477053"},{"id":"001351","name":"東熹苑逸熹閣, 耀興道","lat":"22.279405242091","long":"114.21832255053"},{"id":"001352","name":"耀東邨耀華樓, 耀興道","lat":"22.279321902091","long":"114.22110893053"},{"id":"002676","name":"耀東邨","lat":"22.277949642091","long":"114.22288024053"},{"id":"001299","name":"南安里, 筲箕灣道","lat":"22.277849882091","long":"114.22690650053"},{"id":"001207","name":"筲箕灣","lat":"22.278421122091","long":"114.22833128053"},{"id":"001033","name":"皇后像廣場, 干諾道中","lat":"22.281992192091","long":"114.16003822053"},{"id":"001034","name":"砵典乍街, 干諾道中","lat":"22.283587582091","long":"114.15730419053"},{"id":"001185","name":"永和街, 干諾道中","lat":"22.285954582091","long":"114.15497687053"},{"id":"001108","name":"中環 (林士街)","lat":"22.286725242091","long":"114.15443116053"}],"routeId":"720X","description":"正常班次"}]