[{"company":"kmb","route":"74","routeType":"1","dir":"O","orig":"富蝶總站","dest":"油塘","stopList":[{"id":"9B5260033565575F","name":"富蝶總站","lat":"22.462699","long":"114.176025"},{"id":"2D2F0A476CB1FEF5","name":"富亨邨亨裕樓","lat":"22.459314","long":"114.172704"},{"id":"81293E4174C24FD5","name":"頌雅路","lat":"22.457130","long":"114.172417"},{"id":"378DA3C43904CFF9","name":"大元邨","lat":"22.456236","long":"114.170374"},{"id":"9FBD2D7974A0AB50","name":"沐恩中學","lat":"22.456232","long":"114.167196"},{"id":"F9AB54847EF884BB","name":"大埔翠怡街","lat":"22.453706","long":"114.162903"},{"id":"74648B92E0E80E2E","name":"白石角變電站 (PA201)","lat":"22.434893","long":"114.201372"},{"id":"261392BB77CC768D","name":"天賦海灣 (PA203)","lat":"22.431492","long":"114.201558"},{"id":"07AB149DAD888683","name":"雲滙 (PA207)","lat":"22.429805","long":"114.203323"},{"id":"023E9E5A9E073E1A","name":"創新路 (PA211)","lat":"22.428649","long":"114.204981"},{"id":"39E7051B17D302DA","name":"科研路 (PA214)","lat":"22.426442","long":"114.208450"},{"id":"1C6EAAF5F48167F9","name":"科學園(第一期) (PA219)","lat":"22.424272","long":"114.211589"},{"id":"A0D379E172F5BC93","name":"香港生物科技研究院 (PA232)","lat":"22.422664","long":"114.214179"},{"id":"64101F297D3C1C55","name":"水上活動中心 (PA234)","lat":"22.418662","long":"114.214271"},{"id":"5B39CC28607910E4","name":"馬料水公眾碼頭 (PA237)","lat":"22.416027","long":"114.213945"},{"id":"30D564180B68ECA8","name":"大老山隧道 (A2) (ST791)","lat":"22.377526","long":"114.212311"},{"id":"9A0959AB68FA5E1F","name":"九龍灣臨華街 (KT123)","lat":"22.323512","long":"114.208973"},{"id":"5D8FCEF2915882FD","name":"觀塘順業街 (KT200)","lat":"22.316313","long":"114.214785"},{"id":"C2605DED84199B84","name":"觀塘勵業街 (KT201)","lat":"22.314912","long":"114.216362"},{"id":"BF8E440F5584D39D","name":"觀塘巧明街 (KT202)","lat":"22.311960","long":"114.219656"},{"id":"9C839C3824F47A6A","name":"聖安當女書院 (LT367)","lat":"22.300362","long":"114.238520"},{"id":"CB4BB0008A87E4FC","name":"油塘邨 (LT368)","lat":"22.298144","long":"114.239225"},{"id":"AFE8CE5FCE951B89","name":"鯉魚門邨 (LT391)","lat":"22.294774","long":"114.239286"},{"id":"500EB63FD4A41F66","name":"嘉榮街 (LT392)","lat":"22.293859","long":"114.238561"},{"id":"0D8135B0D81F29A1","name":"油塘巴士總站 (LT961)","lat":"22.295807","long":"114.238556"}],"routeId":"74","description":"正常班次"},{"company":"kmb","route":"74","routeType":"1","dir":"I","orig":"油塘","dest":"富蝶總站","stopList":[{"id":"0D8135B0D81F29A1","name":"油塘巴士總站 (LT961)","lat":"22.295807","long":"114.238556"},{"id":"F60CC440E22B0BD9","name":"鯉魚門廣場 (LT600)","lat":"22.296278","long":"114.239716"},{"id":"3C6DAB7267F9E54F","name":"油塘邨 (LT602)","lat":"22.299326","long":"114.238661"},{"id":"73E85E88E124EF2C","name":"聖安當女書院 (LT605)","lat":"22.301615","long":"114.237487"},{"id":"6C6B36F7550907CE","name":"藍田站 (LT608)","lat":"22.305444","long":"114.234043"},{"id":"FF6E49051D6D9A8C","name":"麗港公園 (LT421)","lat":"22.307955","long":"114.226733"},{"id":"70CD99F4D487740A","name":"觀塘巧明街 (KT572)","lat":"22.313361","long":"114.217861"},{"id":"992F89F2265F8D8D","name":"觀塘順業街 (KT573)","lat":"22.315896","long":"114.214922"},{"id":"1E71CBFE8560B0EF","name":"九龍灣臨華街 (KT479)","lat":"22.322347","long":"114.208909"},{"id":"9274EF6791CA3ED8","name":"大老山隧道 (B1) (ST113)","lat":"22.376864","long":"114.211807"},{"id":"739A5DDE0CF1970C","name":"馬料水公眾碼頭 (PA100)","lat":"22.415908","long":"114.213778"},{"id":"34E1E68A3C2AFE81","name":"水上活動中心 (PA102)","lat":"22.420023","long":"114.214250"},{"id":"2D1A8946EF054FC9","name":"香港生物科技研究院 (PA107)","lat":"22.423223","long":"114.213922"},{"id":"DADEC4FDAD7C58B3","name":"科學園(第一期) (PA122)","lat":"22.424247","long":"114.211432"},{"id":"E8F5E085BAEFE100","name":"科研路 (PA124)","lat":"22.426628","long":"114.208027"},{"id":"79FD1B44D37205B8","name":"雲滙 (PA127)","lat":"22.429561","long":"114.203338"},{"id":"369A5601F8A63B5E","name":"白石角 (PA129)","lat":"22.431492","long":"114.201512"},{"id":"A339426A8F633D63","name":"白石角變電站 (PA130)","lat":"22.433895","long":"114.200812"},{"id":"E796B592A3D045F0","name":"大埔公眾泳池","lat":"22.454643","long":"114.163986"},{"id":"F9C14690633CE7E0","name":"太平工業中心","lat":"22.456967","long":"114.168023"},{"id":"7BCFD79F22F60457","name":"富亨邨","lat":"22.456330","long":"114.170752"},{"id":"628613296EF92C64","name":"聖母聖心小學","lat":"22.456884","long":"114.172119"},{"id":"0962265A8720C38C","name":"富亨邨亨榮樓","lat":"22.459967","long":"114.172871"},{"id":"0920C5393C3560ED","name":"富蝶總站","lat":"22.462699","long":"114.176025"}],"routeId":"74","description":"正常班次"},{"company":"gmb","route":"74","routeType":1,"orig":"九龍站","dest":"旺角(聯運街)(循環線)","stopList":[{"id":20000691,"name":"九龍站","lat":22.305013751416574,"long":114.16291860312879},{"id":20020361,"name":"雅翔道, 近環球貿易廣場","lat":22.30351244835075,"long":114.15976703166962},{"id":20016267,"name":"博物館道, 近西九文化區藝術公園 ","lat":22.300925237865254,"long":114.15733084435831},{"id":20000694,"name":"渡船街, 近文英樓","lat":22.307163346331222,"long":114.16718864429329},{"id":20013231,"name":"廣東道, 近北海街","lat":22.308366262993324,"long":114.16857808828355},{"id":20013199,"name":"眾坊街, 近駿發花園","lat":22.309974238004543,"long":114.16906893253328},{"id":20020066,"name":"新填地街, 近永星里","lat":22.310602038036865,"long":114.16931033134462},{"id":20013200,"name":"永星里, 近雅達商業大廈","lat":22.31084521673757,"long":114.17045831680299},{"id":20013201,"name":"彌敦道, 近永星里","lat":22.311041248239018,"long":114.17091161012652},{"id":20006085,"name":"窩打老道, 近青年會","lat":22.313593340873805,"long":114.17166246939715},{"id":20000626,"name":"窩打老道, 近廣華醫院主座大樓東翼","lat":22.31488474471436,"long":114.1726329875369},{"id":20006093,"name":"廣華街, 近煙廠街","lat":22.31634771172863,"long":114.17304058563231},{"id":20000627,"name":"染布房街, 近依利大廈","lat":22.319111070250077,"long":114.1728755099062},{"id":20007744,"name":"聯運街, 近聯運街休憩處","lat":22.32117247628294,"long":114.17227417230608},{"id":20013202,"name":"洗衣街, 近鴻德大廈","lat":22.322733160960407,"long":114.17093843221666},{"id":20000628,"name":"太子道西, 近別樹一居","lat":22.324086807077162,"long":114.16945875457388},{"id":20013203,"name":"西洋菜南街, 近生發大廈","lat":22.32226421302683,"long":114.16943907737733},{"id":20013238,"name":"洗衣街, 近快富街","lat":22.32042314293866,"long":114.1715781390667},{"id":20000912,"name":"亞皆老街113號","lat":22.320158629867134,"long":114.17334136941656},{"id":20000721,"name":"窩打老道, 近萬基大廈","lat":22.32019478977506,"long":114.17685494915231},{"id":20013232,"name":"窩打老道, 近何文田街","lat":22.31746547006209,"long":114.17480349540712},{"id":20013204,"name":"窩打老道, 近九龍華仁書院","lat":22.314599544359787,"long":114.17271405458453},{"id":20013205,"name":"窩打老道, 近油麻地救護站","lat":22.31302884323611,"long":114.17144000530244},{"id":20013206,"name":"窩打老道, 近金輝大廈","lat":22.312745966274356,"long":114.16984274983407},{"id":20000870,"name":"上海街, 近文明里休憩花園","lat":22.311425924201075,"long":114.16975058189485},{"id":20013239,"name":"上海街, 近海景絲麗酒店","lat":22.310212454949923,"long":114.16997551918031},{"id":20013207,"name":"上海街, 近西貢街","lat":22.307564750015693,"long":114.1698467731476},{"id":20000462,"name":"佐敦道38號","lat":22.305456650920302,"long":114.16883861228592},{"id":20010064,"name":"佐敦道, 近西九龍站","lat":22.30620986003244,"long":114.16465401649477},{"id":20013233,"name":"佐敦道, 近擎天半島","lat":22.306730973120064,"long":114.16280597448352},{"id":20013208,"name":"九龍站","lat":22.305038589234098,"long":114.16285693645479}],"routeId":2005385,"description":"正常班次"},{"company":"gmb","route":"74","routeType":1,"orig":"元朗(福康街)","dest":"盛屋村","stopList":[{"id":20015409,"name":"福康街, 近金寶樓","lat":22.445104359918382,"long":114.02857482433319},{"id":20004200,"name":"安樂路, 近大橋","lat":22.447473417971267,"long":114.0267216905686},{"id":20016674,"name":"福喜街, 近楊屋新村休憩處","lat":22.45138381426738,"long":114.02516607622748},{"id":20016675,"name":"福順街, 近盛屋村廣陵堂","lat":22.46387189222349,"long":114.01837301813107}],"routeId":2008554,"description":"正常班次"},{"company":"gmb","route":"74","routeType":2,"orig":"盛屋村","dest":"元朗(福康街)","stopList":[{"id":20016675,"name":"福順街, 近盛屋村廣陵堂","lat":22.46387189222349,"long":114.01837301813107},{"id":20007312,"name":"媽橫路, 近朗屏站","lat":22.4475391107531,"long":114.0238378675531},{"id":20016676,"name":"壽富街, 近元朗政府合署","lat":22.44510722264904,"long":114.0271796179726},{"id":20015409,"name":"福康街, 近金寶樓","lat":22.445104359918382,"long":114.02857482433319}],"routeId":2008554,"description":"正常班次"}]