[{"company":"kmb","route":"74","routeType":"1","dir":"O","orig":"富蝶總站","dest":"油塘","stopList":[{"id":"9B5260033565575F","name":"富蝶總站 (TP926)","lat":"22.462699","long":"114.176025"},{"id":"2D2F0A476CB1FEF5","name":"富亨邨亨裕樓 (TP373)","lat":"22.459314","long":"114.172704"},{"id":"81293E4174C24FD5","name":"頌雅路 (TP374)","lat":"22.457130","long":"114.172417"},{"id":"378DA3C43904CFF9","name":"大元邨　 (TP740)","lat":"22.456236","long":"114.170374"},{"id":"9FBD2D7974A0AB50","name":"沐恩中學 (TP741)","lat":"22.456232","long":"114.167196"},{"id":"F9AB54847EF884BB","name":"大埔翠怡街 (TP340)","lat":"22.453706","long":"114.162903"},{"id":"74648B92E0E80E2E","name":"白石角變電站 (PA201)","lat":"22.434893","long":"114.201372"},{"id":"261392BB77CC768D","name":"天賦海灣 (PA203)","lat":"22.431492","long":"114.201558"},{"id":"07AB149DAD888683","name":"雲滙 (PA207)","lat":"22.429805","long":"114.203323"},{"id":"3A7AC3A5F9530786","name":"創新路 (PA210)","lat":"22.428649","long":"114.204981"},{"id":"39E7051B17D302DA","name":"科研路 (PA214)","lat":"22.426442","long":"114.208450"},{"id":"1C6EAAF5F48167F9","name":"科學園(第一期) (PA219)","lat":"22.424272","long":"114.211589"},{"id":"1D1571E9D1588FBE","name":"香港生物科技研究院 (PA231)","lat":"22.422664","long":"114.214179"},{"id":"64101F297D3C1C55","name":"水上活動中心 (PA234)","lat":"22.418662","long":"114.214271"},{"id":"5B39CC28607910E4","name":"馬料水公眾碼頭 (PA237)","lat":"22.416027","long":"114.213945"},{"id":"30D564180B68ECA8","name":"大老山隧道 (A2) (ST791)","lat":"22.377526","long":"114.212311"},{"id":"9A0959AB68FA5E1F","name":"九龍灣臨華街 (KT123)","lat":"22.323512","long":"114.208973"},{"id":"5D8FCEF2915882FD","name":"觀塘順業街 (KT200)","lat":"22.316313","long":"114.214785"},{"id":"C2605DED84199B84","name":"觀塘勵業街 (KT201)","lat":"22.314912","long":"114.216362"},{"id":"BF8E440F5584D39D","name":"觀塘巧明街 (KT202)","lat":"22.311960","long":"114.219656"},{"id":"9C839C3824F47A6A","name":"聖安當女書院 (LT367)","lat":"22.300362","long":"114.238520"},{"id":"CB4BB0008A87E4FC","name":"油塘邨 (LT368)","lat":"22.298144","long":"114.239225"},{"id":"AFE8CE5FCE951B89","name":"鯉魚門邨 (LT390)","lat":"22.294774","long":"114.239286"},{"id":"500EB63FD4A41F66","name":"嘉榮街 (LT392)","lat":"22.293859","long":"114.238561"},{"id":"0D8135B0D81F29A1","name":"油塘巴士總站 (LT961)","lat":"22.295807","long":"114.238556"}],"routeId":"74","description":"正常班次"},{"company":"kmb","route":"74","routeType":"1","dir":"I","orig":"油塘","dest":"富蝶總站","stopList":[{"id":"0D8135B0D81F29A1","name":"油塘巴士總站 (LT961)","lat":"22.295807","long":"114.238556"},{"id":"F60CC440E22B0BD9","name":"鯉魚門廣場 (LT600)","lat":"22.296278","long":"114.239716"},{"id":"3C6DAB7267F9E54F","name":"油塘邨 (LT602)","lat":"22.299326","long":"114.238661"},{"id":"73E85E88E124EF2C","name":"聖安當女書院 (LT605)","lat":"22.301615","long":"114.237487"},{"id":"6C6B36F7550907CE","name":"藍田站 (LT608)","lat":"22.305444","long":"114.234043"},{"id":"FF6E49051D6D9A8C","name":"麗港公園 (LT421)","lat":"22.307955","long":"114.226733"},{"id":"70CD99F4D487740A","name":"觀塘巧明街 (KT572)","lat":"22.313431","long":"114.217776"},{"id":"992F89F2265F8D8D","name":"觀塘順業街 (KT573)","lat":"22.315896","long":"114.214922"},{"id":"1E71CBFE8560B0EF","name":"九龍灣臨華街 (KT479)","lat":"22.322347","long":"114.208909"},{"id":"9274EF6791CA3ED8","name":"大老山隧道 (B1) (ST113)","lat":"22.376864","long":"114.211807"},{"id":"739A5DDE0CF1970C","name":"馬料水公眾碼頭 (PA100)","lat":"22.415908","long":"114.213778"},{"id":"34E1E68A3C2AFE81","name":"水上活動中心 (PA102)","lat":"22.420023","long":"114.214250"},{"id":"2D1A8946EF054FC9","name":"香港生物科技研究院 (PA107)","lat":"22.423223","long":"114.213922"},{"id":"DADEC4FDAD7C58B3","name":"科學園(第一期) (PA122)","lat":"22.424247","long":"114.211432"},{"id":"E8F5E085BAEFE100","name":"科研路 (PA124)","lat":"22.426628","long":"114.208027"},{"id":"79FD1B44D37205B8","name":"雲滙 (PA127)","lat":"22.429561","long":"114.203338"},{"id":"369A5601F8A63B5E","name":"白石角 (PA129)","lat":"22.431492","long":"114.201512"},{"id":"A339426A8F633D63","name":"白石角變電站 (PA130)","lat":"22.433895","long":"114.200812"},{"id":"E796B592A3D045F0","name":"大埔公眾泳池 (TP245)","lat":"22.454643","long":"114.163986"},{"id":"F9C14690633CE7E0","name":"太平工業中心 (TP616)","lat":"22.456967","long":"114.168023"},{"id":"7BCFD79F22F60457","name":"富亨邨 (TP617)","lat":"22.456330","long":"114.170752"},{"id":"628613296EF92C64","name":"聖母聖心小學 (TP400)","lat":"22.456884","long":"114.172119"},{"id":"0962265A8720C38C","name":"富亨邨亨榮樓 (TP402)","lat":"22.459967","long":"114.172871"},{"id":"0920C5393C3560ED","name":"富蝶總站 (TP925)","lat":"22.462699","long":"114.176025"}],"routeId":"74","description":"正常班次"},{"company":"gmb","route":"74","routeType":1,"orig":"九龍站","dest":"旺角(聯運街)(循環線)","stopList":[{"id":20000691,"name":"九龍站","lat":"22.305014","long":"114.162919"},{"id":20020361,"name":"雅翔道, 近環球貿易廣場","lat":"22.303512","long":"114.159767"},{"id":20016267,"name":"博物館道, 近西九文化區藝術公園 ","lat":"22.300925","long":"114.157331"},{"id":20000694,"name":"渡船街, 近文英樓","lat":"22.307163","long":"114.167189"},{"id":20013231,"name":"廣東道, 近北海街","lat":"22.308366","long":"114.168578"},{"id":20013199,"name":"眾坊街, 近駿發花園","lat":"22.309974","long":"114.169069"},{"id":20020066,"name":"新填地街, 近永星里","lat":"22.310602","long":"114.169310"},{"id":20013200,"name":"永星里, 近雅達商業大廈","lat":"22.310845","long":"114.170458"},{"id":20013201,"name":"彌敦道, 近永星里","lat":"22.311041","long":"114.170912"},{"id":20006085,"name":"窩打老道, 近青年會","lat":"22.313593","long":"114.171662"},{"id":20000626,"name":"窩打老道, 近廣華醫院主座大樓東翼","lat":"22.314885","long":"114.172633"},{"id":20006093,"name":"廣華街, 近煙廠街","lat":"22.316348","long":"114.173041"},{"id":20000627,"name":"染布房街, 近依利大廈","lat":"22.319111","long":"114.172876"},{"id":20007744,"name":"聯運街, 近聯運街休憩處","lat":"22.321172","long":"114.172274"},{"id":20013202,"name":"洗衣街, 近鴻德大廈","lat":"22.322733","long":"114.170938"},{"id":20000628,"name":"太子道西, 近別樹一居","lat":"22.324087","long":"114.169459"},{"id":20013203,"name":"西洋菜南街, 近生發大廈","lat":"22.322264","long":"114.169439"},{"id":20013238,"name":"洗衣街, 近快富街","lat":"22.320423","long":"114.171578"},{"id":20000912,"name":"亞皆老街113號","lat":"22.320159","long":"114.173341"},{"id":20000721,"name":"窩打老道, 近萬基大廈","lat":"22.320195","long":"114.176855"},{"id":20013232,"name":"窩打老道, 近何文田街","lat":"22.317465","long":"114.174803"},{"id":20013204,"name":"窩打老道, 近九龍華仁書院","lat":"22.314600","long":"114.172714"},{"id":20013205,"name":"窩打老道, 近油麻地救護站","lat":"22.313029","long":"114.171440"},{"id":20013206,"name":"窩打老道, 近金輝大廈","lat":"22.312746","long":"114.169843"},{"id":20000870,"name":"上海街, 近文明里休憩花園","lat":"22.311426","long":"114.169751"},{"id":20013239,"name":"上海街, 近海景絲麗酒店","lat":"22.310212","long":"114.169976"},{"id":20013207,"name":"上海街, 近西貢街","lat":"22.307565","long":"114.169847"},{"id":20000462,"name":"佐敦道38號","lat":"22.305457","long":"114.168839"},{"id":20010064,"name":"佐敦道, 近西九龍站","lat":"22.306210","long":"114.164654"},{"id":20013233,"name":"佐敦道, 近擎天半島","lat":"22.306731","long":"114.162806"},{"id":20013208,"name":"九龍站","lat":"22.305039","long":"114.162857"}],"routeId":2005385,"description":"正常班次"},{"company":"gmb","route":"74","routeType":1,"orig":"元朗(福康街)","dest":"盛屋村","stopList":[{"id":20015409,"name":"福康街, 近金寶樓","lat":"22.445104","long":"114.028575"},{"id":20004200,"name":"安樂路, 近大橋","lat":"22.447473","long":"114.026722"},{"id":20016674,"name":"福喜街, 近楊屋新村休憩處","lat":"22.451384","long":"114.025166"},{"id":20016675,"name":"福順街, 近盛屋村廣陵堂","lat":"22.463872","long":"114.018373"}],"routeId":2008554,"description":"正常班次"},{"company":"gmb","route":"74","routeType":2,"orig":"盛屋村","dest":"元朗(福康街)","stopList":[{"id":20016675,"name":"福順街, 近盛屋村廣陵堂","lat":"22.463872","long":"114.018373"},{"id":20007312,"name":"媽橫路, 近朗屏站","lat":"22.447539","long":"114.023838"},{"id":20016676,"name":"壽富街, 近元朗政府合署","lat":"22.445107","long":"114.027180"},{"id":20015409,"name":"福康街, 近金寶樓","lat":"22.445104","long":"114.028575"}],"routeId":2008554,"description":"正常班次"}]