[{"company":"kmb","route":"74F","routeType":"1","dir":"O","orig":"觀塘碼頭","dest":"香港教育大學","stopList":[{"id":"6F666C5235BD859B","name":"觀塘碼頭","lat":"22.308102","long":"114.221728"},{"id":"E70EDF92FE8553E2","name":"敬業街","lat":"22.308228","long":"114.225840"},{"id":"FAAD25334A972923","name":"成業街休憩公園","lat":"22.309323","long":"114.228480"},{"id":"42AF8D1ADA2FA6C0","name":"apm創紀之城5期 (D3)","lat":"22.312134","long":"114.224992"},{"id":"C9A46DDC082BAEE0","name":"觀塘轉車站 - 創紀之城 (B1)","lat":"22.314351","long":"114.220671"},{"id":"BBDFF2D05E37EE61","name":"觀塘定富街","lat":"22.316772","long":"114.215491"},{"id":"266A4CDA19461A42","name":"牛頭角下邨","lat":"22.320432","long":"114.214418"},{"id":"31852497A98F4A15","name":"德福花園","lat":"22.322570","long":"114.214311"},{"id":"26A996F589C84844","name":"九龍灣站","lat":"22.325428","long":"114.213973"},{"id":"F374B56E275194D8","name":"啟泰苑","lat":"22.328563","long":"114.212227"},{"id":"F1ED37F1BA6D054F","name":"牛池灣轉車站 - 紅萼樓 (H6)","lat":"22.337035","long":"114.206039"},{"id":"9274EF6791CA3ED8","name":"大老山隧道 (B1)","lat":"22.376864","long":"114.211807"},{"id":"75BC2D1936D0EACD","name":"大埔海濱公園","lat":"22.451677","long":"114.177012"},{"id":"DAC33107054B9FED","name":"魚角","lat":"22.458094","long":"114.177443"},{"id":"4705F639E370A9AD","name":"大埔大發街","lat":"22.458615","long":"114.181310"},{"id":"CAB927254C5D8892","name":"大埔大昌街","lat":"22.457166","long":"114.186861"},{"id":"ADF5445FF5059D45","name":"大埔工業邨","lat":"22.457664","long":"114.187690"},{"id":"BB33B8049C297ADD","name":"大埔大貴街","lat":"22.460760","long":"114.188164"},{"id":"5998A11C63EAB82E","name":"大埔東消防局","lat":"22.462336","long":"114.190670"}],"routeId":"74F","description":"正常班次"},{"company":"kmb","route":"74F","routeType":"1","dir":"I","orig":"香港教育大學","dest":"觀塘碼頭","stopList":[{"id":"551DEE0C7120DECD","name":"大埔大昌街","lat":"22.456990","long":"114.187146"},{"id":"916501787D3948F1","name":"大埔大發街","lat":"22.458961","long":"114.180318"},{"id":"4197D80D370042C2","name":"魚角","lat":"22.458106","long":"114.177936"},{"id":"790B8E94D15A0888","name":"大埔海濱公園","lat":"22.452289","long":"114.177642"},{"id":"30D564180B68ECA8","name":"大老山隧道 (A2)","lat":"22.377526","long":"114.212311"},{"id":"D80313EC29620E1D","name":"彩虹轉車站 - 碧海樓 (M5)","lat":"22.335577","long":"114.204862"},{"id":"D9B53E4B3A192940","name":"啟業邨","lat":"22.330213","long":"114.210981"},{"id":"060699911C9E300F","name":"九龍灣站","lat":"22.325434","long":"114.214338"},{"id":"9E256D7EE9FE68BC","name":"牛頭角下邨","lat":"22.321332","long":"114.214686"},{"id":"DF942A6B97EABDC4","name":"觀塘道休憩處","lat":"22.317953","long":"114.215055"},{"id":"136E2FF5A3A98495","name":"牛頭角站 (V2)","lat":"22.315168","long":"114.219594"},{"id":"80B56E2C7719DAF4","name":"觀塘轉車站 - 觀塘市中心 (T1)","lat":"22.313016","long":"114.225006"},{"id":"71E3EB7E709522C7","name":"觀塘開源道","lat":"22.309769","long":"114.223892"},{"id":"8D0555A78A132018","name":"觀塘碼頭 (落客站)","lat":"22.307430","long":"114.221682"}],"routeId":"74F","description":"正常班次"}]