[{"company":"gmb","route":"76A","routeType":1,"orig":"廣田","dest":"基督教聯合醫院(循環線)","stopList":[{"id":20015046,"name":"廣田邨小巴總站","lat":"22.302756","long":"114.241324"},{"id":20015047,"name":"碧雲道, 近康栢苑祥栢閣","lat":"22.303165","long":"114.238675"},{"id":20015048,"name":"碧雲道, 近康雅苑杏雅閣","lat":"22.304504","long":"114.238206"},{"id":20015049,"name":"碧雲道, 近德田邨德康樓","lat":"22.307775","long":"114.239285"},{"id":20015050,"name":"碧雲道, 近德田邨德田停車場","lat":"22.309317","long":"114.238950"},{"id":20015051,"name":"碧雲道, 近德田邨德敬樓","lat":"22.310962","long":"114.238253"},{"id":20020171,"name":"連德道興田邨外近燈柱 AA6591","lat":"22.312265","long":"114.238383"},{"id":20015052,"name":"連德道, 近興田邨彩田樓","lat":"22.313000","long":"114.239398"},{"id":20015053,"name":"連德道, 近康華苑宏康閣","lat":"22.313663","long":"114.240511"},{"id":20014133,"name":"曉光街上秀茂坪巴士總站","lat":"22.315301","long":"114.236415"},{"id":20014134,"name":"秀明道, 秀明樓外","lat":"22.316048","long":"114.233816"},{"id":20003072,"name":"秀明道, 秀富樓外","lat":"22.317052","long":"114.232265"},{"id":20014135,"name":"秀明道秀潤樓外","lat":"22.317957","long":"114.231809"},{"id":20014136,"name":"秀明道, 秀茂坪商場對面","lat":"22.320120","long":"114.231319"},{"id":20014137,"name":"秀明道秀義樓對面","lat":"22.322014","long":"114.230166"},{"id":20020172,"name":"秀茂坪道寧波第二中學外","lat":"22.323956","long":"114.228673"},{"id":20020173,"name":"協和街聯合醫院外","lat":"22.321728","long":"114.226334"},{"id":20019204,"name":"基督教聯合醫院小巴總站","lat":"22.322832","long":"114.226986"},{"id":20020174,"name":"秀雅道近燈柱 AF0631","lat":"22.321517","long":"114.227479"},{"id":20015058,"name":"協和街, 近高雷中學","lat":"22.322004","long":"114.226069"},{"id":20015059,"name":"順安道, 近順天邨天瑤樓","lat":"22.326975","long":"114.226199"},{"id":20015060,"name":"順安道, 近順天巴士總站","lat":"22.326493","long":"114.227352"},{"id":20016234,"name":"秀明道, 秀雅樓外","lat":"22.323348","long":"114.229968"},{"id":20017818,"name":"秀明道, 秀義樓外 ","lat":"22.322644","long":"114.229798"},{"id":20014147,"name":"秀明道基督教聖約教會堅樂小學外","lat":"22.320424","long":"114.231513"},{"id":20017819,"name":"秀明道, 秀逸樓外 ","lat":"22.317827","long":"114.231963"},{"id":20014149,"name":"秀明道, 秀富樓對面","lat":"22.317014","long":"114.232470"},{"id":20014150,"name":"秀明道路德會聖馬太小學外","lat":"22.316342","long":"114.233779"},{"id":20017820,"name":"秀明道觀塘官立小學(秀明道)對面 ","lat":"22.315381","long":"114.234411"},{"id":20001020,"name":"曉光街上秀茂坪巴士總站對面","lat":"22.315028","long":"114.235691"},{"id":20020175,"name":"連德道康華苑對面近燈柱 AA6583","lat":"22.314014","long":"114.240705"},{"id":20015065,"name":"連德道, 近興田邨彩田樓","lat":"22.313126","long":"114.239903"},{"id":20020176,"name":"碧雲道藍田公園外","lat":"22.310967","long":"114.238388"},{"id":20015066,"name":"碧雲道, 近德田邨德田停車場","lat":"22.309313","long":"114.239088"},{"id":20015067,"name":"碧雲道, 近德田邨德隆樓","lat":"22.306689","long":"114.239230"},{"id":20020177,"name":"碧雲道廣靖樓巴士站","lat":"22.304279","long":"114.238324"},{"id":20015068,"name":"碧雲道, 近廣田商場","lat":"22.302550","long":"114.239964"},{"id":20015046,"name":"廣田邨小巴總站","lat":"22.302756","long":"114.241324"}],"routeId":2006969,"description":"正常班次"},{"company":"gmb","route":"76A","routeType":1,"orig":"廣田","dest":"基督教聯合醫院(循環線)","stopList":[{"id":20013061,"name":"廣田邨巴士總站","lat":"22.302574","long":"114.241167"},{"id":20016634,"name":"碧雲道, 近康栢苑祥栢閣","lat":"22.303470","long":"114.238454"},{"id":20015048,"name":"碧雲道, 近康雅苑杏雅閣","lat":"22.304504","long":"114.238206"},{"id":20015049,"name":"碧雲道, 近德田邨德康樓","lat":"22.307775","long":"114.239285"},{"id":20015050,"name":"碧雲道, 近德田邨德田停車場","lat":"22.309317","long":"114.238950"},{"id":20015051,"name":"碧雲道, 近德田邨德敬樓","lat":"22.310962","long":"114.238253"},{"id":20020171,"name":"連德道興田邨外近燈柱 AA6591","lat":"22.312265","long":"114.238383"},{"id":20015052,"name":"連德道, 近興田邨彩田樓","lat":"22.313000","long":"114.239398"},{"id":20015053,"name":"連德道, 近康華苑宏康閣","lat":"22.313663","long":"114.240511"},{"id":20002551,"name":"秀茂坪道, 近秀茂坪邨秀暉樓","lat":"22.316969","long":"114.235759"},{"id":20015055,"name":"秀茂坪道, 近秀茂坪邨秀程樓","lat":"22.319513","long":"114.233775"},{"id":20015056,"name":"秀茂坪道, 近秀茂坪邨秀義樓","lat":"22.322844","long":"114.230699"},{"id":20020172,"name":"秀茂坪道寧波第二中學外","lat":"22.323956","long":"114.228673"},{"id":20020173,"name":"協和街聯合醫院外","lat":"22.321728","long":"114.226334"},{"id":20019204,"name":"基督教聯合醫院小巴總站","lat":"22.322832","long":"114.226986"},{"id":20020174,"name":"秀雅道近燈柱 AF0631","lat":"22.321517","long":"114.227479"},{"id":20015058,"name":"協和街, 近高雷中學","lat":"22.322004","long":"114.226069"},{"id":20015059,"name":"順安道, 近順天邨天瑤樓","lat":"22.326975","long":"114.226199"},{"id":20015060,"name":"順安道, 近順天巴士總站","lat":"22.326493","long":"114.227352"},{"id":20015061,"name":"秀茂坪道, 近秀茂坪邨秀義樓","lat":"22.322927","long":"114.230816"},{"id":20015062,"name":"秀茂坪道, 近秀茂坪邨秀程樓","lat":"22.319736","long":"114.233766"},{"id":20015063,"name":"秀茂坪道, 近寶達商場","lat":"22.317202","long":"114.235818"},{"id":20020175,"name":"連德道康華苑對面近燈柱 AA6583","lat":"22.314014","long":"114.240705"},{"id":20015065,"name":"連德道, 近興田邨彩田樓","lat":"22.313126","long":"114.239903"},{"id":20020176,"name":"碧雲道藍田公園外","lat":"22.310967","long":"114.238388"},{"id":20015066,"name":"碧雲道, 近德田邨德田停車場","lat":"22.309313","long":"114.239088"},{"id":20015067,"name":"碧雲道, 近德田邨德隆樓","lat":"22.306689","long":"114.239230"},{"id":20020177,"name":"碧雲道廣靖樓巴士站","lat":"22.304279","long":"114.238324"},{"id":20015068,"name":"碧雲道, 近廣田商場","lat":"22.302550","long":"114.239964"},{"id":20013061,"name":"廣田邨巴士總站","lat":"22.302574","long":"114.241167"}],"routeId":2010335,"description":"正常班次"}]