[{"company":"gmb","route":"76A","routeType":1,"orig":"廣田","dest":"基督教聯合醫院(循環線)","stopList":[{"id":20015046,"name":"廣田邨小巴總站","lat":22.302756045675814,"long":114.24132406700667},{"id":20015047,"name":"碧雲道, 近康栢苑祥栢閣","lat":22.303165021178824,"long":114.23867493851506},{"id":20015048,"name":"碧雲道, 近康雅苑杏雅閣","lat":22.304503746508136,"long":114.23820555238181},{"id":20015049,"name":"碧雲道, 近德田邨德康樓","lat":22.307774839227864,"long":114.23928469397651},{"id":20015050,"name":"碧雲道, 近德田邨德田停車場","lat":22.309317360144725,"long":114.23895031186477},{"id":20015051,"name":"碧雲道, 近德田邨德敬樓","lat":22.31096208866211,"long":114.23825338477401},{"id":20020171,"name":"連德道興田邨外近燈柱 AA6591","lat":22.3122645778464,"long":114.23838257789613},{"id":20015052,"name":"連德道, 近興田邨彩田樓","lat":22.313000307428247,"long":114.23939779400827},{"id":20015053,"name":"連德道, 近康華苑宏康閣","lat":22.313662832941407,"long":114.24051091074946},{"id":20014133,"name":"曉光街上秀茂坪巴士總站","lat":22.315300802163232,"long":114.23641478429795},{"id":20014134,"name":"秀明道, 秀明樓外","lat":22.3160484423085,"long":114.23381561049621},{"id":20003072,"name":"秀明道, 秀富樓外","lat":22.317051697589683,"long":114.23226539256129},{"id":20014135,"name":"秀明道秀潤樓外","lat":22.31795660465312,"long":114.23180858742806},{"id":20014136,"name":"秀明道, 秀茂坪商場對面","lat":22.320119900993788,"long":114.23131890494454},{"id":20014137,"name":"秀明道秀義樓對面","lat":22.322014458674275,"long":114.23016603094396},{"id":20020172,"name":"秀茂坪道寧波第二中學外","lat":22.323956388100473,"long":114.22867298126222},{"id":20020173,"name":"協和街聯合醫院外","lat":22.32172827060163,"long":114.22633409500123},{"id":20019204,"name":"基督教聯合醫院小巴總站","lat":22.32283206753716,"long":114.22698587179187},{"id":20020174,"name":"秀雅道近燈柱 AF0631","lat":22.32151736676811,"long":114.2274793982506},{"id":20015058,"name":"協和街, 近高雷中學","lat":22.322003685716105,"long":114.22606855630877},{"id":20015059,"name":"順安道, 近順天邨天瑤樓","lat":22.32697471101859,"long":114.226198643446},{"id":20015060,"name":"順安道, 近順天巴士總站","lat":22.326493371665954,"long":114.2273519933224},{"id":20016234,"name":"秀明道, 秀雅樓外","lat":22.323348375730596,"long":114.22996781582442},{"id":20017818,"name":"秀明道, 秀義樓外 ","lat":22.32211773558263,"long":114.23027847793406},{"id":20014147,"name":"秀明道基督教聖約教會堅樂小學外","lat":22.3210591828236,"long":114.23115469515325},{"id":20017819,"name":"秀明道, 秀逸樓外 ","lat":22.317826692109847,"long":114.23196300703476},{"id":20014149,"name":"秀明道, 秀富樓對面","lat":22.31701384043704,"long":114.23247018692432},{"id":20014150,"name":"秀明道路德會聖馬太小學外","lat":22.316341959991547,"long":114.2337791513313},{"id":20017820,"name":"秀明道觀塘官立小學(秀明道)對面 ","lat":22.3153806089405,"long":114.23441139035529},{"id":20001020,"name":"曉光街上秀茂坪巴士總站對面","lat":22.315027637154166,"long":114.23569069248825},{"id":20020175,"name":"連德道康華苑對面近燈柱 AA6583","lat":22.314013945375034,"long":114.24070537090303},{"id":20015065,"name":"連德道, 近興田邨彩田樓","lat":22.313125616801983,"long":114.23990339040759},{"id":20020176,"name":"碧雲道藍田公園外","lat":22.310966805929112,"long":114.23838794231416},{"id":20015066,"name":"碧雲道, 近德田邨德田停車場","lat":22.3093129357084,"long":114.23908799886705},{"id":20015067,"name":"碧雲道, 近德田邨德隆樓","lat":22.306688787847218,"long":114.23923015594484},{"id":20020177,"name":"碧雲道廣靖樓巴士站","lat":22.30427924317166,"long":114.23832356929779},{"id":20015068,"name":"碧雲道, 近廣田商場","lat":22.30254960617407,"long":114.2399637401104},{"id":20015046,"name":"廣田邨小巴總站","lat":22.302756045675814,"long":114.24132406700667}],"routeId":2006969,"description":"正常班次"},{"company":"gmb","route":"76A","routeType":1,"orig":"廣田","dest":"基督教聯合醫院(循環線)","stopList":[{"id":20013061,"name":"廣田邨巴士總站","lat":22.302574421777415,"long":114.24116671068988},{"id":20016634,"name":"碧雲道, 近康栢苑祥栢閣","lat":22.303470415237143,"long":114.23845423180362},{"id":20015048,"name":"碧雲道, 近康雅苑杏雅閣","lat":22.304503746508136,"long":114.23820555238181},{"id":20015049,"name":"碧雲道, 近德田邨德康樓","lat":22.307774839227864,"long":114.23928469397651},{"id":20015050,"name":"碧雲道, 近德田邨德田停車場","lat":22.309317360144725,"long":114.23895031186477},{"id":20015051,"name":"碧雲道, 近德田邨德敬樓","lat":22.31096208866211,"long":114.23825338477401},{"id":20020171,"name":"連德道興田邨外近燈柱 AA6591","lat":22.3122645778464,"long":114.23838257789613},{"id":20015052,"name":"連德道, 近興田邨彩田樓","lat":22.313000307428247,"long":114.23939779400827},{"id":20015053,"name":"連德道, 近康華苑宏康閣","lat":22.313662832941407,"long":114.24051091074946},{"id":20002551,"name":"秀茂坪道, 近秀茂坪邨秀暉樓","lat":22.316969190118403,"long":114.23575944711746},{"id":20015055,"name":"秀茂坪道, 近秀茂坪邨秀程樓","lat":22.319512523823313,"long":114.23377454280853},{"id":20015056,"name":"秀茂坪道, 近秀茂坪邨秀義樓","lat":22.322843574398107,"long":114.23069939017296},{"id":20020172,"name":"秀茂坪道寧波第二中學外","lat":22.323956388100473,"long":114.22867298126222},{"id":20020173,"name":"協和街聯合醫院外","lat":22.32172827060163,"long":114.22633409500123},{"id":20019204,"name":"基督教聯合醫院小巴總站","lat":22.32283206753716,"long":114.22698587179187},{"id":20020174,"name":"秀雅道近燈柱 AF0631","lat":22.32151736676811,"long":114.2274793982506},{"id":20015058,"name":"協和街, 近高雷中學","lat":22.322003685716105,"long":114.22606855630877},{"id":20015059,"name":"順安道, 近順天邨天瑤樓","lat":22.32697471101859,"long":114.226198643446},{"id":20015060,"name":"順安道, 近順天巴士總站","lat":22.326493371665954,"long":114.2273519933224},{"id":20015061,"name":"秀茂坪道, 近秀茂坪邨秀義樓","lat":22.322926694568835,"long":114.23081606626513},{"id":20015062,"name":"秀茂坪道, 近秀茂坪邨秀程樓","lat":22.31973583696278,"long":114.2337664961815},{"id":20015063,"name":"秀茂坪道, 近寶達商場","lat":22.31720245249319,"long":114.2358183860779},{"id":20020175,"name":"連德道康華苑對面近燈柱 AA6583","lat":22.314013945375034,"long":114.24070537090303},{"id":20015065,"name":"連德道, 近興田邨彩田樓","lat":22.313125616801983,"long":114.23990339040759},{"id":20020176,"name":"碧雲道藍田公園外","lat":22.310966805929112,"long":114.23838794231416},{"id":20015066,"name":"碧雲道, 近德田邨德田停車場","lat":22.3093129357084,"long":114.23908799886705},{"id":20015067,"name":"碧雲道, 近德田邨德隆樓","lat":22.306688787847218,"long":114.23923015594484},{"id":20020177,"name":"碧雲道廣靖樓巴士站","lat":22.30427924317166,"long":114.23832356929779},{"id":20015068,"name":"碧雲道, 近廣田商場","lat":22.30254960617407,"long":114.2399637401104},{"id":20013061,"name":"廣田邨巴士總站","lat":22.302574421777415,"long":114.24116671068988}],"routeId":2010335,"description":"正常班次"}]