[{"company":"gmb","route":"77M","routeType":1,"orig":"九龍站","dest":"尖東(循環線)","stopList":[{"id":20000691,"name":"九龍站專線小巴總站","lat":"22.305014","long":"114.162919"},{"id":20016267,"name":"博物館道, 近西九文化區藝術公園 ","lat":"22.300925","long":"114.157331"},{"id":20002816,"name":"廣東道港景峰外","lat":"22.302467","long":"114.168111"},{"id":20006919,"name":"廣東道中港中心外","lat":"22.299090","long":"114.168693"},{"id":20006100,"name":"廣東道力寶太陽廣場外","lat":"22.296778","long":"114.169169"},{"id":20000411,"name":"中間道兒童遊樂場","lat":"22.295153","long":"114.174351"},{"id":20012540,"name":"漢口道","lat":"22.296060","long":"114.171260"},{"id":20006918,"name":"九龍公園徑北行外巴士站","lat":"22.295767","long":"114.170246"},{"id":20000446,"name":"廣東道中港城外","lat":"22.300499","long":"114.168111"},{"id":20000691,"name":"九龍站專線小巴總站","lat":"22.305014","long":"114.162919"}],"routeId":2003339,"description":"正常班次"}]