[{"company":"gmb","route":"77M","routeType":1,"orig":"九龍站","dest":"尖東(循環線)","stopList":[{"id":20000691,"name":"九龍站專線小巴總站","lat":22.305013751416574,"long":114.16291860312879},{"id":20016267,"name":"博物館道，近西九文化區藝術公園 ","lat":22.300925237865254,"long":114.15733084435831},{"id":20002816,"name":"廣東道港景峰外","lat":22.302467481045863,"long":114.16811092242634},{"id":20006919,"name":"廣東道中港中心外","lat":22.29909006128294,"long":114.16869340590769},{"id":20006100,"name":"廣東道力寶太陽廣場外","lat":22.296778246178974,"long":114.16916905562171},{"id":20000411,"name":"中間道兒童遊樂場","lat":22.29515289635965,"long":114.17435123686256},{"id":20012540,"name":"漢口道","lat":22.296059821232465,"long":114.17126029729845},{"id":20006918,"name":"九龍公園徑北行外巴士站","lat":22.29576686400538,"long":114.17024629201198},{"id":20000446,"name":"廣東道中港城外","lat":22.30049880715113,"long":114.1681110445883},{"id":20000691,"name":"九龍站專線小巴總站","lat":22.305013751416574,"long":114.16291860312879}],"routeId":2003339,"description":"正常班次"}]