[{"company":"kmb","route":"78S","routeType":"1","dir":"O","orig":"上水","dest":"沙頭角","stopList":[{"id":"60AEF6D3AA7AAC41","name":"上水轉車站 - 上水總站(A1)","lat":"22.502744","long":"114.127704"},{"id":"07EEE519D04FFE28","name":"粉嶺站轉車站 - 粉嶺站(C1)","lat":"22.491849","long":"114.139192"},{"id":"53BB93AAB2D45F3B","name":"聯和墟球場","lat":"22.497484","long":"114.143070"},{"id":"6C2DBC45160AA4BF","name":"逸峯","lat":"22.500694","long":"114.146110"},{"id":"8EA1F6CDA69E539C","name":"担水坑","lat":"22.544982","long":"114.219009"},{"id":"8EC63D8C071F72C4","name":"沙頭角總站","lat":"22.545550","long":"114.223333"}],"routeId":"78S","description":"正常班次"},{"company":"kmb","route":"78S","routeType":"1","dir":"I","orig":"沙頭角","dest":"上水","stopList":[{"id":"8EC63D8C071F72C4","name":"沙頭角總站","lat":"22.545550","long":"114.223333"},{"id":"6E31EAD2D04F8310","name":"担水坑","lat":"22.544982","long":"114.219009"},{"id":"F8E6D797A84D5328","name":"新村","lat":"22.542457","long":"114.216798"},{"id":"11DB53AE44D5FB17","name":"塘肚","lat":"22.538651","long":"114.213584"},{"id":"D5FDE0F2F444CE0E","name":"沙頭角診所","lat":"22.536027","long":"114.210056"},{"id":"40B96472183BDCC5","name":"南涌","lat":"22.534156","long":"114.207512"},{"id":"085E45F8000A7EFE","name":"鹽灶下","lat":"22.532666","long":"114.205560"}],"routeId":"78S","description":"正常班次"}]