[{"company":"kmb","route":"78S","routeType":"1","dir":"O","orig":"上水","dest":"沙頭角","stopList":[{"id":"60AEF6D3AA7AAC41","name":"上水轉車站 - 上水總站(A1)","lat":"22.502744","long":"114.127704"},{"id":"07EEE519D04FFE28","name":"粉嶺站轉車站 - 粉嶺站(C1)","lat":"22.491849","long":"114.139192"},{"id":"53BB93AAB2D45F3B","name":"聯和墟球場","lat":"22.497484","long":"114.143070"},{"id":"6C2DBC45160AA4BF","name":"逸峯","lat":"22.500694","long":"114.146110"},{"id":"8EA1F6CDA69E539C","name":"担水坑","lat":"22.544982","long":"114.219009"},{"id":"AC1FD9BDD09D1DD6","name":"沙頭角總站","lat":"22.545496","long":"114.223617"}],"routeId":"78S","description":"正常班次"},{"company":"kmb","route":"78S","routeType":"1","dir":"I","orig":"沙頭角","dest":"上水","stopList":[{"id":"AC1FD9BDD09D1DD6","name":"沙頭角總站","lat":"22.545496","long":"114.223617"},{"id":"6E31EAD2D04F8310","name":"担水坑","lat":"22.544982","long":"114.219009"},{"id":"6573811D015A0818","name":"安樂村","lat":"22.499857","long":"114.145735"},{"id":"A22E315AD21129EB","name":"粉嶺樂和街","lat":"22.497002","long":"114.142831"},{"id":"EF78DD9F765C6565","name":"粉嶺站轉車站 - 祥華邨(A1)","lat":"22.492466","long":"114.140389"},{"id":"D4A97E2A758EDC64","name":"粉嶺站轉車站 - 粉嶺站(C1)","lat":"22.491702","long":"114.139360"},{"id":"D876A83244ECB838","name":"上水轉車站 - 上水站(B5)","lat":"22.501988","long":"114.127349"},{"id":"940F276037968281","name":"上水轉車站 - 上水總站(A2)","lat":"22.502434","long":"114.127853"}],"routeId":"78S","description":"正常班次"}]