[{"company":"ctb","route":"79","routeType":null,"dir":"I","orig":"大圍站 (經:大埔)","dest":"粉嶺皇后山 (經:大埔)","stopList":[{"id":"003633","name":"大圍站","lat":"22.373309","long":"114.180160"},{"id":"001909","name":"車公廟, 車公廟路","lat":"22.374611","long":"114.184014"},{"id":"001910","name":"秦石邨, 車公廟路","lat":"22.374475","long":"114.186633"},{"id":"003729","name":"曾大屋, 大涌橋路","lat":"22.375539","long":"114.188771"},{"id":"003730","name":"乙明邨, 大涌橋路","lat":"22.378409","long":"114.191764"},{"id":"003560","name":"瀝源邨, 源禾路","lat":"22.384495","long":"114.193292"},{"id":"003561","name":"禾輋邨, 源禾路","lat":"22.387762","long":"114.196371"},{"id":"002017","name":"廣福邨, 大埔公路","lat":"22.446409","long":"114.172965"},{"id":"003854","name":"東昌街康體大樓, 南運路","lat":"22.449731","long":"114.171710"},{"id":"003855","name":"大埔超級城, 大埔太和路","lat":"22.450948","long":"114.170017"},{"id":"003574","name":"林村河畔, 大埔太和路","lat":"22.450952","long":"114.166540"},{"id":"003410","name":"太和邨, 大埔太和路","lat":"22.452141","long":"114.163152"},{"id":"003673","name":"磚窰, 沙頭角公路","lat":"22.521192","long":"114.177843"},{"id":"003674","name":"大塘湖, 沙頭角公路","lat":"22.519623","long":"114.176221"},{"id":"003675","name":"馬尾下, 沙頭角公路","lat":"22.516993","long":"114.172517"},{"id":"003676","name":"孔嶺, 沙頭角公路","lat":"22.514154","long":"114.168140"},{"id":"003677","name":"高埔, 沙頭角公路","lat":"22.511913","long":"114.164843"},{"id":"003678","name":"流水響, 沙頭角公路","lat":"22.510579","long":"114.161553"},{"id":"003679","name":"軍地, 沙頭角公路","lat":"22.509946","long":"114.159992"},{"id":"003680","name":"新圍軍營, 沙頭角公路","lat":"22.507365","long":"114.155103"},{"id":"003878","name":"皇后山一號, 龍馬路","lat":"22.504839","long":"114.154417"},{"id":"003681","name":"皇后山邨","lat":"22.504042","long":"114.156209"},{"id":"003682","name":"山麗苑, 龍馬路","lat":"22.503592","long":"114.160984"},{"id":"003660","name":"皇后山邨","lat":"22.504072","long":"114.156520"}],"routeId":"79","description":"正常班次"},{"company":"ctb","route":"79","routeType":null,"dir":"O","orig":"粉嶺皇后山 (經:大埔)","dest":"大圍站 (經:大埔)","stopList":[{"id":"003660","name":"皇后山邨","lat":"22.504072","long":"114.156520"},{"id":"003661","name":"山麗苑, 龍馬路","lat":"22.503584","long":"114.160811"},{"id":"003663","name":"新圍軍營, 沙頭角公路","lat":"22.507504","long":"114.155068"},{"id":"003664","name":"軍地, 沙頭角公路","lat":"22.509644","long":"114.158806"},{"id":"003665","name":"流水響, 沙頭角公路","lat":"22.510597","long":"114.161217"},{"id":"003666","name":"高埔, 沙頭角公路","lat":"22.511823","long":"114.164297"},{"id":"003667","name":"孔嶺, 沙頭角公路","lat":"22.515066","long":"114.169112"},{"id":"003668","name":"馬尾下, 沙頭角公路","lat":"22.517399","long":"114.173026"},{"id":"003669","name":"大塘湖, 沙頭角公路","lat":"22.520146","long":"114.176495"},{"id":"003670","name":"磚窰, 沙頭角公路","lat":"22.521343","long":"114.178193"},{"id":"003797","name":"翠怡花園, 大埔太和路","lat":"22.452396","long":"114.163083"},{"id":"003726","name":"大埔舊墟遊樂場, 大埔太和路","lat":"22.451326","long":"114.165944"},{"id":"003853","name":"大埔超級城, 大埔太和路","lat":"22.451170","long":"114.169859"},{"id":"003411","name":"廣福邨廣智樓, 南運路","lat":"22.449730","long":"114.171925"},{"id":"002025","name":"廣福邨, 大埔公路","lat":"22.446524","long":"114.173529"},{"id":"003562","name":"禾輋邨, 源禾路","lat":"22.387268","long":"114.196097"},{"id":"003563","name":"瀝源邨, 源禾路","lat":"22.384016","long":"114.193034"},{"id":"003727","name":"乙明邨, 大涌橋路","lat":"22.377317","long":"114.190990"},{"id":"003728","name":"曾大屋, 大涌橋路","lat":"22.375518","long":"114.189103"},{"id":"001911","name":"秦石邨, 車公廟路","lat":"22.374290","long":"114.186753"},{"id":"001912","name":"車公廟, 車公廟路","lat":"22.374392","long":"114.184150"},{"id":"003633","name":"大圍站","lat":"22.373309","long":"114.180160"}],"routeId":"79","description":"正常班次"}]