[{"company":"ctb","route":"792M","routeType":null,"dir":"I","orig":"西貢","dest":"將軍澳站","stopList":[{"id":"002109","name":"西貢","lat":"22.382282832091","long":"114.27373034053"},{"id":"002135","name":"西貢大會堂, 普通道","lat":"22.382716192091","long":"114.27102432053"},{"id":"002136","name":"翠塘花園, 西貢公路","lat":"22.380841262091","long":"114.26892301053"},{"id":"002137","name":"菠蘿輋, 西貢公路","lat":"22.378570522091","long":"114.26558856053"},{"id":"002138","name":"北港, 西貢公路","lat":"22.375019182091","long":"114.26166016053"},{"id":"002139","name":"大涌口, 西貢公路","lat":"22.371752922091","long":"114.25996260053"},{"id":"002140","name":"白沙臺, 西貢公路","lat":"22.367535132091","long":"114.26008151053"},{"id":"002141","name":"白沙灣, 西貢公路","lat":"22.364648942091","long":"114.25934300053"},{"id":"002142","name":"漁民新村, 西貢公路","lat":"22.361835712091","long":"114.25695576053"},{"id":"002143","name":"北圍, 西貢公路","lat":"22.359800062091","long":"114.25261634053"},{"id":"002144","name":"匡湖居, 西貢公路","lat":"22.355658572091","long":"114.25156891053"},{"id":"003276","name":"南邊圍, 西貢公路","lat":"22.354350962091","long":"114.25064434053"},{"id":"003131","name":"響鐘村, 西貢公路","lat":"22.351899762091","long":"114.25146968053"},{"id":"002145","name":"窩美, 西貢公路","lat":"22.351207622091","long":"114.25243351053"},{"id":"002146","name":"南圍, 西貢公路","lat":"22.351838892091","long":"114.25321288053"},{"id":"002147","name":"大埔仔坳, 清水灣道","lat":"22.340556672091","long":"114.25843562053"},{"id":"003130","name":"香港科技大學, 大學道","lat":"22.338591932091","long":"114.26202701053"},{"id":"002148","name":"大埔仔村, 清水灣道","lat":"22.336441682091","long":"114.25940555053"},{"id":"002149","name":"銀影路, 清水灣道","lat":"22.330347172091","long":"114.26273279053"},{"id":"002150","name":"水邊村, 坑口道","lat":"22.321480452091","long":"114.26903120053"},{"id":"002151","name":"半見村, 坑口道","lat":"22.316904372091","long":"114.27069797053"},{"id":"002910","name":"明德邨, 寶寧路","lat":"22.317519292091","long":"114.26881290053"},{"id":"001737","name":"厚德邨, 寶寧路","lat":"22.319202182091","long":"114.26406339053"},{"id":"002905","name":"將軍澳游泳池, 寶順路","lat":"22.316981742091","long":"114.26113476053"},{"id":"001764","name":"調景嶺站, 景嶺路","lat":"22.305291742091","long":"114.25292725053"},{"id":"002906","name":"唐明街公園, 唐明街","lat":"22.310702812091","long":"114.25902390053"},{"id":"001728","name":"尚德邨尚智樓, 唐明街","lat":"22.311288322091","long":"114.26075763053"},{"id":"003159","name":"將軍澳運動場, 寶康路","lat":"22.310158322091","long":"114.26320030053"},{"id":"001818","name":"寶盈花園, 寶邑路","lat":"22.307711102091","long":"114.26217901053"},{"id":"002918","name":"將軍澳站","lat":"22.308567362091","long":"114.26004574053"}],"routeId":"792M","description":"正常班次"},{"company":"ctb","route":"792M","routeType":null,"dir":"O","orig":"將軍澳站","dest":"西貢","stopList":[{"id":"002918","name":"將軍澳站","lat":"22.308567362091","long":"114.26004574053"},{"id":"001823","name":"唐明街公園, 唐明街","lat":"22.310442242091","long":"114.25886195053"},{"id":"002917","name":"調景嶺站","lat":"22.304894682091","long":"114.25161911053"},{"id":"001821","name":"健明邨, 景嶺路","lat":"22.306625192091","long":"114.25182331053"},{"id":"003335","name":"將軍澳游泳池, 寶順路","lat":"22.316601182091","long":"114.26051127053"},{"id":"001726","name":"厚德邨, 寶寧路","lat":"22.319361992091","long":"114.26420930053"},{"id":"003701","name":"坑口站","lat":"22.315434372091","long":"114.26476927053"},{"id":"002911","name":"坑口 (北), 寶寧路","lat":"22.317575292091","long":"114.26907730053"},{"id":"002089","name":"將軍澳醫院, 坑口道","lat":"22.317430972091","long":"114.27086694053"},{"id":"002090","name":"聖雲仙天主堂, 坑口道","lat":"22.319501582091","long":"114.27023392053"},{"id":"002091","name":"水邊村, 坑口道","lat":"22.321353292091","long":"114.26894683053"},{"id":"002092","name":"影業路, 清水灣道","lat":"22.323993792091","long":"114.26848834053"},{"id":"002093","name":"銀影路, 清水灣道","lat":"22.330245302091","long":"114.26267758053"},{"id":"002094","name":"大埔仔村, 清水灣道","lat":"22.337105342091","long":"114.25908286053"},{"id":"003130","name":"香港科技大學, 大學道","lat":"22.338591932091","long":"114.26202701053"},{"id":"002095","name":"大埔仔坳, 清水灣道","lat":"22.340075192091","long":"114.25857876053"},{"id":"002096","name":"窩美, 新西貢公路","lat":"22.351678792091","long":"114.25179507053"},{"id":"002097","name":"南邊圍, 西貢公路","lat":"22.352872672091","long":"114.24970968053"},{"id":"002098","name":"蠔涌, 西貢公路","lat":"22.355479112091","long":"114.25134499053"},{"id":"002099","name":"北圍, 西貢公路","lat":"22.360510132091","long":"114.25403129053"},{"id":"002100","name":"漁民新村, 西貢公路","lat":"22.361887962091","long":"114.25692227053"},{"id":"002101","name":"白沙灣, 西貢公路","lat":"22.365178262091","long":"114.25947646053"},{"id":"002102","name":"白沙臺, 西貢公路","lat":"22.368431802091","long":"114.25985543053"},{"id":"002103","name":"大涌口, 西貢公路","lat":"22.372038282091","long":"114.25996552053"},{"id":"002104","name":"北港, 西貢公路","lat":"22.375585432091","long":"114.26228222053"},{"id":"002105","name":"菠蘿輋, 西貢公路","lat":"22.378705322091","long":"114.26555339053"},{"id":"002106","name":"翠塘花園, 西貢公路","lat":"22.380707582091","long":"114.26835695053"},{"id":"002107","name":"西貢大會堂, 普通道","lat":"22.382076842091","long":"114.27085957053"},{"id":"002108","name":"西貢警署, 福民路","lat":"22.383356232091","long":"114.27173777053"},{"id":"002109","name":"西貢","lat":"22.382282832091","long":"114.27373034053"}],"routeId":"792M","description":"正常班次"}]