[{"company":"ctb","route":"792M","routeType":null,"dir":"I","orig":"西貢","dest":"將軍澳站","stopList":[{"id":"002109","name":"西貢","lat":"22.382283","long":"114.273730"},{"id":"002135","name":"西貢大會堂, 普通道","lat":"22.382716","long":"114.271024"},{"id":"002136","name":"翠塘花園, 西貢公路","lat":"22.380841","long":"114.268923"},{"id":"002137","name":"菠蘿輋, 西貢公路","lat":"22.378571","long":"114.265589"},{"id":"002138","name":"北港, 西貢公路","lat":"22.375019","long":"114.261660"},{"id":"002139","name":"大涌口, 西貢公路","lat":"22.371753","long":"114.259963"},{"id":"002140","name":"白沙臺, 西貢公路","lat":"22.367535","long":"114.260082"},{"id":"002141","name":"白沙灣, 西貢公路","lat":"22.364649","long":"114.259343"},{"id":"002142","name":"漁民新村, 西貢公路","lat":"22.361836","long":"114.256956"},{"id":"002143","name":"北圍, 西貢公路","lat":"22.359800","long":"114.252616"},{"id":"002144","name":"匡湖居, 西貢公路","lat":"22.355659","long":"114.251569"},{"id":"003276","name":"南邊圍, 西貢公路","lat":"22.354351","long":"114.250644"},{"id":"003131","name":"響鐘村, 西貢公路","lat":"22.351900","long":"114.251470"},{"id":"002145","name":"窩美, 西貢公路","lat":"22.351208","long":"114.252434"},{"id":"002146","name":"南圍, 西貢公路","lat":"22.351839","long":"114.253213"},{"id":"002147","name":"大埔仔坳, 清水灣道","lat":"22.340557","long":"114.258436"},{"id":"003130","name":"香港科技大學, 大學道","lat":"22.338592","long":"114.262027"},{"id":"002148","name":"大埔仔村, 清水灣道","lat":"22.336442","long":"114.259406"},{"id":"002149","name":"銀影路, 清水灣道","lat":"22.330347","long":"114.262733"},{"id":"002150","name":"水邊村, 坑口道","lat":"22.321480","long":"114.269031"},{"id":"002151","name":"半見村, 坑口道","lat":"22.316904","long":"114.270698"},{"id":"002910","name":"明德邨, 寶寧路","lat":"22.317519","long":"114.268813"},{"id":"001828","name":"煜明苑, 昭信路","lat":"22.314542","long":"114.268464"},{"id":"001737","name":"厚德邨, 寶寧路","lat":"22.319202","long":"114.264063"},{"id":"002905","name":"將軍澳游泳池, 寶順路","lat":"22.316982","long":"114.261135"},{"id":"001764","name":"調景嶺站, 景嶺路","lat":"22.305292","long":"114.252927"},{"id":"002906","name":"TKO Spot, 唐明街","lat":"22.310703","long":"114.259024"},{"id":"001728","name":"尚德邨尚智樓, 唐明街","lat":"22.311288","long":"114.260758"},{"id":"003159","name":"將軍澳運動場, 寶康路","lat":"22.310158","long":"114.263200"},{"id":"001818","name":"寶盈花園, 寶邑路","lat":"22.307711","long":"114.262179"},{"id":"002918","name":"將軍澳站","lat":"22.308567","long":"114.260046"}],"routeId":"792M","description":"正常班次"},{"company":"ctb","route":"792M","routeType":null,"dir":"O","orig":"將軍澳站","dest":"西貢","stopList":[{"id":"002918","name":"將軍澳站","lat":"22.308567","long":"114.260046"},{"id":"001823","name":"唐明街公園, 唐明街","lat":"22.310442","long":"114.258862"},{"id":"002917","name":"調景嶺站","lat":"22.304895","long":"114.251619"},{"id":"001821","name":"健明邨, 景嶺路","lat":"22.306625","long":"114.251823"},{"id":"003335","name":"將軍澳游泳池, 寶順路","lat":"22.316601","long":"114.260511"},{"id":"001726","name":"厚德邨, 寶寧路","lat":"22.319362","long":"114.264209"},{"id":"002911","name":"將軍澳醫院主座大樓, 寶寧路","lat":"22.317575","long":"114.269077"},{"id":"002089","name":"將軍澳醫院, 坑口道","lat":"22.317431","long":"114.270867"},{"id":"002090","name":"聖雲仙天主堂, 坑口道","lat":"22.319502","long":"114.270234"},{"id":"002091","name":"水邊村, 坑口道","lat":"22.321353","long":"114.268947"},{"id":"002092","name":"影業路, 清水灣道","lat":"22.323994","long":"114.268488"},{"id":"002093","name":"銀影路, 清水灣道","lat":"22.330245","long":"114.262678"},{"id":"002094","name":"大埔仔村, 清水灣道","lat":"22.337105","long":"114.259083"},{"id":"003130","name":"香港科技大學, 大學道","lat":"22.338592","long":"114.262027"},{"id":"002095","name":"大埔仔坳, 清水灣道","lat":"22.340075","long":"114.258579"},{"id":"002096","name":"窩美, 新西貢公路","lat":"22.351679","long":"114.251795"},{"id":"002097","name":"南邊圍, 西貢公路","lat":"22.352873","long":"114.249710"},{"id":"002098","name":"蠔涌, 西貢公路","lat":"22.355479","long":"114.251345"},{"id":"002099","name":"北圍, 西貢公路","lat":"22.360510","long":"114.254031"},{"id":"002100","name":"漁民新村, 西貢公路","lat":"22.361888","long":"114.256922"},{"id":"002101","name":"白沙灣, 西貢公路","lat":"22.365178","long":"114.259476"},{"id":"002102","name":"白沙臺, 西貢公路","lat":"22.368432","long":"114.259855"},{"id":"002103","name":"大涌口, 西貢公路","lat":"22.372321","long":"114.259993"},{"id":"002104","name":"北港, 西貢公路","lat":"22.375585","long":"114.262282"},{"id":"002105","name":"菠蘿輋, 西貢公路","lat":"22.378705","long":"114.265553"},{"id":"002106","name":"翠塘花園, 西貢公路","lat":"22.380708","long":"114.268357"},{"id":"002107","name":"西貢大會堂, 普通道","lat":"22.382077","long":"114.270860"},{"id":"002108","name":"西貢警署, 福民路","lat":"22.383356","long":"114.271738"},{"id":"002109","name":"西貢","lat":"22.382283","long":"114.273730"}],"routeId":"792M","description":"正常班次"}]