[{"company":"ctb","route":"795","routeType":null,"dir":"I","orig":"長沙灣 (海達)","dest":"將軍澳工業邨 (經:日出康城)","stopList":[{"id":"003794","name":"海達邨","lat":"22.328931","long":"114.151821"},{"id":"003229","name":"碧海藍天, 興華街西","lat":"22.332456","long":"114.149131"},{"id":"003700","name":"泓景臺, 荔枝角道","lat":"22.335048","long":"114.147604"},{"id":"001517","name":"美孚, 荔枝角道","lat":"22.336504","long":"114.141143"},{"id":"001436","name":"荔枝角站, 長沙灣道","lat":"22.337483","long":"114.148374"},{"id":"001437","name":"昌華街, 長沙灣道","lat":"22.338601","long":"114.151986"},{"id":"001515","name":"旺角維景酒店, 荔枝角道","lat":"22.323053","long":"114.167753"},{"id":"001775","name":"旺角中心, 彌敦道","lat":"22.319682","long":"114.169365"},{"id":"001558","name":"豉油街, 彌敦道","lat":"22.316763","long":"114.169962"},{"id":"001562","name":"登打士街, 彌敦道","lat":"22.314749","long":"114.170374"},{"id":"001564","name":"文明里, 彌敦道","lat":"22.312210","long":"114.170885"},{"id":"001471","name":"勞資審裁處, 加士居道","lat":"22.308028","long":"114.172528"},{"id":"001606","name":"偉樂街, 偉業街","lat":"22.305258","long":"114.225601"},{"id":"003786","name":"日出康城晉海, 環澳路","lat":"22.292122","long":"114.272123"},{"id":"002928","name":"日出康城領都, 環保大道","lat":"22.294213","long":"114.273395"},{"id":"002929","name":"日出康城首都, 環保大道","lat":"22.296755","long":"114.272665"},{"id":"003329","name":"日出康城","lat":"22.295873","long":"114.268360"},{"id":"002919","name":"峻瀅, 環保大道","lat":"22.297406","long":"114.272521"},{"id":"002920","name":"MEGA Plus 數據中心, 環保大道","lat":"22.295046","long":"114.273573"},{"id":"002921","name":"數據技術中心, 駿日街","lat":"22.289450","long":"114.273143"},{"id":"002922","name":"先進製造業中心, 駿日街","lat":"22.286971","long":"114.271492"},{"id":"002923","name":"將軍澳工業邨","lat":"22.283150","long":"114.270190"}],"routeId":"795","description":"正常班次"},{"company":"ctb","route":"795","routeType":null,"dir":"O","orig":"將軍澳工業邨 (經:日出康城)","dest":"長沙灣 (海達)","stopList":[{"id":"002923","name":"將軍澳工業邨","lat":"22.283150","long":"114.270190"},{"id":"002924","name":"駿宏街","lat":"22.282010","long":"114.272786"},{"id":"002925","name":"駿才街","lat":"22.283544","long":"114.273793"},{"id":"002926","name":"駿盈街","lat":"22.284310","long":"114.273728"},{"id":"002927","name":"先進製造業中心, 駿光街","lat":"22.286879","long":"114.273468"},{"id":"002928","name":"日出康城領都, 環保大道","lat":"22.294213","long":"114.273395"},{"id":"002929","name":"日出康城首都, 環保大道","lat":"22.296755","long":"114.272665"},{"id":"003329","name":"日出康城","lat":"22.295873","long":"114.268360"},{"id":"002919","name":"峻瀅, 環保大道","lat":"22.297406","long":"114.272521"},{"id":"002920","name":"MEGA Plus 數據中心, 環保大道","lat":"22.295046","long":"114.273573"},{"id":"003785","name":"日出康城晉海, 環澳路","lat":"22.291946","long":"114.272211"},{"id":"003787","name":"藍田交匯處","lat":"22.300510","long":"114.231140"},{"id":"003826","name":"茶果嶺道","lat":"22.300025","long":"114.228408"},{"id":"003788","name":"偉樂街, 偉業街","lat":"22.305239","long":"114.225308"},{"id":"001769","name":"拔萃女書院, 加士居道","lat":"22.307535","long":"114.172922"},{"id":"003152","name":"文明里, 彌敦道","lat":"22.311453","long":"114.170849"},{"id":"001549","name":"碧街, 彌敦道","lat":"22.314107","long":"114.170330"},{"id":"001553","name":"雅蘭中心, 彌敦道","lat":"22.317926","long":"114.169545"},{"id":"001396","name":"油尖旺地區康健中心, 亞皆老街","lat":"22.318800","long":"114.166937"},{"id":"001423","name":"銘基書院, 櫻桃街","lat":"22.318582","long":"114.164388"},{"id":"001517","name":"美孚, 荔枝角道","lat":"22.336504","long":"114.141143"},{"id":"001436","name":"荔枝角站, 長沙灣道","lat":"22.337483","long":"114.148374"},{"id":"001437","name":"昌華街, 長沙灣道","lat":"22.338601","long":"114.151986"},{"id":"003228","name":"碧海藍天, 興華街西","lat":"22.332981","long":"114.149737"},{"id":"003794","name":"海達邨","lat":"22.328931","long":"114.151821"}],"routeId":"795","description":"正常班次"}]