[{"company":"ctb","route":"798P","routeType":null,"dir":"I","orig":"大圍站 (經:沙田)","dest":"將軍澳工業邨","stopList":[{"id":"003633","name":"大圍站","lat":"22.373309","long":"114.180160"},{"id":"003556","name":"海福花園, 美田路","lat":"22.373436","long":"114.176972"},{"id":"003771","name":"美輝街","lat":"22.376622","long":"114.174364"},{"id":"003106","name":"美松苑, 美田路","lat":"22.380121","long":"114.173798"},{"id":"003096","name":"美林邨美槐樓, 美田路","lat":"22.380036","long":"114.176058"},{"id":"003097","name":"美城苑, 美田路","lat":"22.379249","long":"114.173733"},{"id":"003095","name":"美林邨","lat":"22.377694","long":"114.174953"},{"id":"002046","name":"沙田市中心","lat":"22.381835","long":"114.187789"},{"id":"001963","name":"田園閣, 沙田圍路","lat":"22.379826","long":"114.195680"},{"id":"001986","name":"大老山隧道巴士轉乘站","lat":"22.377149","long":"114.212566"},{"id":"003595","name":"將軍澳隧道巴士轉乘站","lat":"22.315689","long":"114.240218"},{"id":"002906","name":"TKO Spot, 唐明街","lat":"22.310703","long":"114.259024"},{"id":"002933","name":"佛教志蓮小學, 唐俊街","lat":"22.309854","long":"114.260527"},{"id":"001826","name":"將軍澳廣場, 寶邑路","lat":"22.307989","long":"114.262438"},{"id":"003160","name":"蓬萊路, 環保大道","lat":"22.308324","long":"114.267945"},{"id":"003915","name":"香港中醫醫院, 百勝角路","lat":"22.304545","long":"114.274393"},{"id":"003751","name":"消防及救護學院, 百勝角路","lat":"22.305407","long":"114.274713"},{"id":"003225","name":"邵氏影城, 環保大道","lat":"22.301639","long":"114.272413"},{"id":"003329","name":"日出康城","lat":"22.295873","long":"114.268360"},{"id":"002919","name":"峻瀅, 環保大道","lat":"22.297406","long":"114.272521"},{"id":"002920","name":"MEGA Plus 數據中心, 環保大道","lat":"22.295046","long":"114.273573"},{"id":"002921","name":"數據技術中心, 駿日街","lat":"22.289450","long":"114.273143"},{"id":"002922","name":"先進製造業中心, 駿日街","lat":"22.286971","long":"114.271492"},{"id":"002923","name":"將軍澳工業邨","lat":"22.283150","long":"114.270190"}],"routeId":"798P","description":"正常班次"},{"company":"ctb","route":"798P","routeType":null,"dir":"O","orig":"將軍澳工業邨","dest":"大圍站 (經:沙田)","stopList":[{"id":"002923","name":"將軍澳工業邨","lat":"22.283150","long":"114.270190"},{"id":"002924","name":"駿宏街","lat":"22.282010","long":"114.272786"},{"id":"003298","name":"駿昌街, 環保大道","lat":"22.288385","long":"114.274649"},{"id":"002928","name":"日出康城領都, 環保大道","lat":"22.294213","long":"114.273395"},{"id":"002929","name":"日出康城首都, 環保大道","lat":"22.296755","long":"114.272665"},{"id":"003329","name":"日出康城","lat":"22.295873","long":"114.268360"},{"id":"002930","name":"邵氏影城, 環保大道","lat":"22.303470","long":"114.271389"},{"id":"002931","name":"清水灣半島","lat":"22.308859","long":"114.266466"},{"id":"002906","name":"TKO Spot, 唐明街","lat":"22.310703","long":"114.259024"},{"id":"002933","name":"佛教志蓮小學, 唐俊街","lat":"22.309854","long":"114.260527"},{"id":"001826","name":"將軍澳廣場, 寶邑路","lat":"22.307989","long":"114.262438"},{"id":"003589","name":"將軍澳隧道巴士轉乘站","lat":"22.315074","long":"114.240243"},{"id":"001985","name":"大老山隧道巴士轉乘站","lat":"22.376911","long":"114.211789"},{"id":"001962","name":"田園閣, 沙田圍路","lat":"22.380026","long":"114.195131"},{"id":"002046","name":"沙田市中心","lat":"22.381835","long":"114.187789"},{"id":"003639","name":"帝都酒店, 白鶴汀街","lat":"22.379798","long":"114.188074"},{"id":"003641","name":"美林邨, 大埔公路","lat":"22.377214","long":"114.178675"},{"id":"003771","name":"美輝街","lat":"22.376622","long":"114.174364"},{"id":"003106","name":"美松苑, 美田路","lat":"22.380121","long":"114.173798"},{"id":"003096","name":"美林邨美槐樓, 美田路","lat":"22.380036","long":"114.176058"},{"id":"003097","name":"美城苑, 美田路","lat":"22.379249","long":"114.173733"},{"id":"003098","name":"大圍街市, 美田路","lat":"22.373809","long":"114.177003"},{"id":"003633","name":"大圍站","lat":"22.373309","long":"114.180160"}],"routeId":"798P","description":"正常班次"}]