[{"company":"ctb","route":"79P","routeType":null,"dir":"I","orig":"高鐵西九龍站","dest":"粉嶺皇后山","stopList":[{"id":"003549","name":"高鐵西九龍站","lat":"22.307713022091","long":"114.16452094053"},{"id":"001400","name":"匯翔道, 廣東道","lat":"22.304374172091","long":"114.16780688053"},{"id":"001403","name":"戲曲中心, 廣東道","lat":"22.301518502091","long":"114.16811772053"},{"id":"001401","name":"新港中心, 廣東道","lat":"22.297466402091","long":"114.16897955053"},{"id":"001402","name":"北京道, 廣東道","lat":"22.295743602091","long":"114.16936782053"},{"id":"001541","name":"九龍酒店, 彌敦道","lat":"22.295953452091","long":"114.17217760053"},{"id":"003149","name":"九龍清真寺, 彌敦道","lat":"22.298682352091","long":"114.17199400053"},{"id":"003150","name":"栢麗購物大道, 彌敦道","lat":"22.301699802091","long":"114.17180373053"},{"id":"003151","name":"柯士甸道, 彌敦道","lat":"22.303794072091","long":"114.17162751053"},{"id":"003334","name":"寧波街, 彌敦道","lat":"22.306844192091","long":"114.17138070053"},{"id":"003152","name":"文明里, 彌敦道","lat":"22.311453112091","long":"114.17084894053"},{"id":"001549","name":"碧街, 彌敦道","lat":"22.314107332091","long":"114.17032997053"},{"id":"001551","name":"長沙街, 彌敦道","lat":"22.315714242091","long":"114.16999996053"},{"id":"001553","name":"雅蘭中心, 彌敦道","lat":"22.317926322091","long":"114.16954519053"},{"id":"001396","name":"油尖旺地區康健中心, 亞皆老街","lat":"22.318800102091","long":"114.16693654053"},{"id":"001423","name":"銘基書院, 櫻桃街","lat":"22.318582002091","long":"114.16438793053"},{"id":"002878","name":"帝柏海灣, 櫻桃街","lat":"22.317851152091","long":"114.16189949053"},{"id":"003511","name":"奧運站, 深旺道","lat":"22.318440772091","long":"114.16036899053"},{"id":"003512","name":"君匯港, 深旺道","lat":"22.321902502091","long":"114.15970244053"},{"id":"003408","name":"聚魚道, 深旺道","lat":"22.323765142091","long":"114.15881339053"},{"id":"002897","name":"南昌公園, 深旺道","lat":"22.325123652091","long":"114.15699136053"},{"id":"002593","name":"南昌站, 深旺道","lat":"22.327516752091","long":"114.15422057053"},{"id":"003672","name":"青沙公路巴士轉乘站","lat":"22.360486412091","long":"114.16299199053"},{"id":"003673","name":"磚窰, 沙頭角公路","lat":"22.521192282091","long":"114.17784306053"},{"id":"003674","name":"大塘湖, 沙頭角公路","lat":"22.519622982091","long":"114.17622080053"},{"id":"003675","name":"馬尾下, 沙頭角公路","lat":"22.516993172091","long":"114.17251736053"},{"id":"003676","name":"孔嶺, 沙頭角公路","lat":"22.514153652091","long":"114.16813955053"},{"id":"003677","name":"高埔, 沙頭角公路","lat":"22.511912992091","long":"114.16484323053"},{"id":"003678","name":"流水響, 沙頭角公路","lat":"22.510579322091","long":"114.16155312053"},{"id":"003679","name":"軍地, 沙頭角公路","lat":"22.509945642091","long":"114.15999201053"},{"id":"003680","name":"新圍軍營, 沙頭角公路","lat":"22.507365382091","long":"114.15510334053"},{"id":"003878","name":"皇后山一號, 龍馬路","lat":"22.504838532091","long":"114.15441677053"},{"id":"003681","name":"皇后山邨","lat":"22.504041882091","long":"114.15620899053"},{"id":"003682","name":"山麗苑, 龍馬路","lat":"22.503591622091","long":"114.16098374053"},{"id":"003660","name":"皇后山邨","lat":"22.504072232091","long":"114.15651954053"}],"routeId":"79P","description":"正常班次"},{"company":"ctb","route":"79P","routeType":null,"dir":"O","orig":"粉嶺皇后山","dest":"高鐵西九龍站","stopList":[{"id":"003660","name":"皇后山邨","lat":"22.504072232091","long":"114.15651954053"},{"id":"003661","name":"山麗苑, 龍馬路","lat":"22.503583652091","long":"114.16081143053"},{"id":"003663","name":"新圍軍營, 沙頭角公路","lat":"22.507504382091","long":"114.15506847053"},{"id":"003664","name":"軍地, 沙頭角公路","lat":"22.509643762091","long":"114.15880573053"},{"id":"003665","name":"流水響, 沙頭角公路","lat":"22.510596742091","long":"114.16121746053"},{"id":"003666","name":"高埔, 沙頭角公路","lat":"22.511822832091","long":"114.16429737053"},{"id":"003667","name":"孔嶺, 沙頭角公路","lat":"22.515066292091","long":"114.16911151053"},{"id":"003668","name":"馬尾下, 沙頭角公路","lat":"22.517398562091","long":"114.17302628053"},{"id":"003669","name":"大塘湖, 沙頭角公路","lat":"22.520145592091","long":"114.17649472053"},{"id":"003670","name":"磚窰, 沙頭角公路","lat":"22.521343272091","long":"114.17819331053"},{"id":"003671","name":"青沙公路巴士轉乘站","lat":"22.358258352091","long":"114.16316664053"},{"id":"002854","name":"南昌站, 深旺道","lat":"22.328257302091","long":"114.15374364053"},{"id":"001777","name":"中匯街, 深旺道","lat":"22.322569492091","long":"114.15982485053"},{"id":"001692","name":"奧運站, 深旺道","lat":"22.318588122091","long":"114.16049646053"},{"id":"001595","name":"富貴街, 大角咀道","lat":"22.318698052091","long":"114.16193982053"},{"id":"002850","name":"櫸樹街","lat":"22.319509422091","long":"114.16287064053"},{"id":"002851","name":"旺角道","lat":"22.320468972091","long":"114.16658729053"},{"id":"001775","name":"旺角中心, 彌敦道","lat":"22.319681842091","long":"114.16936520053"},{"id":"001561","name":"信和中心, 彌敦道","lat":"22.316006342091","long":"114.17011761053"},{"id":"001565","name":"永星里, 彌敦道","lat":"22.311070142091","long":"114.17110488053"},{"id":"001567","name":"彌敦酒店, 彌敦道","lat":"22.307183152091","long":"114.17152353053"},{"id":"001568","name":"恆豐中心, 彌敦道","lat":"22.304176292091","long":"114.17178330053"},{"id":"001569","name":"金巴利道, 彌敦道","lat":"22.301017462091","long":"114.17200089053"},{"id":"001570","name":"金馬倫道, 彌敦道","lat":"22.298997732091","long":"114.17213916053"},{"id":"001571","name":"中間道, 彌敦道","lat":"22.295782912091","long":"114.17236764053"},{"id":"002630","name":"九龍公園徑","lat":"22.295957122091","long":"114.17023938053"},{"id":"001398","name":"中港城, 廣東道","lat":"22.300509172091","long":"114.16811720053"},{"id":"001399","name":"柯士甸站, 廣東道","lat":"22.303839682091","long":"114.16770178053"},{"id":"003549","name":"高鐵西九龍站","lat":"22.307713022091","long":"114.16452094053"}],"routeId":"79P","description":"正常班次"}]