[{"company":"ctb","route":"79P","routeType":null,"dir":"I","orig":"高鐵西九龍站","dest":"粉嶺皇后山","stopList":[{"id":"003549","name":"高鐵西九龍站","lat":"22.307713","long":"114.164521"},{"id":"001400","name":"匯翔道, 廣東道","lat":"22.304374","long":"114.167807"},{"id":"001403","name":"戲曲中心, 廣東道","lat":"22.301519","long":"114.168118"},{"id":"001401","name":"新港中心, 廣東道","lat":"22.297466","long":"114.168980"},{"id":"001402","name":"北京道, 廣東道","lat":"22.295744","long":"114.169368"},{"id":"001541","name":"九龍酒店, 彌敦道","lat":"22.295953","long":"114.172178"},{"id":"003149","name":"九龍清真寺, 彌敦道","lat":"22.298682","long":"114.171994"},{"id":"003150","name":"栢麗購物大道, 彌敦道","lat":"22.301700","long":"114.171804"},{"id":"003151","name":"柯士甸道, 彌敦道","lat":"22.303794","long":"114.171628"},{"id":"003334","name":"寧波街, 彌敦道","lat":"22.306844","long":"114.171381"},{"id":"003152","name":"文明里, 彌敦道","lat":"22.311453","long":"114.170849"},{"id":"001549","name":"碧街, 彌敦道","lat":"22.314107","long":"114.170330"},{"id":"001551","name":"長沙街, 彌敦道","lat":"22.315714","long":"114.170000"},{"id":"001553","name":"雅蘭中心, 彌敦道","lat":"22.317926","long":"114.169545"},{"id":"001396","name":"油尖旺地區康健中心, 亞皆老街","lat":"22.318800","long":"114.166937"},{"id":"001423","name":"銘基書院, 櫻桃街","lat":"22.318582","long":"114.164388"},{"id":"002878","name":"帝柏海灣, 櫻桃街","lat":"22.317851","long":"114.161899"},{"id":"003511","name":"奧運站, 深旺道","lat":"22.318441","long":"114.160369"},{"id":"003512","name":"君匯港, 深旺道","lat":"22.321903","long":"114.159702"},{"id":"003408","name":"聚魚道, 深旺道","lat":"22.323765","long":"114.158813"},{"id":"002897","name":"南昌公園, 深旺道","lat":"22.325124","long":"114.156991"},{"id":"002593","name":"南昌站, 深旺道","lat":"22.327517","long":"114.154221"},{"id":"003672","name":"青沙公路巴士轉乘站","lat":"22.360486","long":"114.162992"},{"id":"003673","name":"磚窰, 沙頭角公路","lat":"22.521192","long":"114.177843"},{"id":"003674","name":"大塘湖, 沙頭角公路","lat":"22.519623","long":"114.176221"},{"id":"003675","name":"馬尾下, 沙頭角公路","lat":"22.516993","long":"114.172517"},{"id":"003676","name":"孔嶺, 沙頭角公路","lat":"22.514154","long":"114.168140"},{"id":"003677","name":"高埔, 沙頭角公路","lat":"22.511913","long":"114.164843"},{"id":"003678","name":"流水響, 沙頭角公路","lat":"22.510579","long":"114.161553"},{"id":"003679","name":"軍地, 沙頭角公路","lat":"22.509946","long":"114.159992"},{"id":"003680","name":"新圍軍營, 沙頭角公路","lat":"22.507365","long":"114.155103"},{"id":"003878","name":"皇后山一號, 龍馬路","lat":"22.504839","long":"114.154417"},{"id":"003681","name":"皇后山邨","lat":"22.504042","long":"114.156209"},{"id":"003682","name":"山麗苑, 龍馬路","lat":"22.503592","long":"114.160984"},{"id":"003660","name":"皇后山邨","lat":"22.504072","long":"114.156520"}],"routeId":"79P","description":"正常班次"},{"company":"ctb","route":"79P","routeType":null,"dir":"O","orig":"粉嶺皇后山","dest":"高鐵西九龍站","stopList":[{"id":"003660","name":"皇后山邨","lat":"22.504072","long":"114.156520"},{"id":"003661","name":"山麗苑, 龍馬路","lat":"22.503584","long":"114.160811"},{"id":"003663","name":"新圍軍營, 沙頭角公路","lat":"22.507504","long":"114.155068"},{"id":"003664","name":"軍地, 沙頭角公路","lat":"22.509644","long":"114.158806"},{"id":"003665","name":"流水響, 沙頭角公路","lat":"22.510597","long":"114.161217"},{"id":"003666","name":"高埔, 沙頭角公路","lat":"22.511823","long":"114.164297"},{"id":"003667","name":"孔嶺, 沙頭角公路","lat":"22.515066","long":"114.169112"},{"id":"003668","name":"馬尾下, 沙頭角公路","lat":"22.517399","long":"114.173026"},{"id":"003669","name":"大塘湖, 沙頭角公路","lat":"22.520146","long":"114.176495"},{"id":"003670","name":"磚窰, 沙頭角公路","lat":"22.521343","long":"114.178193"},{"id":"003671","name":"青沙公路巴士轉乘站","lat":"22.358258","long":"114.163167"},{"id":"002854","name":"南昌站, 深旺道","lat":"22.328257","long":"114.153744"},{"id":"001777","name":"中匯街, 深旺道","lat":"22.322569","long":"114.159825"},{"id":"001692","name":"奧運站, 深旺道","lat":"22.318588","long":"114.160496"},{"id":"001595","name":"富貴街, 大角咀道","lat":"22.318698","long":"114.161940"},{"id":"002850","name":"櫸樹街","lat":"22.319509","long":"114.162871"},{"id":"002851","name":"旺角道","lat":"22.320469","long":"114.166587"},{"id":"001775","name":"旺角中心, 彌敦道","lat":"22.319682","long":"114.169365"},{"id":"001561","name":"信和中心, 彌敦道","lat":"22.316006","long":"114.170118"},{"id":"001565","name":"永星里, 彌敦道","lat":"22.311070","long":"114.171105"},{"id":"001567","name":"彌敦酒店, 彌敦道","lat":"22.307183","long":"114.171524"},{"id":"001568","name":"恆豐中心, 彌敦道","lat":"22.304176","long":"114.171783"},{"id":"001569","name":"金巴利道, 彌敦道","lat":"22.301017","long":"114.172001"},{"id":"001570","name":"金馬倫道, 彌敦道","lat":"22.298998","long":"114.172139"},{"id":"001571","name":"中間道, 彌敦道","lat":"22.295783","long":"114.172368"},{"id":"002630","name":"九龍公園徑","lat":"22.295957","long":"114.170239"},{"id":"001398","name":"中港城, 廣東道","lat":"22.300509","long":"114.168117"},{"id":"001399","name":"柯士甸站, 廣東道","lat":"22.303840","long":"114.167702"},{"id":"003549","name":"高鐵西九龍站","lat":"22.307713","long":"114.164521"}],"routeId":"79P","description":"正常班次"}]