[{"company":"gmb","route":"79S","routeType":1,"orig":"瓊東街","dest":"龍翔道(鑽石山站)(循環線)","stopList":[{"id":20012412,"name":"瓊東街, 嘉峰臺","lat":"22.340599","long":"114.210067"},{"id":20002193,"name":"龍翔道, 荷里活廣場對面","lat":"22.339283","long":"114.202249"},{"id":20012423,"name":"瓊東街, 嘉峰臺","lat":"22.340733","long":"114.210215"}],"routeId":2004760,"description":"特別班次"},{"company":"gmb","route":"79S","routeType":1,"orig":"天水圍 (俊宏軒)","dest":"落馬洲管制站","stopList":[{"id":20015587,"name":"天水圍北(俊宏軒)小巴總站","lat":"22.468418","long":"114.000976"},{"id":20015459,"name":"天瑞路, 近天逸邨逸潭樓","lat":"22.468041","long":"113.999358"},{"id":20015588,"name":"天秀路, 近東華三院天秀墟","lat":"22.465448","long":"114.000291"},{"id":20015589,"name":"天秀路, 天晴邨晴碧樓對面","lat":"22.464310","long":"114.003473"},{"id":20015448,"name":"天葵路, 近香港青年協會李兆基書院","lat":"22.462817","long":"114.004088"},{"id":20015449,"name":"天葵路, 近嘉湖山莊美湖居激活幼稚園","lat":"22.460685","long":"114.004597"},{"id":20015590,"name":"天葵路, 近龍園","lat":"22.459685","long":"114.005409"},{"id":20015591,"name":"嘉恩街, 近天水圍公園","lat":"22.458188","long":"114.001495"},{"id":20015451,"name":"天華路, 近天頌苑頌棋閣","lat":"22.461847","long":"113.999838"},{"id":20001599,"name":"天瑞路, 天瑞商場對面","lat":"22.456548","long":"113.999382"},{"id":20001600,"name":"天瑞路, 天水圍公園外","lat":"22.454385","long":"114.003193"},{"id":20001601,"name":"天湖路, 耀盛樓外","lat":"22.452352","long":"114.002370"},{"id":20002749,"name":"天耀路, 耀民樓外","lat":"22.449642","long":"114.003071"},{"id":20015592,"name":"天福路, 近天耀邨耀逸樓","lat":"22.450335","long":"114.006127"},{"id":20015593,"name":"朗屏邨巴士總站","lat":"22.450628","long":"114.023224"},{"id":20015594,"name":"元朗安寧路, 近香港盲人輔導會賽馬會欣康樓","lat":"22.445903","long":"114.022533"},{"id":20015595,"name":"青山公路－元朗段, 近喜利大廈","lat":"22.444621","long":"114.025611"},{"id":20015410,"name":"青山公路－元朗段, 近金豪大廈","lat":"22.444583","long":"114.030242"},{"id":20002436,"name":"朗日路(近元朗站)","lat":"22.446614","long":"114.035009"},{"id":20015598,"name":"落馬洲管制站","lat":"22.508146","long":"114.074878"}],"routeId":2007630,"description":"正常班次"},{"company":"gmb","route":"79S","routeType":2,"orig":"落馬洲管制站","dest":"天水圍 (俊宏軒)","stopList":[{"id":20015598,"name":"落馬洲管制站","lat":"22.508146","long":"114.074878"},{"id":20015597,"name":"新田公共運輸交匯處","lat":"22.503068","long":"114.082065"},{"id":20001287,"name":"青山公路－元朗段, 近YOHO Midtown","lat":"22.444311","long":"114.034351"},{"id":20004199,"name":"青山公路－元朗段 60 號","lat":"22.444333","long":"114.030660"},{"id":20015609,"name":"青山公路－元朗段, 近國華大廈","lat":"22.444380","long":"114.027857"},{"id":20015594,"name":"元朗安寧路, 近香港盲人輔導會賽馬會欣康樓","lat":"22.445903","long":"114.022533"},{"id":20015593,"name":"朗屏邨巴士總站","lat":"22.450628","long":"114.023224"},{"id":20002223,"name":"天福路, 天耀邨耀富樓對面","lat":"22.449204","long":"114.005454"},{"id":20001615,"name":"天耀路, 近天盛苑盛麗閣","lat":"22.449680","long":"114.002820"},{"id":20015610,"name":"天耀路, 近天水圍警署","lat":"22.450086","long":"114.002545"},{"id":20015611,"name":"天瑞路, 近嘉湖山莊賞湖居第六座","lat":"22.454410","long":"114.002767"},{"id":20015612,"name":"天瑞路, 天瑞商場外","lat":"22.456760","long":"113.999020"},{"id":20020332,"name":"天華路,近頌棋閣","lat":"22.462028","long":"113.999824"},{"id":20015613,"name":"天城路, 近十八鄉鄉事委員會公益社小學","lat":"22.460798","long":"114.002407"},{"id":20015591,"name":"嘉恩街, 近天水圍公園","lat":"22.458188","long":"114.001495"},{"id":20015455,"name":"天龍路, 近龍園","lat":"22.458788","long":"114.005111"},{"id":20015456,"name":"天葵路, 近嘉湖山莊麗湖居第五座","lat":"22.460498","long":"114.004536"},{"id":20015614,"name":"天葵路, 近天晴邨晴雲樓","lat":"22.463250","long":"114.003866"},{"id":20015615,"name":"天秀路, 近天富苑能富閣","lat":"22.465247","long":"114.000189"},{"id":20015446,"name":"天瑞路, 近天澤邨","lat":"22.468182","long":"113.999210"},{"id":20015587,"name":"天水圍北(俊宏軒)小巴總站","lat":"22.468418","long":"114.000976"}],"routeId":2007630,"description":"正常班次"}]