[{"company":"gmb","route":"79S","routeType":1,"orig":"瓊東街","dest":"龍翔道(鑽石山站)(循環線)","stopList":[{"id":20012412,"name":"瓊東街, 嘉峰臺","lat":22.340599389216422,"long":114.21006707604647},{"id":20002193,"name":"龍翔道, 荷里活廣場對面","lat":22.33928344855369,"long":114.20224936544366},{"id":20012423,"name":"瓊東街, 嘉峰臺","lat":22.34073310295721,"long":114.21021467873543}],"routeId":2004760,"description":"特別班次"},{"company":"gmb","route":"79S","routeType":1,"orig":"天水圍 (俊宏軒)","dest":"落馬洲管制站","stopList":[{"id":20015587,"name":"天水圍北(俊宏軒)小巴總站","lat":22.468417585805035,"long":114.00097623467447},{"id":20015459,"name":"天瑞路, 近天逸邨逸潭樓","lat":22.46804083757233,"long":113.99935752153398},{"id":20015588,"name":"天秀路, 近東華三院天秀墟","lat":22.46544818708271,"long":114.00029093027118},{"id":20015589,"name":"天秀路, 天晴邨晴碧樓對面","lat":22.464310479057534,"long":114.00347337126732},{"id":20015448,"name":"天葵路, 近香港青年協會李兆基書院","lat":22.46281706817964,"long":114.00408759713174},{"id":20015449,"name":"天葵路, 近嘉湖山莊美湖居激活幼稚園","lat":22.46068536667998,"long":114.00459721684459},{"id":20015590,"name":"天葵路, 近龍園","lat":22.459685190780068,"long":114.00540858507158},{"id":20015591,"name":"嘉恩街, 近天水圍公園","lat":22.4581880118803,"long":114.00149524211885},{"id":20015451,"name":"天華路, 近天頌苑頌棋閣","lat":22.461846652318584,"long":113.99983763694765},{"id":20001599,"name":"天瑞路, 天瑞商場對面","lat":22.45654833583497,"long":113.99938233026164},{"id":20001600,"name":"天瑞路, 天水圍公園外","lat":22.454385182961406,"long":114.00319348335412},{"id":20001601,"name":"天湖路, 耀盛樓外","lat":22.452352451656175,"long":114.00237022585337},{"id":20002749,"name":"天耀路, 耀民樓外","lat":22.44964243980462,"long":114.00307136972901},{"id":20015592,"name":"天福路, 近天耀邨耀逸樓","lat":22.450334994139325,"long":114.00612741708757},{"id":20015593,"name":"朗屏邨巴士總站","lat":22.4506275071948,"long":114.02322381734851},{"id":20015594,"name":"元朗安寧路, 近香港盲人輔導會賽馬會欣康樓","lat":22.445902602161933,"long":114.02253314852715},{"id":20015595,"name":"青山公路－元朗段, 近喜利大廈","lat":22.444620950115066,"long":114.02561098337175},{"id":20015410,"name":"青山公路－元朗段, 近金豪大廈","lat":22.444582525160968,"long":114.03024181723598},{"id":20020526,"name":"東頭村","lat":22.44660663809178,"long":114.03503358364107},{"id":20015598,"name":"落馬洲管制站","lat":22.508146376561424,"long":114.0748777985573}],"routeId":2007630,"description":"正常班次"},{"company":"gmb","route":"79S","routeType":2,"orig":"落馬洲管制站","dest":"天水圍 (俊宏軒)","stopList":[{"id":20015598,"name":"落馬洲管制站","lat":22.508146376561424,"long":114.0748777985573},{"id":20015597,"name":"新田公共運輸交匯處","lat":22.503067843556586,"long":114.0820647776127},{"id":20001287,"name":"青山公路－元朗段, 近YOHO Midtown","lat":22.444310650896895,"long":114.03435106620873},{"id":20004199,"name":"青山公路－元朗段 60 號","lat":22.44433338245848,"long":114.0306602418423},{"id":20015609,"name":"青山公路－元朗段, 近國華大廈","lat":22.44438048409823,"long":114.02785733342172},{"id":20015594,"name":"元朗安寧路, 近香港盲人輔導會賽馬會欣康樓","lat":22.445902602161933,"long":114.02253314852715},{"id":20015593,"name":"朗屏邨巴士總站","lat":22.4506275071948,"long":114.02322381734851},{"id":20002223,"name":"天福路, 天耀邨耀富樓對面","lat":22.449204139508815,"long":114.00545380243884},{"id":20001615,"name":"天耀路, 近天盛苑盛麗閣","lat":22.449679934110527,"long":114.00282045847396},{"id":20015610,"name":"天耀路, 近天水圍警署","lat":22.450085861770752,"long":114.0025453269482},{"id":20015611,"name":"天瑞路, 近嘉湖山莊賞湖居第六座","lat":22.454410289930408,"long":114.00276660919191},{"id":20015612,"name":"天瑞路, 天瑞商場外","lat":22.456760223560302,"long":113.9990195631981},{"id":20020332,"name":"天華路,近頌棋閣","lat":22.46202759883106,"long":113.99982422590259},{"id":20015613,"name":"天城路, 近十八鄉鄉事委員會公益社小學","lat":22.460798149383148,"long":114.0024071931839},{"id":20015591,"name":"嘉恩街, 近天水圍公園","lat":22.4581880118803,"long":114.00149524211885},{"id":20015455,"name":"天龍路, 近龍園","lat":22.45878787689114,"long":114.00511085987092},{"id":20015456,"name":"天葵路, 近嘉湖山莊麗湖居第五座","lat":22.460498221552463,"long":114.00453552603722},{"id":20015614,"name":"天葵路, 近天晴邨晴雲樓","lat":22.463249601284573,"long":114.00386631488801},{"id":20015615,"name":"天秀路, 近天富苑能富閣","lat":22.465247415757055,"long":114.00018900632861},{"id":20015446,"name":"天瑞路, 近天澤邨","lat":22.468182118279664,"long":113.99921000003816},{"id":20015587,"name":"天水圍北(俊宏軒)小巴總站","lat":22.468417585805035,"long":114.00097623467447}],"routeId":2007630,"description":"正常班次"}]