[{"company":"nlb","route":"7S","routeType":null,"dir":null,"orig":"梅窩碼頭","dest":"禮智園墳場","stopList":[{"id":"1","name":"梅窩碼頭","lat":"22.26466400","long":"114.00155400","street":"梅窩碼頭","fare":"0.0","fareHoliday":"6.4"},{"id":"2","name":"梅窩熟食市場","lat":"22.26614300","long":"114.00004900","street":"銀礦灣道","fare":"0.0","fareHoliday":"6.4"},{"id":"3","name":"銀灣邨","lat":"22.26540600","long":"113.99707400","street":"銀礦灣道","fare":"0.0","fareHoliday":"6.4"},{"id":"4","name":"梅窩街市","lat":"22.26675900","long":"113.99699900","street":"銀石街","fare":"0.0","fareHoliday":"6.4"},{"id":"5","name":"銀景中心","lat":"22.26553700","long":"113.99696500","street":"銀礦灣道","fare":"0.0","fareHoliday":"6.4"},{"id":"56","name":"禮智園墳場","lat":"22.25932700","long":"113.99399300","street":"嶼南道","fare":"0.0","fareHoliday":"0.0"}],"routeId":"70","description":"正常班次"},{"company":"nlb","route":"7S","routeType":null,"dir":null,"orig":"禮智園墳場","dest":"梅窩碼頭","stopList":[{"id":"56","name":"禮智園墳場","lat":"22.25932700","long":"113.99399300","street":"嶼南道","fare":"0.0","fareHoliday":"6.4"},{"id":"2","name":"梅窩熟食市場","lat":"22.26614300","long":"114.00004900","street":"銀礦灣道","fare":"0.0","fareHoliday":"6.4"},{"id":"3","name":"銀灣邨","lat":"22.26540600","long":"113.99707400","street":"銀礦灣道","fare":"0.0","fareHoliday":"6.4"},{"id":"4","name":"梅窩街市","lat":"22.26675900","long":"113.99699900","street":"銀石街","fare":"0.0","fareHoliday":"6.4"},{"id":"5","name":"銀景中心","lat":"22.26553700","long":"113.99696500","street":"銀礦灣道","fare":"0.0","fareHoliday":"6.4"},{"id":"305","name":"梅窩碼頭","lat":"22.26466400","long":"114.00155400","street":"梅窩碼頭","fare":"0.0","fareHoliday":"0.0"}],"routeId":"72","description":"正常班次"}]