[{"company":"nlb","route":"7S","routeType":null,"dir":null,"orig":"梅窩碼頭","dest":"禮智園墳場","stopList":[{"id":"1","name":"梅窩碼頭","lat":"22.264664","long":"114.001554","street":"梅窩碼頭","fare":"0.0","fareHoliday":"6.4"},{"id":"2","name":"梅窩熟食市場","lat":"22.266143","long":"114.000049","street":"銀礦灣道","fare":"0.0","fareHoliday":"6.4"},{"id":"3","name":"銀灣邨","lat":"22.265406","long":"113.997074","street":"銀礦灣道","fare":"0.0","fareHoliday":"6.4"},{"id":"4","name":"梅窩街市","lat":"22.266759","long":"113.996999","street":"銀石街","fare":"0.0","fareHoliday":"6.4"},{"id":"5","name":"銀景中心","lat":"22.265537","long":"113.996965","street":"銀礦灣道","fare":"0.0","fareHoliday":"6.4"},{"id":"56","name":"禮智園墳場","lat":"22.259327","long":"113.993993","street":"嶼南道","fare":"0.0","fareHoliday":"0.0"}],"routeId":"70","description":"正常班次"},{"company":"nlb","route":"7S","routeType":null,"dir":null,"orig":"禮智園墳場","dest":"梅窩碼頭","stopList":[{"id":"56","name":"禮智園墳場","lat":"22.259327","long":"113.993993","street":"嶼南道","fare":"0.0","fareHoliday":"6.4"},{"id":"2","name":"梅窩熟食市場","lat":"22.266143","long":"114.000049","street":"銀礦灣道","fare":"0.0","fareHoliday":"6.4"},{"id":"3","name":"銀灣邨","lat":"22.265406","long":"113.997074","street":"銀礦灣道","fare":"0.0","fareHoliday":"6.4"},{"id":"4","name":"梅窩街市","lat":"22.266759","long":"113.996999","street":"銀石街","fare":"0.0","fareHoliday":"6.4"},{"id":"5","name":"銀景中心","lat":"22.265537","long":"113.996965","street":"銀礦灣道","fare":"0.0","fareHoliday":"6.4"},{"id":"305","name":"梅窩碼頭","lat":"22.264664","long":"114.001554","street":"梅窩碼頭","fare":"0.0","fareHoliday":"0.0"}],"routeId":"72","description":"正常班次"}]