[{"company":"gmb","route":"807B","routeType":1,"orig":"馬鞍山站","dest":"黃竹灣","stopList":[{"id":20001231,"name":"海柏花園公共運輸交匯處","lat":22.42553581842206,"long":114.23133702907299},{"id":20002281,"name":"西沙路, 雅典居外 ","lat":22.42590435624318,"long":114.23619384925766},{"id":20002282,"name":"西沙路, 烏溪沙新村外","lat":22.428123986423333,"long":114.24107097318388},{"id":20008085,"name":"烏溪沙站巴士總站","lat":22.428503328593727,"long":114.24418151378633},{"id":20002283,"name":"西沙路, 帝琴灣凱弦居外","lat":22.43004342286684,"long":114.25056208175079},{"id":20021943,"name":"西沙路近西澳","lat":22.43076372576004,"long":114.25432428717616},{"id":20005001,"name":"西沙路近泥涌","lat":22.430248035279938,"long":114.25891488790514},{"id":20003420,"name":"西沙路近大洞","lat":22.424293675350288,"long":114.263399945388},{"id":20005008,"name":"西沙路近西徑","lat":22.41881970871548,"long":114.26615500337522},{"id":20005010,"name":"西沙路近企嶺下","lat":22.414510273987748,"long":114.26952250451389},{"id":20005012,"name":"西沙路近水浪窩","lat":22.40553792183328,"long":114.27799506842702},{"id":20005015,"name":"西沙路近澳頭","lat":22.401281838614036,"long":114.28225539532215},{"id":20003261,"name":"西沙路近黃竹灣","lat":22.3983640917688,"long":114.28362250683533},{"id":20003164,"name":"西沙路近黃竹灣","lat":22.39822861515359,"long":114.283651537623},{"id":20005016,"name":"西沙路近澳頭","lat":22.401101304786735,"long":114.28213871973773},{"id":20007472,"name":"西沙路, 近澳頭新村","lat":22.40411842359723,"long":114.28069392994237},{"id":20005013,"name":"西沙路近水浪窩","lat":22.405456708213425,"long":114.27789789040827},{"id":20005011,"name":"西沙路近企嶺下","lat":22.414438108099567,"long":114.26938648093882},{"id":20005009,"name":"西沙路近西徑","lat":22.418937153165736,"long":114.26606766271017},{"id":20005003,"name":"西沙路近大洞","lat":22.424714445778815,"long":114.26304382666787},{"id":20005002,"name":"西沙路近泥涌","lat":22.429931018317994,"long":114.25893517138026},{"id":20002285,"name":"西沙路近西澳","lat":22.43056541610919,"long":114.25435069046507},{"id":20008085,"name":"烏溪沙站巴士總站","lat":22.428503328593727,"long":114.24418151378633},{"id":20002250,"name":"西沙路南行線, 雅典居對面","lat":22.425516266120713,"long":114.23559145809953},{"id":20001231,"name":"海柏花園巴士總站","lat":22.42553581842206,"long":114.23133702907299}],"routeId":2001231,"description":"額外班次"}]