[{"company":"gmb","route":"807B","routeType":1,"orig":"馬鞍山站","dest":"黃竹灣","stopList":[{"id":20001231,"name":"海柏花園公共運輸交匯處","lat":"22.425536","long":"114.231337"},{"id":20002281,"name":"西沙路, 雅典居外 ","lat":"22.425904","long":"114.236194"},{"id":20002282,"name":"西沙路, 烏溪沙新村外","lat":"22.428124","long":"114.241071"},{"id":20008085,"name":"烏溪沙站巴士總站","lat":"22.428503","long":"114.244182"},{"id":20002283,"name":"西沙路, 帝琴灣凱弦居外","lat":"22.430043","long":"114.250562"},{"id":20021943,"name":"西沙路近西澳","lat":"22.430764","long":"114.254324"},{"id":20005001,"name":"西沙路近泥涌","lat":"22.430248","long":"114.258915"},{"id":20003420,"name":"西沙路近大洞","lat":"22.424294","long":"114.263400"},{"id":20005008,"name":"西沙路近西徑","lat":"22.418820","long":"114.266155"},{"id":20005010,"name":"西沙路近企嶺下","lat":"22.414510","long":"114.269523"},{"id":20005012,"name":"西沙路近水浪窩","lat":"22.405538","long":"114.277995"},{"id":20005015,"name":"西沙路近澳頭","lat":"22.401282","long":"114.282255"},{"id":20003261,"name":"西沙路近黃竹灣","lat":"22.398364","long":"114.283623"},{"id":20003164,"name":"西沙路近黃竹灣","lat":"22.398229","long":"114.283652"},{"id":20005016,"name":"西沙路近澳頭","lat":"22.401101","long":"114.282139"},{"id":20007472,"name":"西沙路, 近澳頭新村","lat":"22.404118","long":"114.280694"},{"id":20005013,"name":"西沙路近水浪窩","lat":"22.405457","long":"114.277898"},{"id":20005011,"name":"西沙路近企嶺下","lat":"22.414438","long":"114.269386"},{"id":20005009,"name":"西沙路近西徑","lat":"22.418937","long":"114.266068"},{"id":20005003,"name":"西沙路近大洞","lat":"22.424714","long":"114.263044"},{"id":20005002,"name":"西沙路近泥涌","lat":"22.429931","long":"114.258935"},{"id":20002285,"name":"西沙路近西澳","lat":"22.430565","long":"114.254351"},{"id":20008085,"name":"烏溪沙站巴士總站","lat":"22.428503","long":"114.244182"},{"id":20002250,"name":"西沙路南行線, 雅典居對面","lat":"22.425516","long":"114.235591"},{"id":20001231,"name":"海柏花園巴士總站","lat":"22.425536","long":"114.231337"}],"routeId":2001231,"description":"額外班次"}]