[{"company":"gmb","route":"807C","routeType":1,"orig":"馬鞍山站","dest":"港鐵大學站巴士總站","stopList":[{"id":20001231,"name":"海柏花園巴士總站","lat":22.42553581842206,"long":114.23133702907299},{"id":20001235,"name":"西沙路, 福安花園對面","lat":22.42326106468704,"long":114.22851932216003},{"id":20002225,"name":"西沙路, 馬鞍山運動場外","lat":22.420940628086175,"long":114.2272654853734},{"id":20002320,"name":"西沙路, 錦鞍苑外","lat":22.41821373825056,"long":114.22624465486318},{"id":20007088,"name":"恆輝街, 欣安邨對面","lat":22.415134242192977,"long":114.2265737941993},{"id":20002275,"name":"港鐵大學站巴士總站","lat":22.412727186810685,"long":114.21079993829835}],"routeId":2001232,"description":"額外班次"},{"company":"gmb","route":"807C","routeType":2,"orig":"港鐵大學站巴士總站","dest":"馬鞍山站","stopList":[{"id":20002275,"name":"港鐵大學站巴士總站","lat":22.412727186810685,"long":114.21079993829835},{"id":20002276,"name":"馬鞍山路, 耀安邨外","lat":22.419530261377556,"long":114.23218942138122},{"id":20002277,"name":"馬鞍山路, 新港城外","lat":22.422446928415745,"long":114.23270537234721},{"id":20001231,"name":"海柏花園巴士總站","lat":22.42553581842206,"long":114.23133702907299}],"routeId":2001232,"description":"額外班次"}]