[{"company":"gmb","route":"807C","routeType":1,"orig":"馬鞍山站","dest":"港鐵大學站巴士總站","stopList":[{"id":20001231,"name":"海柏花園巴士總站","lat":"22.425536","long":"114.231337"},{"id":20001235,"name":"西沙路, 福安花園對面","lat":"22.423261","long":"114.228519"},{"id":20002225,"name":"西沙路, 馬鞍山運動場外","lat":"22.420941","long":"114.227265"},{"id":20002320,"name":"西沙路, 錦鞍苑外","lat":"22.418214","long":"114.226245"},{"id":20007088,"name":"恆輝街, 欣安邨對面","lat":"22.415134","long":"114.226574"},{"id":20002275,"name":"港鐵大學站巴士總站","lat":"22.412727","long":"114.210800"}],"routeId":2001232,"description":"額外班次"},{"company":"gmb","route":"807C","routeType":2,"orig":"港鐵大學站巴士總站","dest":"馬鞍山站","stopList":[{"id":20002275,"name":"港鐵大學站巴士總站","lat":"22.412727","long":"114.210800"},{"id":20002276,"name":"馬鞍山路, 耀安邨外","lat":"22.419530","long":"114.232189"},{"id":20002277,"name":"馬鞍山路, 新港城外","lat":"22.422447","long":"114.232705"},{"id":20001231,"name":"海柏花園巴士總站","lat":"22.425536","long":"114.231337"}],"routeId":2001232,"description":"額外班次"}]