[{"company":"gmb","route":"808P","routeType":1,"orig":"恆安巴士總站","dest":"威爾斯親王醫院","stopList":[{"id":20012432,"name":"恆安邨巴士總站","lat":"22.418041","long":"114.228496"},{"id":20001238,"name":"恒康街, 耀安邨耀平樓外","lat":"22.418348","long":"114.230188"},{"id":20019666,"name":"馬鞍山路近錦駿苑 ","lat":"22.413379","long":"114.226940"},{"id":20002226,"name":"恆德街南行線, 近大水坑站","lat":"22.407405","long":"114.222948"},{"id":20002288,"name":"亞公角街, 漁民新村外","lat":"22.403018","long":"114.217460"},{"id":20002228,"name":"亞公角街, 沙田醫院外","lat":"22.398751","long":"114.212293"},{"id":20012418,"name":"小瀝源路小瀝源村對面","lat":"22.383348","long":"114.213331"},{"id":20002289,"name":"廣善街, 廣源邨廣榕樓外","lat":"22.381165","long":"114.213744"},{"id":20002290,"name":"廣善街, 近香港恒生大學","lat":"22.380569","long":"114.211938"},{"id":20012419,"name":"牛皮沙街, 牛皮沙新村外","lat":"22.379732","long":"114.209291"},{"id":20012420,"name":"牛皮沙街, 愉翠苑巴士站","lat":"22.382257","long":"114.205402"},{"id":20002293,"name":"插桅杆街, 第一城站對面","lat":"22.382612","long":"114.203762"},{"id":20002257,"name":"威爾斯親王醫院","lat":"22.381285","long":"114.201490"}],"routeId":2004761,"description":"額外班次 "},{"company":"gmb","route":"808P","routeType":2,"orig":"威爾斯親王醫院","dest":"恆安巴士總站","stopList":[{"id":20002257,"name":"威爾斯親王醫院","lat":"22.381285","long":"114.201490"},{"id":20002274,"name":"插桅杆街, 第一城站外","lat":"22.382720","long":"114.203656"},{"id":20001550,"name":"牛皮沙街, 都會廣場外","lat":"22.381654","long":"114.206316"},{"id":20002294,"name":"牛皮沙街, 牛皮沙村外","lat":"22.379694","long":"114.208850"},{"id":20002290,"name":"廣善街, 近香港恒生大學","lat":"22.380569","long":"114.211938"},{"id":20012424,"name":"廣善街, 廣源邨廣榕樓對面","lat":"22.381275","long":"114.213685"},{"id":20002256,"name":"小瀝源路西行線,近培基書院","lat":"22.383170","long":"114.213298"},{"id":20002236,"name":"亞公角街北行線, 沙田醫院對面","lat":"22.399660","long":"114.212826"},{"id":20012425,"name":"亞公角街, 漁民新村對面","lat":"22.402459","long":"114.216442"},{"id":20012426,"name":"亞公角街, 馬鞍山崇真中學對面","lat":"22.405831","long":"114.221758"},{"id":20019633,"name":"馬鞍山路錦駿苑對面 ","lat":"22.411609","long":"114.224247"},{"id":20001226,"name":"恒康街, 耀安邨耀謙樓對面","lat":"22.417960","long":"114.230489"},{"id":20012432,"name":"恆安邨巴士總站","lat":"22.418041","long":"114.228496"}],"routeId":2004761,"description":"額外班次 "}]