[{"company":"gmb","route":"808P","routeType":1,"orig":"恆安巴士總站","dest":"威爾斯親王醫院","stopList":[{"id":20012432,"name":"恆安邨巴士總站","lat":22.418040735163004,"long":114.22849595546724},{"id":20001238,"name":"恒康街, 耀安邨耀平樓外","lat":22.41834794155209,"long":114.23018811038345},{"id":20019666,"name":"馬鞍山路近錦駿苑 ","lat":22.41337918988832,"long":114.2269402742386},{"id":20002226,"name":"恆德街南行線, 近大水坑站","lat":22.407405217512178,"long":114.22294844188012},{"id":20002288,"name":"亞公角街, 漁民新村外","lat":22.4030178682159,"long":114.21745984836826},{"id":20002228,"name":"亞公角街, 沙田醫院外","lat":22.398751336451813,"long":114.21229273080827},{"id":20012418,"name":"小瀝源路小瀝源村對面","lat":22.383348147560067,"long":114.21333074569702},{"id":20002289,"name":"廣善街, 廣源邨廣榕樓外","lat":22.381164918927787,"long":114.21374418725482},{"id":20002290,"name":"廣善街, 近香港恒生大學","lat":22.380569306250184,"long":114.21193793205956},{"id":20012419,"name":"牛皮沙街, 牛皮沙新村外","lat":22.379732081735973,"long":114.20929133892061},{"id":20012420,"name":"牛皮沙街, 愉翠苑巴士站","lat":22.382256889311343,"long":114.20540213584901},{"id":20002293,"name":"插桅杆街, 第一城站對面","lat":22.38261177208684,"long":114.20376233237666},{"id":20002257,"name":"威爾斯親王醫院","lat":22.381284647262554,"long":114.2014898772971}],"routeId":2004761,"description":"額外班次 "},{"company":"gmb","route":"808P","routeType":2,"orig":"威爾斯親王醫院","dest":"恆安巴士總站","stopList":[{"id":20002257,"name":"威爾斯親王醫院","lat":22.381284647262554,"long":114.2014898772971},{"id":20002274,"name":"插桅杆街, 第一城站外","lat":22.382720156109503,"long":114.2036555393339},{"id":20001550,"name":"牛皮沙街, 都會廣場外","lat":22.38165409135377,"long":114.20631595187226},{"id":20002294,"name":"牛皮沙街, 牛皮沙村外","lat":22.379693985736736,"long":114.20884988661935},{"id":20002290,"name":"廣善街, 近香港恒生大學","lat":22.380569306250184,"long":114.21193793205956},{"id":20012424,"name":"廣善街, 廣源邨廣榕樓對面","lat":22.38127474956942,"long":114.21368479728699},{"id":20002256,"name":"小瀝源路西行線,近培基書院","lat":22.383169796325998,"long":114.21329803838329},{"id":20002236,"name":"亞公角街北行線, 沙田醫院對面","lat":22.399659619245003,"long":114.21282647265075},{"id":20012425,"name":"亞公角街, 漁民新村對面","lat":22.402458659746216,"long":114.21644210815431},{"id":20012426,"name":"亞公角街, 馬鞍山崇真中學對面","lat":22.4058311221365,"long":114.22175824642183},{"id":20019633,"name":"馬鞍山路錦駿苑對面 ","lat":22.411608753514397,"long":114.22424733638765},{"id":20001226,"name":"恒康街, 耀安邨耀謙樓對面","lat":22.417959531175082,"long":114.23048905884073},{"id":20012432,"name":"恆安邨巴士總站","lat":22.418040735163004,"long":114.22849595546724}],"routeId":2004761,"description":"額外班次 "}]