[{"company":"gmb","route":"811","routeType":1,"orig":"穗禾苑","dest":"愉翠苑","stopList":[{"id":20015706,"name":"穗禾苑","lat":22.39264085675188,"long":114.19443860650064},{"id":20015707,"name":"穗禾路, 華樂工業中心外","lat":22.397729635329444,"long":114.19186770915987},{"id":20015708,"name":"松頭下路, 富騰工業中心外","lat":22.398309922810473,"long":114.1946116089821},{"id":20015709,"name":"樂信徑迴旋處巴士灣","lat":22.40134259663344,"long":114.20145658936238},{"id":20015710,"name":"樂信徑, 駿景園外","lat":22.400340813051354,"long":114.20121297000154},{"id":20015711,"name":"樂景街銀禧花園外的九巴88K巴士停車灣","lat":22.39697451401915,"long":114.19953614473346},{"id":20015712,"name":"樂景街火炭站對面","lat":22.394525611273664,"long":114.19819504022601},{"id":20002261,"name":"銀城街2號第一城中心外","lat":22.386892256771652,"long":114.20365633915246},{"id":20002273,"name":"銀城街, 五旬節林漢光中學外","lat":22.384056944740166,"long":114.20196617772774},{"id":20002274,"name":"插桅杆街, 第一城站外","lat":22.382720156109503,"long":114.2036555393339},{"id":20015713,"name":"愉翠苑愉欣閣","lat":22.382310212356494,"long":114.20476645231248}],"routeId":2007761,"description":"正常班次"},{"company":"gmb","route":"811","routeType":2,"orig":"愉翠苑","dest":"穗禾苑","stopList":[{"id":20015713,"name":"愉翠苑愉欣閣","lat":22.382310212356494,"long":114.20476645231248},{"id":20002293,"name":"插桅杆街, 欣廷軒外","lat":22.38261177208684,"long":114.20376233237666},{"id":20015727,"name":"威爾斯親王醫院","lat":22.381252428131077,"long":114.20161485671998},{"id":20002259,"name":"銀城街, 銀城商場外","lat":22.386890818628046,"long":114.2033492571296},{"id":20001564,"name":"大涌橋路沙田第一城5座對出","lat":22.388883671194442,"long":114.2025536298752},{"id":20015728,"name":"樂景街, 港鐵火炭站外","lat":22.39487032019251,"long":114.19818565249446},{"id":20002230,"name":"樂景街, 銀禧花園對面","lat":22.397711411310215,"long":114.1997544330899},{"id":20015709,"name":"樂信徑迴旋處巴士灣","lat":22.40134259663344,"long":114.20145658936238},{"id":20015729,"name":"桂地街, 華耀工業中心外","lat":22.39945809132973,"long":114.19426560401918},{"id":20015730,"name":"桂地街, 近華衛工貿中心","lat":22.40050209810144,"long":114.19279575347902},{"id":20019501,"name":"桂地街, 變電站外","lat":22.3994779300113,"long":114.19102951884273},{"id":20015706,"name":"穗禾苑","lat":22.39264085675188,"long":114.19443860650064}],"routeId":2007761,"description":"正常班次"}]