[{"company":"gmb","route":"811","routeType":1,"orig":"穗禾苑","dest":"愉翠苑","stopList":[{"id":20015706,"name":"穗禾苑","lat":"22.392641","long":"114.194439"},{"id":20015707,"name":"穗禾路, 華樂工業中心外","lat":"22.397730","long":"114.191868"},{"id":20015708,"name":"松頭下路, 富騰工業中心外","lat":"22.398310","long":"114.194612"},{"id":20015709,"name":"樂信徑迴旋處巴士灣","lat":"22.401343","long":"114.201457"},{"id":20015710,"name":"樂信徑, 駿景園外","lat":"22.400341","long":"114.201213"},{"id":20015711,"name":"樂景街銀禧花園外的九巴88K巴士停車灣","lat":"22.396975","long":"114.199536"},{"id":20015712,"name":"樂景街火炭站對面","lat":"22.394526","long":"114.198195"},{"id":20002261,"name":"銀城街, 置富第一城外","lat":"22.386892","long":"114.203656"},{"id":20002273,"name":"銀城街, 五旬節林漢光中學外","lat":"22.384057","long":"114.201966"},{"id":20002274,"name":"插桅杆街, 第一城站外","lat":"22.382720","long":"114.203656"},{"id":20015713,"name":"愉翠苑愉欣閣","lat":"22.382310","long":"114.204766"}],"routeId":2007761,"description":"正常班次"},{"company":"gmb","route":"811","routeType":2,"orig":"愉翠苑","dest":"穗禾苑","stopList":[{"id":20015713,"name":"愉翠苑愉欣閣","lat":"22.382310","long":"114.204766"},{"id":20002293,"name":"插桅杆街, 欣廷軒外","lat":"22.382612","long":"114.203762"},{"id":20015727,"name":"威爾斯親王醫院","lat":"22.381252","long":"114.201615"},{"id":20002259,"name":"銀城街, 置富第一城•樂薈外","lat":"22.386891","long":"114.203349"},{"id":20001564,"name":"大涌橋路沙田第一城5座對出","lat":"22.388884","long":"114.202554"},{"id":20015728,"name":"樂景街, 港鐵火炭站外","lat":"22.394870","long":"114.198186"},{"id":20002230,"name":"樂景街, 銀禧花園對面","lat":"22.397711","long":"114.199754"},{"id":20015709,"name":"樂信徑迴旋處巴士灣","lat":"22.401343","long":"114.201457"},{"id":20015729,"name":"桂地街, 華耀工業中心外","lat":"22.399458","long":"114.194266"},{"id":20015730,"name":"桂地街, 近華衛工貿中心","lat":"22.400502","long":"114.192796"},{"id":20019501,"name":"桂地街, 變電站外","lat":"22.399478","long":"114.191030"},{"id":20015706,"name":"穗禾苑","lat":"22.392641","long":"114.194439"}],"routeId":2007761,"description":"正常班次"}]