[{"company":"kmb","route":"81X","routeType":"1","dir":"O","orig":"美田","dest":"旺角 (弼街)","stopList":[{"id":"90BC9EB37B24B778","name":"美田巴士總站 (TA970)","lat":"22.376324","long":"114.170565"},{"id":"C8A9DAB5E9051324","name":"美松苑 (TA165)","lat":"22.380290","long":"114.173874"},{"id":"924D67DD8AB7683D","name":"美林邨美槐樓 (TA330)","lat":"22.380025","long":"114.176045"},{"id":"E7BFF1027930CCCD","name":"美城苑 (TA331)","lat":"22.379285","long":"114.173721"},{"id":"4654E57A8E9D32EB","name":"美林巴士總站 (TA960)","lat":"22.377806","long":"114.174920"},{"id":"1276AEF95F6564A2","name":"大圍街市 (TA333)","lat":"22.373617","long":"114.177213"},{"id":"9C117FB6B6590825","name":"雲疊花園 (TA545)","lat":"22.368922","long":"114.175483"},{"id":"5FB8DC89C84A7F2B","name":"顯徑邨顯揚樓 (TA548)","lat":"22.365605","long":"114.173333"},{"id":"04C4E5AE4F8F21E1","name":"顯徑商場 (TA549)","lat":"22.364228","long":"114.171960"},{"id":"1D13B640481F4CD1","name":"顯徑邨顯慶樓 (TA560)","lat":"22.364032","long":"114.173908"},{"id":"AC2A4AB84E52364C","name":"顯徑邨顯沛樓 (TA563)","lat":"22.365267","long":"114.175018"},{"id":"99D2D097C44A98D0","name":"隆亨邨 (TA572)","lat":"22.368803","long":"114.178487"},{"id":"AAECA769A84E2372","name":"大圍轉車站 - 新翠邨 (C2)","lat":"22.370131","long":"114.179670"},{"id":"2A72F4041A7E6783","name":"大圍轉車站 - 田心村 (D1)","lat":"22.370674","long":"114.177940"},{"id":"480DB16994F8FFEE","name":"青沙公路轉車站 (TA750)","lat":"22.358632","long":"114.163389"},{"id":"F3433105FE5F6865","name":"青沙公路轉車站 (A3) (TA753)","lat":"22.358434","long":"114.163265"},{"id":"C91C122CFC3FF66B","name":"佐敦炮台街 (YT243)","lat":"22.305803","long":"114.168193"},{"id":"DF10BE627F25E7DD","name":"油麻地寧波街 (N28) (YT127)","lat":"22.306879","long":"114.171386"},{"id":"D7C7D86E923EEAE1","name":"九龍中央郵政局 (N35) (YT134)","lat":"22.309345","long":"114.171133"},{"id":"A76BB6FCB881AF5C","name":"油麻地碧街 (N48) (YT157)","lat":"22.314269","long":"114.170295"},{"id":"3B7368AAB82CC612","name":"山東街N58 朗豪坊 (MK167)","lat":"22.316986","long":"114.169714"},{"id":"D7C46496C9C7B7BA","name":"弼街N73 始創中心 (MK182)","lat":"22.321828","long":"114.168686"}],"routeId":"81X","description":"正常班次"}]