[{"company":"kmb","route":"82D","routeType":"1","dir":"O","orig":"白石角","dest":"大圍站","stopList":[{"id":"2260C9C02C307D45","name":"博研路","lat":"22.427840","long":"114.202526"},{"id":"5747450359C7907C","name":"逸瓏灣","lat":"22.431675","long":"114.203753"},{"id":"3F24CFF9046300D9","name":"雲滙 (S3)","lat":"22.429805","long":"114.203323"},{"id":"3A7AC3A5F9530786","name":"創新路 (S4)","lat":"22.428649","long":"114.204981"},{"id":"39E7051B17D302DA","name":"科研路 (S5)","lat":"22.426442","long":"114.208450"},{"id":"1C6EAAF5F48167F9","name":"科學園(第一期) (S6)","lat":"22.424272","long":"114.211589"},{"id":"A0D379E172F5BC93","name":"香港生物科技研究院 (S7)","lat":"22.422664","long":"114.214179"},{"id":"64101F297D3C1C55","name":"水上活動中心 (S8)","lat":"22.418662","long":"114.214271"},{"id":"5B39CC28607910E4","name":"馬料水公眾碼頭 (S9)","lat":"22.416027","long":"114.213945"},{"id":"3CEFE1F7CC598005","name":"大圍站總站 (G6)","lat":"22.372863","long":"114.180047"}],"routeId":"82D","description":"正常班次"},{"company":"kmb","route":"82D","routeType":"1","dir":"I","orig":"大圍站","dest":"白石角","stopList":[{"id":"3CEFE1F7CC598005","name":"大圍站總站 (G6)","lat":"22.372863","long":"114.180047"},{"id":"739A5DDE0CF1970C","name":"馬料水公眾碼頭 (N1)","lat":"22.415908","long":"114.213778"},{"id":"34E1E68A3C2AFE81","name":"水上活動中心 (N2)","lat":"22.420023","long":"114.214250"},{"id":"F808AF482CCA028E","name":"香港生物科技研究院 (N3)","lat":"22.422518","long":"114.213925"},{"id":"BE940A2F1B154D6E","name":"科學園(第一期) (N4)","lat":"22.424247","long":"114.211432"},{"id":"E8F5E085BAEFE100","name":"科研路 (N5)","lat":"22.426628","long":"114.208027"},{"id":"3313B37BF82AFF18","name":"雲滙 (N6)","lat":"22.429561","long":"114.203338"},{"id":"5747450359C7907C","name":"逸瓏灣","lat":"22.431675","long":"114.203753"},{"id":"2260C9C02C307D45","name":"博研路","lat":"22.427840","long":"114.202526"}],"routeId":"82D","description":"正常班次"}]