[{"company":"kmb","route":"83A","routeType":"1","dir":"O","orig":"水泉澳","dest":"觀塘碼頭","stopList":[{"id":"3229F37E6637B0ED","name":"水泉澳總站 (ST974)","lat":"22.374743","long":"114.197899"},{"id":"808CA5FECCC6646D","name":"多石街 (ST660)","lat":"22.377451","long":"114.201727"},{"id":"30D564180B68ECA8","name":"大老山隧道 (A2) (ST791)","lat":"22.377526","long":"114.212311"},{"id":"D80313EC29620E1D","name":"彩虹轉車站 - 碧海樓 (WT344)","lat":"22.335577","long":"114.204862"},{"id":"D9B53E4B3A192940","name":"啟業邨 (KT316)","lat":"22.330213","long":"114.210981"},{"id":"BC7C325EE59235E4","name":"九龍灣站(東九文化中心) (KT322)","lat":"22.324048","long":"114.214410"},{"id":"9E256D7EE9FE68BC","name":"牛頭角下邨 (KT328)","lat":"22.321332","long":"114.214686"},{"id":"DF942A6B97EABDC4","name":"觀塘道休憩處 (KT332)","lat":"22.317953","long":"114.215055"},{"id":"2DDD1CB69E981669","name":"創紀之城 (KT340)","lat":"22.314484","long":"114.221211"},{"id":"80B56E2C7719DAF4","name":"觀塘轉車站-觀塘市中心 (KT352)","lat":"22.313016","long":"114.225006"},{"id":"71E3EB7E709522C7","name":"觀塘開源道 (KT211)","lat":"22.309769","long":"114.223892"},{"id":"7188D2451C5AF461","name":"觀塘碼頭 (KT941)","lat":"22.307147","long":"114.222113"}],"routeId":"83A","description":"正常班次"},{"company":"gmb","route":"83A","routeType":1,"orig":"彩福邨","dest":"坪石","stopList":[{"id":20016975,"name":"彩榮路, 近彩福邨彩歡樓","lat":"22.327265","long":"114.217969"},{"id":20016976,"name":"彩榮路, 近彩福邨彩善樓","lat":"22.328668","long":"114.217269"},{"id":20016977,"name":"彩榮路, 近彩福邨彩和樓","lat":"22.329821","long":"114.216499"},{"id":20016978,"name":"彩榮路, 彩德邨彩仁樓對面","lat":"22.330917","long":"114.212438"},{"id":20016966,"name":"彩德邨通道, 近彩德邨彩誠樓","lat":"22.330529","long":"114.213490"},{"id":20016979,"name":"彩興路, 近彩興苑彩薈閣","lat":"22.331268","long":"114.213994"},{"id":20012360,"name":"坪石公共運輸交匯處一樓","lat":"22.334044","long":"114.210095"}],"routeId":2008818,"description":"特別服務路線"},{"company":"gmb","route":"83A","routeType":2,"orig":"坪石","dest":"彩福邨","stopList":[{"id":20012360,"name":"坪石公共運輸交匯處一樓","lat":"22.334044","long":"114.210095"},{"id":20016968,"name":"彩興路, 近彩德邨彩義樓","lat":"22.331145","long":"114.213375"},{"id":20016980,"name":"彩榮路, 近彩德邨彩仁樓","lat":"22.330730","long":"114.212200"},{"id":20016981,"name":"彩榮路, 近彩德邨彩信樓","lat":"22.329567","long":"114.212609"},{"id":20016982,"name":"彩榮路, 近彩德邨彩賢樓","lat":"22.329816","long":"114.215140"},{"id":20016983,"name":"彩榮路, 彩福邨彩樂樓對面","lat":"22.328705","long":"114.217355"},{"id":20016975,"name":"彩榮路, 近彩福邨彩歡樓","lat":"22.327265","long":"114.217969"}],"routeId":2008818,"description":"特別服務路線"},{"company":"gmb","route":"83A","routeType":1,"orig":"荃灣(川龍街)","dest":"安蔭邨(安捷街)","stopList":[{"id":20016696,"name":"荃灣(川龍街)","lat":"22.369890","long":"114.115630"},{"id":20001646,"name":"沙咀道戴麟趾夫人分科診療所外","lat":"22.370456","long":"114.115510"},{"id":20016697,"name":"沙咀道249號外","lat":"22.370048","long":"114.116245"},{"id":20016698,"name":"沙咀道289號外","lat":"22.369386","long":"114.117455"},{"id":20016699,"name":"沙咀道301-309號外","lat":"22.369085","long":"114.118015"},{"id":20016700,"name":"沙咀道名逸居外","lat":"22.367455","long":"114.121031"},{"id":20016701,"name":"荃富街荃富街花園外","lat":"22.368794","long":"114.121894"},{"id":20001445,"name":"青山公路-荃灣段港鐵大窩口站外","lat":"22.370568","long":"114.124016"},{"id":20001654,"name":"青山公路-葵涌段454號外","lat":"22.367338","long":"114.134998"},{"id":20016702,"name":"和宜合道雍雅軒外","lat":"22.366247","long":"114.137147"},{"id":20022372,"name":"大白田街近大隴街","lat":"22.366892","long":"114.139154"},{"id":20016703,"name":"安蔭邨(安捷街)","lat":"22.373003","long":"114.141833"}],"routeId":2008587,"description":"正常班次"},{"company":"gmb","route":"83A","routeType":2,"orig":"安蔭邨(安捷街)","dest":"荃灣(川龍街)","stopList":[{"id":20016703,"name":"安蔭邨(安捷街)","lat":"22.373003","long":"114.141833"},{"id":20016708,"name":"石蔭路113-117號對面","lat":"22.370508","long":"114.138600"},{"id":20016709,"name":"石蔭路76-96號外","lat":"22.369532","long":"114.139672"},{"id":20016710,"name":"和宜合道159-165號外","lat":"22.371102","long":"114.136768"},{"id":20001660,"name":"昌榮路1-7號外","lat":"22.371483","long":"114.135531"},{"id":20020500,"name":" 青山公路－荃灣段大窩口站外","lat":"22.370389","long":"114.124539"},{"id":20015943,"name":"沙咀道尚翠苑外","lat":"22.367674","long":"114.120255"},{"id":20001643,"name":"沙咀道寶石大廈外","lat":"22.368949","long":"114.117967"},{"id":20016696,"name":"荃灣(川龍街)","lat":"22.369890","long":"114.115630"}],"routeId":2008587,"description":"正常班次"}]