[{"company":"kmb","route":"83A","routeType":"1","dir":"O","orig":"水泉澳","dest":"觀塘碼頭","stopList":[{"id":"3229F37E6637B0ED","name":"水泉澳總站 (ST974)","lat":"22.374743","long":"114.197899"},{"id":"808CA5FECCC6646D","name":"多石街 (ST660)","lat":"22.377451","long":"114.201727"},{"id":"30D564180B68ECA8","name":"大老山隧道 (A2) (ST791)","lat":"22.377526","long":"114.212311"},{"id":"D80313EC29620E1D","name":"彩虹轉車站 - 碧海樓 (WT344)","lat":"22.335577","long":"114.204862"},{"id":"D9B53E4B3A192940","name":"啟業邨 (KT316)","lat":"22.330213","long":"114.210981"},{"id":"BC7C325EE59235E4","name":"九龍灣站(東九文化中心) (KT322)","lat":"22.324048","long":"114.214410"},{"id":"9E256D7EE9FE68BC","name":"牛頭角下邨 (KT328)","lat":"22.321332","long":"114.214686"},{"id":"DF942A6B97EABDC4","name":"觀塘道休憩處 (KT332)","lat":"22.317953","long":"114.215055"},{"id":"2DDD1CB69E981669","name":"創紀之城 (U6) (KT340)","lat":"22.314484","long":"114.221211"},{"id":"80B56E2C7719DAF4","name":"觀塘轉車站 - 觀塘市中心 (T1)","lat":"22.313016","long":"114.225006"},{"id":"71E3EB7E709522C7","name":"觀塘開源道 (KT211)","lat":"22.309769","long":"114.223892"},{"id":"2FCE924121B95FE8","name":"觀塘碼頭 (KT937)","lat":"22.307616","long":"114.221693"}],"routeId":"83A","description":"正常班次"},{"company":"gmb","route":"83A","routeType":1,"orig":"彩福邨","dest":"坪石","stopList":[{"id":20016975,"name":"彩榮路, 近彩福邨彩歡樓","lat":22.327264989457134,"long":114.21796888717644},{"id":20016976,"name":"彩榮路, 近彩福邨彩善樓","lat":22.328668035417547,"long":114.2172694813194},{"id":20016977,"name":"彩榮路, 近彩福邨彩和樓","lat":22.329820517467887,"long":114.21649900353587},{"id":20016978,"name":"彩榮路, 彩德邨彩仁樓對面","lat":22.33091727295945,"long":114.2124384033803},{"id":20016966,"name":"彩德邨通道, 近彩德邨彩誠樓","lat":22.330528562194182,"long":114.21349013066143},{"id":20016979,"name":"彩興路, 近彩興苑彩薈閣","lat":22.331267874789475,"long":114.21399436668256},{"id":20012360,"name":"坪石公共運輸交匯處一樓","lat":22.33404366547606,"long":114.21009489275816}],"routeId":2008818,"description":"特別服務路線"},{"company":"gmb","route":"83A","routeType":2,"orig":"坪石","dest":"彩福邨","stopList":[{"id":20012360,"name":"坪石公共運輸交匯處一樓","lat":22.33404366547606,"long":114.21009489275816},{"id":20016968,"name":"彩興路, 近彩德邨彩義樓","lat":22.33114492387165,"long":114.21337528216775},{"id":20016980,"name":"彩榮路, 近彩德邨彩仁樓","lat":22.33072980649234,"long":114.21220010209132},{"id":20016981,"name":"彩榮路, 近彩德邨彩信樓","lat":22.329567295107235,"long":114.21260948589216},{"id":20016982,"name":"彩榮路, 近彩德邨彩賢樓","lat":22.32981646987208,"long":114.21513981155151},{"id":20016983,"name":"彩榮路, 彩福邨彩樂樓對面","lat":22.32870498066256,"long":114.2173553924545},{"id":20016975,"name":"彩榮路, 近彩福邨彩歡樓","lat":22.327264989457134,"long":114.21796888717644}],"routeId":2008818,"description":"特別服務路線"},{"company":"gmb","route":"83A","routeType":1,"orig":"荃灣(川龍街)","dest":"安蔭邨(安捷街)","stopList":[{"id":20016696,"name":"荃灣(川龍街)","lat":22.369890200177373,"long":114.11563044410792},{"id":20001646,"name":"沙咀道戴麟趾夫人分科診療所外","lat":22.370456331663856,"long":114.11551031719436},{"id":20016697,"name":"沙咀道249號外","lat":22.370047838202225,"long":114.11624472770187},{"id":20016698,"name":"沙咀道285號外","lat":22.36938571541717,"long":114.11745530720049},{"id":20016699,"name":"沙咀道305號外","lat":22.36908524712302,"long":114.11801516972918},{"id":20016700,"name":"沙咀道名逸居外","lat":22.36745514742101,"long":114.12103075410762},{"id":20016701,"name":"荃富街荃富街花園外","lat":22.36879405293173,"long":114.12189422636472},{"id":20001445,"name":"青山公路-荃灣段港鐵大窩口站外","lat":22.37056769718124,"long":114.1240157978919},{"id":20001654,"name":"青山公路-葵涌段454號外","lat":22.36733797607304,"long":114.13499821829895},{"id":20016702,"name":"和宜合道雍雅軒外","lat":22.366246636019373,"long":114.13714656398186},{"id":20016703,"name":"安蔭邨(安捷街)","lat":22.373003203908198,"long":114.14183260438317}],"routeId":2008587,"description":"正常班次"},{"company":"gmb","route":"83A","routeType":2,"orig":"安蔭邨(安捷街)","dest":"荃灣(川龍街)","stopList":[{"id":20016703,"name":"安蔭邨(安捷街)","lat":22.373003203908198,"long":114.14183260438317},{"id":20016708,"name":"石蔭路113-117號對面","lat":22.37050780465194,"long":114.13860011621668},{"id":20016709,"name":"石蔭路76-96號外","lat":22.36953247393377,"long":114.13967176933224},{"id":20016710,"name":"和宜合道159-163號外","lat":22.37110184951581,"long":114.13676798757196},{"id":20001660,"name":"昌榮路1-7號外","lat":22.3714831294159,"long":114.13553100630378},{"id":20020500,"name":" 青山公路－荃灣段大窩口站外","lat":22.370388903259414,"long":114.12453889846803},{"id":20015943,"name":"沙咀道尚翠苑外","lat":22.367674118673616,"long":114.12025505783112},{"id":20001643,"name":"沙咀道寶石大廈外","lat":22.368949144642645,"long":114.11796745447472},{"id":20016696,"name":"荃灣(川龍街)","lat":22.369890200177373,"long":114.11563044410792}],"routeId":2008587,"description":"正常班次"}]