[{"company":"kmb","route":"83K","routeType":"1","dir":"O","orig":"黃泥頭","dest":"沙田市中心(循環線)","stopList":[{"id":"2CEEB19BC6404A39","name":"黃泥頭巴士總站 (ST895)","lat":"22.382321","long":"114.217722"},{"id":"7E3C2CA5ABEC8416","name":"廣源邨廣柏樓 (ST601)","lat":"22.383034","long":"114.214434"},{"id":"BCEEE192EF01C361","name":"廣源邨廣榕樓 (ST620)","lat":"22.381391","long":"114.213811"},{"id":"3F01C915E856B018","name":"香港恒生大學 (ST623)","lat":"22.380537","long":"114.211840"},{"id":"6282A73360ACEBEA","name":"牛皮沙新村 (ST630)","lat":"22.379688","long":"114.209116"},{"id":"8F78659628BA6795","name":"愉翠苑 (ST632)","lat":"22.382106","long":"114.205674"},{"id":"D55177A9D510B2E2","name":"沙田工業中心 (ST640)","lat":"22.384121","long":"114.205092"},{"id":"B8E228521E55C7C5","name":"第一城寶城街 (ST607)","lat":"22.386360","long":"114.205960"},{"id":"6AE1163C3BD93D0E","name":"沙田第一城 (ST507)","lat":"22.388459","long":"114.201851"},{"id":"548DAB3A4F71EB68","name":"富豪花園 (ST511)","lat":"22.384677","long":"114.198142"},{"id":"D242CDB564D5CCA2","name":"麗豪酒店 (ST515)","lat":"22.382220","long":"114.195786"},{"id":"582E6E50ED66EB11","name":"沙田市中心總站 (ST917)","lat":"22.381869","long":"114.187905"},{"id":"D137ADD65D333E0B","name":"好運中心 (ST167)","lat":"22.382784","long":"114.190618"},{"id":"142BE7225B0BB745","name":"瀝源邨 (ST177)","lat":"22.384405","long":"114.193158"},{"id":"AFC5E64568DBB2D5","name":"禾輋邨 (ST180)","lat":"22.388004","long":"114.196544"},{"id":"A295FD27A4E5A7C5","name":"小瀝源草地滾球場 (ST530)","lat":"22.388524","long":"114.203828"},{"id":"82F22BA7623AA4CB","name":"小瀝源路遊樂場 (ST531)","lat":"22.386434","long":"114.206225"},{"id":"A9FFF4974D4AC160","name":"小瀝源消防局 (ST316)","lat":"22.384088","long":"114.205256"},{"id":"51FCE282462E418B","name":"愉翠苑 (ST320)","lat":"22.382525","long":"114.205475"},{"id":"F8BB84BC801E4C85","name":"牛皮沙新村 (ST325)","lat":"22.380184","long":"114.207696"},{"id":"BC39BFC3C7BC3009","name":"香港恒生大學 (ST330)","lat":"22.380733","long":"114.211916"},{"id":"2FABE52A66DF7482","name":"廣柏樓 (ST332)","lat":"22.381786","long":"114.213729"},{"id":"C1E1199805BCC92D","name":"帝堡城 (ST538)","lat":"22.382838","long":"114.215121"},{"id":"2CEEB19BC6404A39","name":"黃泥頭巴士總站 (ST895)","lat":"22.382321","long":"114.217722"}],"routeId":"83K","description":"正常班次"},{"company":"kmb","route":"83K","routeType":"2","dir":"O","orig":"碩門邨","dest":"沙田巿中心","stopList":[{"id":"0035CDF15614428C","name":"碩門邨巴士總站 (ST991)","lat":"22.387499","long":"114.208580"},{"id":"B8E228521E55C7C5","name":"第一城寶城街 (ST607)","lat":"22.386360","long":"114.205960"},{"id":"6AE1163C3BD93D0E","name":"沙田第一城 (ST507)","lat":"22.388459","long":"114.201851"},{"id":"7421C8745B4EDF25","name":"禾輋邨 (ST734)","lat":"22.387291","long":"114.196122"},{"id":"8EFA13840D1272E8","name":"瀝源邨 (ST735)","lat":"22.384292","long":"114.193409"},{"id":"582E6E50ED66EB11","name":"沙田市中心總站 (ST917)","lat":"22.381869","long":"114.187905"}],"routeId":"83K","description":"特別班次"}]