[{"company":"gmb","route":"84","routeType":1,"orig":"荃威花園","dest":"荃灣眾安街","stopList":[{"id":20007153,"name":"荃威花園","lat":"22.377297","long":"114.103982"},{"id":20007154,"name":"荃景圍178號外","lat":"22.378408","long":"114.104496"},{"id":20007155,"name":"沙咀道55號外","lat":"22.373479","long":"114.109974"},{"id":20007156,"name":"大涌道近合福工業大廈外巴士站","lat":"22.373823","long":"114.110984"},{"id":20001872,"name":"青山公路-荃灣段中染大廈外","lat":"22.374962","long":"114.112867"},{"id":20001873,"name":"西樓角路南豐中心對面","lat":"22.374096","long":"114.116480"},{"id":20001661,"name":"荃灣眾安街","lat":"22.369066","long":"114.116433"}],"routeId":2000964,"description":"正常班次"},{"company":"gmb","route":"84","routeType":2,"orig":"荃灣眾安街","dest":"荃威花園","stopList":[{"id":20001661,"name":"荃灣眾安街","lat":"22.369066","long":"114.116433"},{"id":20001942,"name":"楊屋道荃新天地2期外","lat":"22.368180","long":"114.114793"},{"id":20007223,"name":"荃景圍家興大廈外","lat":"22.376385","long":"114.104759"},{"id":20007153,"name":"荃威花園","lat":"22.377297","long":"114.103982"}],"routeId":2000964,"description":"正常班次"}]