[{"company":"kmb","route":"85S","routeType":"1","dir":"O","orig":"耀安","dest":"紅磡(紅鸞道)","stopList":[{"id":"F1F906098E7C35E9","name":"耀安巴士總站 (MA932)","lat":"22.419454","long":"114.229812"},{"id":"5E073AD8BC9F2AC8","name":"馬鞍山運動場 (MA127)","lat":"22.421847","long":"114.228372"},{"id":"496BF5ECB5F376CB","name":"頌安邨 (MA318)","lat":"22.420755","long":"114.227205"},{"id":"8C52C44C69CEEA51","name":"錦鞍苑 (MA321)","lat":"22.418247","long":"114.226248"},{"id":"6B46C7E695EF21CF","name":"欣安邨 (MA142)","lat":"22.415305","long":"114.226294"},{"id":"8019E4CBB686CD25","name":"保泰街 (MA342)","lat":"22.414096","long":"114.223697"},{"id":"6E89147F6697E490","name":"德信中學 (MA352)","lat":"22.410689","long":"114.221549"},{"id":"2CC81AE9D0A0E668","name":"錦泰苑 (MA356)","lat":"22.407939","long":"114.220010"},{"id":"4A3D71FFAB41B756","name":"亞公角 (MA401)","lat":"22.402012","long":"114.215473"},{"id":"A78292AA77A277A7","name":"沙田醫院 (MA403)","lat":"22.398890","long":"114.212419"},{"id":"3114213F8975F536","name":"大老山隧道 (A3) (ST790)","lat":"22.377471","long":"114.212368"},{"id":"D1AAD1771F3FA9A0","name":"采頤花園 (WT694)","lat":"22.335008","long":"114.202058"},{"id":"C80FB453C9F53569","name":"譽．港灣 (WT697)","lat":"22.332000","long":"114.196917"},{"id":"F6E296480D3481A2","name":"宋皇臺道 (KC717)","lat":"22.323933","long":"114.188588"},{"id":"25455FDE268CF605","name":"北帝街 (KC751)","lat":"22.323055","long":"114.189914"},{"id":"C1AFF00AC64F457A","name":"香港盲人輔導會 (KC753)","lat":"22.321487","long":"114.193520"},{"id":"5396072459507B7F","name":"翔龍灣 (KC760)","lat":"22.319619","long":"114.192985"},{"id":"C048D4CF6ED36C7A","name":"貴州街 (KC762)","lat":"22.318206","long":"114.191623"},{"id":"68A8F08ABC5C90F0","name":"落山道 (KC766)","lat":"22.316874","long":"114.190332"},{"id":"91929D42214F3D7F","name":"鴻福街 (KC770)","lat":"22.314563","long":"114.188116"},{"id":"97B7EC0354E020B7","name":"紅磡庇利街 (HH781)","lat":"22.311523","long":"114.187652"},{"id":"ED03E689B88CE0E8","name":"紅磡鶴園街 (HH785)","lat":"22.309978","long":"114.187750"},{"id":"B122FA4A77BABF24","name":"德民街 (HH345)","lat":"22.306096","long":"114.187969"},{"id":"0389A57B9FCD3AB5","name":"紅磡(紅鸞道) 嘉里酒店 (HH901)","lat":"22.301743","long":"114.188848"}],"routeId":"85S","description":"正常班次"}]