[{"company":"kmb","route":"86C","routeType":"1","dir":"O","orig":"利安","dest":"長沙灣","stopList":[{"id":"59D327FA9F8EDD40","name":"利安巴士總站","lat":"22.425237","long":"114.240928"},{"id":"042BAE34F58C8D01","name":"錦英苑","lat":"22.423882","long":"114.238591"},{"id":"7333653B0F4B71BD","name":"新港城","lat":"22.422761","long":"114.232945"},{"id":"CA7CE166F4E6677F","name":"馬鞍山市中心","lat":"22.424591","long":"114.231730"},{"id":"842DC076B16BE3A2","name":"馬鞍山運動場","lat":"22.422232","long":"114.228303"},{"id":"1F1A440137854ABF","name":"耀安邨耀謙樓","lat":"22.418190","long":"114.230528"},{"id":"5A77AE8E12B13718","name":"富安花園","lat":"22.406903","long":"114.222652"},{"id":"34740DD5ABC36F12","name":"亞公角","lat":"22.402205","long":"114.216004"},{"id":"25E1BAE2C272ED4C","name":"沙田醫院","lat":"22.398915","long":"114.212447"},{"id":"578C11F0F4197509","name":"石門轉車站-新界鄉議局大樓 (S3)","lat":"22.391450","long":"114.206460"},{"id":"0ABE48106C953AC9","name":"沙田第一城","lat":"22.388438","long":"114.201825"},{"id":"548DAB3A4F71EB68","name":"富豪花園","lat":"22.384677","long":"114.198142"},{"id":"4432C7295979305C","name":"麗豪酒店","lat":"22.382140","long":"114.195701"},{"id":"149ADEC589550041","name":"乙明邨","lat":"22.377364","long":"114.191094"},{"id":"AF47DA55FCC27679","name":"曾大屋","lat":"22.375411","long":"114.189055"},{"id":"A432A047D1B0DD62","name":"新田圍邨","lat":"22.370698","long":"114.189159"},{"id":"6652A2FE695AD8C2","name":"根德道","lat":"22.339922","long":"114.176677"},{"id":"9B3566445BDAD548","name":"石硤尾公園","lat":"22.339246","long":"114.171103"},{"id":"A8E94E7F793372BD","name":"則仁中心","lat":"22.339781","long":"114.167522"},{"id":"E275C17540BCEF37","name":"石硤尾消防局","lat":"22.338696","long":"114.167401"},{"id":"6D1087ACF14C15A9","name":"白田邨瑞田樓","lat":"22.335930","long":"114.169080"},{"id":"46ABE64DB9C82DDF","name":"黃棣珊紀念中學","lat":"22.334730","long":"114.168440"},{"id":"9F914539576C53A5","name":"石硤尾商場","lat":"22.332023","long":"114.166014"},{"id":"259DBCF52320E083","name":"福華街","lat":"22.330266","long":"114.164462"},{"id":"A8C595F1E33B5DEF","name":"北河街","lat":"22.329064","long":"114.162397"},{"id":"1A85B99EDE6D01D8","name":"怡閣苑 (X17)","lat":"22.333414","long":"114.158573"},{"id":"55973ABF49182097","name":"長沙灣東京街 (X22)","lat":"22.334934","long":"114.156659"},{"id":"D355B700FF30B3D7","name":"長沙灣興華街 (X28)","lat":"22.337744","long":"114.152954"},{"id":"B6ECF261EB79418C","name":"長沙灣長荔街 (X46)","lat":"22.336684","long":"114.146749"}],"routeId":"86C","description":"正常班次"},{"company":"kmb","route":"86C","routeType":"1","dir":"I","orig":"長沙灣","dest":"利安","stopList":[{"id":"C11E1332DE4D4C5E","name":"長沙灣巴士總站","lat":"22.337023","long":"114.148423"},{"id":"D40C730A1930BABB","name":"汝州西街","lat":"22.339009","long":"114.149891"},{"id":"26CEAEF7BD0F6F59","name":"集輝街","lat":"22.339908","long":"114.152533"},{"id":"242816965CAB8FE2","name":"興華街","lat":"22.339662","long":"114.154920"},{"id":"E09CA927E9BF25C5","name":"永隆街","lat":"22.337487","long":"114.157727"},{"id":"524F66D9EBDACACD","name":"東沙島街","lat":"22.336070","long":"114.159544"},{"id":"FE824F449F3D217F","name":"九江街","lat":"22.334742","long":"114.161269"},{"id":"82867084F4E7B92E","name":"長沙灣政府合署","lat":"22.331866","long":"114.161257"},{"id":"812E72C257C94B73","name":"深水埗北河街 (Y27)","lat":"22.330678","long":"114.162566"},{"id":"710390556FA80CAD","name":"福華街","lat":"22.330425","long":"114.164174"},{"id":"35330105A8CCC2AD","name":"窩仔街","lat":"22.332423","long":"114.166048"},{"id":"BBC5D60D2FB827D2","name":"白田邨瑞田樓","lat":"22.334875","long":"114.168291"},{"id":"36EE1028F547488D","name":"白田邨富田樓","lat":"22.336943","long":"114.169137"},{"id":"094457650286AA67","name":"石硤尾消防局","lat":"22.338766","long":"114.166833"},{"id":"9E16397100F502B9","name":"則仁中心","lat":"22.339973","long":"114.166933"},{"id":"121D3CCF6A82532F","name":"石硤尾公園","lat":"22.339434","long":"114.170165"},{"id":"90DC2AE9EBAF2658","name":"義德道","lat":"22.340149","long":"114.178327"},{"id":"D099C45C9443AFC8","name":"映月台","lat":"22.342180","long":"114.178621"},{"id":"B0D6494AF630229A","name":"新田圍邨","lat":"22.368914","long":"114.187352"},{"id":"8F8F2B65EFDC48FD","name":"曾大屋","lat":"22.375677","long":"114.188825"},{"id":"023C6F2CCE65A42E","name":"乙明邨","lat":"22.378443","long":"114.191773"},{"id":"EB0D8F8D1AF9DDDE","name":"麗豪酒店","lat":"22.382690","long":"114.195818"},{"id":"A67E402790581309","name":"富豪花園","lat":"22.385055","long":"114.198133"},{"id":"91481C9100917BA7","name":"沙田第一城","lat":"22.389405","long":"114.203110"},{"id":"40829C12642639D4","name":"石門轉車站 - 濱景花園 (N2)","lat":"22.391590","long":"114.206164"},{"id":"16A7F2C343AA6DE6","name":"沙田醫院","lat":"22.399870","long":"114.213035"},{"id":"4B0E21EDF07F9C83","name":"亞公角","lat":"22.402759","long":"114.216742"},{"id":"1CF4AE2F7045B848","name":"富安花園","lat":"22.406232","long":"114.221917"},{"id":"1B4B4E62514B9043","name":"恆安邨","lat":"22.417701","long":"114.230957"},{"id":"857F6F958A96DCDB","name":"馬鞍山運動場","lat":"22.421785","long":"114.228481"},{"id":"46D02E1C1CD82C9A","name":"海栢花園","lat":"22.425032","long":"114.231520"},{"id":"1E04D9D97DE148C2","name":"馬鞍山警署","lat":"22.422348","long":"114.232940"},{"id":"4B5F39DBC6671C81","name":"錦英苑","lat":"22.423954","long":"114.238505"}],"routeId":"86C","description":"正常班次"}]