[{"company":"kmb","route":"86C","routeType":"1","dir":"O","orig":"利安","dest":"長沙灣","stopList":[{"id":"59D327FA9F8EDD40","name":"利安巴士總站 (MA971)","lat":"22.425237","long":"114.240928"},{"id":"042BAE34F58C8D01","name":"錦英苑 (MA335)","lat":"22.423882","long":"114.238591"},{"id":"7333653B0F4B71BD","name":"新港城 (MA113)","lat":"22.422761","long":"114.232945"},{"id":"CA7CE166F4E6677F","name":"馬鞍山市中心 (MA308)","lat":"22.424591","long":"114.231730"},{"id":"842DC076B16BE3A2","name":"馬鞍山運動場 (MA370)","lat":"22.422232","long":"114.228303"},{"id":"1F1A440137854ABF","name":"耀安邨耀謙樓 (MA377)","lat":"22.418190","long":"114.230528"},{"id":"2021D186A889FA2E","name":"錦駿苑 (MA185)","lat":"22.413265","long":"114.226888"},{"id":"5A77AE8E12B13718","name":"富安花園 (MA391)","lat":"22.406903","long":"114.222652"},{"id":"34740DD5ABC36F12","name":"亞公角 (MA402)","lat":"22.402205","long":"114.216004"},{"id":"25E1BAE2C272ED4C","name":"沙田醫院 (MA404)","lat":"22.398915","long":"114.212447"},{"id":"578C11F0F4197509","name":"石門轉車站-新界鄉議局大樓","lat":"22.391450","long":"114.206460"},{"id":"0ABE48106C953AC9","name":"沙田第一城 (ST508)","lat":"22.388438","long":"114.201825"},{"id":"548DAB3A4F71EB68","name":"富豪花園 (ST511)","lat":"22.384677","long":"114.198142"},{"id":"4432C7295979305C","name":"麗豪酒店 (ST516)","lat":"22.382140","long":"114.195701"},{"id":"149ADEC589550041","name":"乙明邨 (ST520)","lat":"22.377364","long":"114.191094"},{"id":"AF47DA55FCC27679","name":"曾大屋 (ST523)","lat":"22.375411","long":"114.189055"},{"id":"2880D4E073BF7A9A","name":"新田圍邨 (ST775)","lat":"22.370803","long":"114.189355"},{"id":"6652A2FE695AD8C2","name":"根德道 (KC577)","lat":"22.339922","long":"114.176677"},{"id":"9B3566445BDAD548","name":"石硤尾公園 (SS581)","lat":"22.339246","long":"114.171103"},{"id":"A8E94E7F793372BD","name":"則仁中心 (SS582)","lat":"22.339781","long":"114.167522"},{"id":"E275C17540BCEF37","name":"石硤尾消防局 (SS586)","lat":"22.338696","long":"114.167401"},{"id":"6D1087ACF14C15A9","name":"白田邨瑞田樓 (SS587)","lat":"22.335930","long":"114.169080"},{"id":"46ABE64DB9C82DDF","name":"黃棣珊紀念中學 (SS588)","lat":"22.334730","long":"114.168440"},{"id":"9F914539576C53A5","name":"石硤尾商場 (SS591)","lat":"22.332023","long":"114.166014"},{"id":"259DBCF52320E083","name":"福華街 (SS592)","lat":"22.330266","long":"114.164462"},{"id":"A8C595F1E33B5DEF","name":"北河街 (SS335)","lat":"22.329064","long":"114.162397"},{"id":"1A85B99EDE6D01D8","name":"怡閣苑 (SS218)","lat":"22.333414","long":"114.158573"},{"id":"55973ABF49182097","name":"長沙灣東京街 (SS223)","lat":"22.334934","long":"114.156659"},{"id":"D355B700FF30B3D7","name":"長沙灣興華街 (SS229)","lat":"22.337744","long":"114.152954"},{"id":"B6ECF261EB79418C","name":"長沙灣長荔街 (SS247)","lat":"22.336684","long":"114.146749"},{"id":"C11E1332DE4D4C5E","name":"長沙灣巴士總站 (SS960)","lat":"22.337023","long":"114.148423"}],"routeId":"86C","description":"正常班次"},{"company":"kmb","route":"86C","routeType":"1","dir":"I","orig":"長沙灣","dest":"利安","stopList":[{"id":"C11E1332DE4D4C5E","name":"長沙灣巴士總站 (SS960)","lat":"22.337023","long":"114.148423"},{"id":"D40C730A1930BABB","name":"汝州西街 (SS516)","lat":"22.339009","long":"114.149891"},{"id":"26CEAEF7BD0F6F59","name":"集輝街 (SS521)","lat":"22.339908","long":"114.152533"},{"id":"242816965CAB8FE2","name":"興華街 (SS525)","lat":"22.339662","long":"114.154920"},{"id":"E09CA927E9BF25C5","name":"永隆街 (SS532)","lat":"22.337487","long":"114.157727"},{"id":"524F66D9EBDACACD","name":"東沙島街 (SS538)","lat":"22.336070","long":"114.159544"},{"id":"FE824F449F3D217F","name":"九江街 (SS543)","lat":"22.334742","long":"114.161269"},{"id":"82867084F4E7B92E","name":"長沙灣政府合署 (SS181)","lat":"22.331866","long":"114.161257"},{"id":"812E72C257C94B73","name":"深水埗北河街 (SS491)","lat":"22.330678","long":"114.162566"},{"id":"710390556FA80CAD","name":"福華街 (SS102)","lat":"22.330425","long":"114.164174"},{"id":"35330105A8CCC2AD","name":"窩仔街 (SS103)","lat":"22.332423","long":"114.166048"},{"id":"BBC5D60D2FB827D2","name":"黃棣珊紀念中學 (SS107)","lat":"22.334875","long":"114.168291"},{"id":"36EE1028F547488D","name":"白田邨富田樓 (SS109)","lat":"22.336943","long":"114.169137"},{"id":"094457650286AA67","name":"石硤尾消防局 (SS110)","lat":"22.338766","long":"114.166833"},{"id":"9E16397100F502B9","name":"則仁中心 (SS115)","lat":"22.339973","long":"114.166933"},{"id":"121D3CCF6A82532F","name":"石硤尾公園 (SS116)","lat":"22.339434","long":"114.170165"},{"id":"90DC2AE9EBAF2658","name":"義德道 (KC118)","lat":"22.340149","long":"114.178327"},{"id":"D099C45C9443AFC8","name":"映月台 (KC344)","lat":"22.342180","long":"114.178621"},{"id":"B0D6494AF630229A","name":"新田圍邨 (ST101)","lat":"22.368914","long":"114.187352"},{"id":"8F8F2B65EFDC48FD","name":"曾大屋 (ST135)","lat":"22.375677","long":"114.188825"},{"id":"023C6F2CCE65A42E","name":"乙明邨 (ST137)","lat":"22.378443","long":"114.191773"},{"id":"EB0D8F8D1AF9DDDE","name":"麗豪酒店 (ST139)","lat":"22.382690","long":"114.195818"},{"id":"A67E402790581309","name":"富豪花園 (ST142)","lat":"22.385055","long":"114.198133"},{"id":"91481C9100917BA7","name":"沙田第一城 (ST146)","lat":"22.389405","long":"114.203110"},{"id":"40829C12642639D4","name":"石門轉車站 - 濱景花園 (ST147)","lat":"22.391590","long":"114.206164"},{"id":"16A7F2C343AA6DE6","name":"沙田醫院 (MA100)","lat":"22.399870","long":"114.213035"},{"id":"4B0E21EDF07F9C83","name":"亞公角 (MA103)","lat":"22.402759","long":"114.216742"},{"id":"1CF4AE2F7045B848","name":"富安花園 (MA108)","lat":"22.406232","long":"114.221917"},{"id":"E27820FF0AF73D52","name":"錦駿苑 (MA110)","lat":"22.411915","long":"114.224178"},{"id":"1B4B4E62514B9043","name":"恆安邨 (MA120)","lat":"22.417701","long":"114.230957"},{"id":"857F6F958A96DCDB","name":"馬鞍山運動場 (MA126)","lat":"22.421785","long":"114.228481"},{"id":"46D02E1C1CD82C9A","name":"海栢花園 (MA159)","lat":"22.425032","long":"114.231520"},{"id":"1E04D9D97DE148C2","name":"馬鞍山警署 (MA181)","lat":"22.422348","long":"114.232940"},{"id":"4B5F39DBC6671C81","name":"錦英苑 (MA190)","lat":"22.423954","long":"114.238505"},{"id":"59D327FA9F8EDD40","name":"利安巴士總站 (MA971)","lat":"22.425237","long":"114.240928"}],"routeId":"86C","description":"正常班次"}]