[{"company":"kmb","route":"87D","routeType":"1","dir":"O","orig":"錦英苑","dest":"紅磡站","stopList":[{"id":"8CFD0DAAA2D9B47E","name":"錦英苑巴士總站","lat":"22.423558","long":"114.237219"},{"id":"D156C558FF163BE3","name":"錦龍苑","lat":"22.426073","long":"114.239403"},{"id":"013F884CBCB1CBE4","name":"富寶花園","lat":"22.425459","long":"114.235563"},{"id":"41E806B7927291BE","name":"馬鞍山市中心總站","lat":"22.424211","long":"114.231614"},{"id":"028E0B68D3166C00","name":"福安花園","lat":"22.423273","long":"114.228508"},{"id":"BC45FA032C515D44","name":"耀安邨","lat":"22.419368","long":"114.229393"},{"id":"30553FA19D045D25","name":"富安花園","lat":"22.407330","long":"114.222794"},{"id":"34740DD5ABC36F12","name":"亞公角","lat":"22.402205","long":"114.216004"},{"id":"25E1BAE2C272ED4C","name":"沙田醫院","lat":"22.398915","long":"114.212447"},{"id":"823E3EE2413E40E2","name":"石門轉車站-新界鄉議局大樓 (S2)","lat":"22.391352","long":"114.206356"},{"id":"E7133179F5800E85","name":"沙田第一城","lat":"22.388375","long":"114.201751"},{"id":"E34E3D48842C9B66","name":"獅子山隧道","lat":"22.358837","long":"114.174677"},{"id":"DF9E89A391CAC245","name":"九龍塘聯合道","lat":"22.337913","long":"114.179235"},{"id":"657E5836BC932790","name":"九龍塘站","lat":"22.335577","long":"114.179089"},{"id":"7A1C43F91CF8A6FC","name":"九龍塘會","lat":"22.329348","long":"114.178743"},{"id":"60F1DDDCB555E319","name":"拔萃男書院","lat":"22.324949","long":"114.174484"},{"id":"F7CAA2D4FF9D61F7","name":"太子站","lat":"22.324126","long":"114.169855"},{"id":"14F176D358D65A8B","name":"旺角奶路臣街 (S15)","lat":"22.318724","long":"114.169580"},{"id":"8E3A5C15E42020BB","name":"旺角豉油街 (S23)","lat":"22.316078","long":"114.170175"},{"id":"96442B84082D4DF5","name":"油麻地永星里 (S35)","lat":"22.311247","long":"114.171112"},{"id":"508D99EBC9AB3A9B","name":"油麻地長樂街 (S42)","lat":"22.306887","long":"114.171625"},{"id":"FE56DD70DEDE0395","name":"聖安德烈堂 (S48)","lat":"22.301952","long":"114.172017"},{"id":"D2217D7746597D10","name":"尖沙咀轉車站 - 中間道 (S54)","lat":"22.295794","long":"114.172446"},{"id":"5D75A800F823B45D","name":"尖東站","lat":"22.295152","long":"114.174392"},{"id":"1864222D8939BD69","name":"永安廣場","lat":"22.296522","long":"114.176660"},{"id":"2802E2DEE1D48B51","name":"紅磡站總站","lat":"22.303884","long":"114.182128"}],"routeId":"87D","description":"正常班次"},{"company":"kmb","route":"87D","routeType":"3","dir":"O","orig":"馬鞍山市中心","dest":"紅磡站","stopList":[{"id":"41E806B7927291BE","name":"馬鞍山市中心總站","lat":"22.424211","long":"114.231614"},{"id":"028E0B68D3166C00","name":"福安花園","lat":"22.423273","long":"114.228508"},{"id":"BC45FA032C515D44","name":"耀安邨","lat":"22.419368","long":"114.229393"},{"id":"823E3EE2413E40E2","name":"石門轉車站-新界鄉議局大樓 (S2)","lat":"22.391352","long":"114.206356"},{"id":"E7133179F5800E85","name":"沙田第一城","lat":"22.388375","long":"114.201751"},{"id":"E34E3D48842C9B66","name":"獅子山隧道","lat":"22.358837","long":"114.174677"},{"id":"DF9E89A391CAC245","name":"九龍塘聯合道","lat":"22.337913","long":"114.179235"},{"id":"657E5836BC932790","name":"九龍塘站","lat":"22.335577","long":"114.179089"},{"id":"7A1C43F91CF8A6FC","name":"九龍塘會","lat":"22.329348","long":"114.178743"},{"id":"60F1DDDCB555E319","name":"拔萃男書院","lat":"22.324949","long":"114.174484"},{"id":"F7CAA2D4FF9D61F7","name":"太子站","lat":"22.324126","long":"114.169855"},{"id":"14F176D358D65A8B","name":"旺角奶路臣街 (S15)","lat":"22.318724","long":"114.169580"},{"id":"8E3A5C15E42020BB","name":"旺角豉油街 (S23)","lat":"22.316078","long":"114.170175"},{"id":"96442B84082D4DF5","name":"油麻地永星里 (S35)","lat":"22.311247","long":"114.171112"},{"id":"508D99EBC9AB3A9B","name":"油麻地長樂街 (S42)","lat":"22.306887","long":"114.171625"},{"id":"FE56DD70DEDE0395","name":"聖安德烈堂 (S48)","lat":"22.301952","long":"114.172017"},{"id":"D2217D7746597D10","name":"尖沙咀轉車站 - 中間道 (S54)","lat":"22.295794","long":"114.172446"},{"id":"5D75A800F823B45D","name":"尖東站","lat":"22.295152","long":"114.174392"},{"id":"1864222D8939BD69","name":"永安廣場","lat":"22.296522","long":"114.176660"},{"id":"2802E2DEE1D48B51","name":"紅磡站總站","lat":"22.303884","long":"114.182128"}],"routeId":"87D","description":"特別班次"},{"company":"kmb","route":"87D","routeType":"4","dir":"O","orig":"錦英苑","dest":"紅磡站","stopList":[{"id":"8CFD0DAAA2D9B47E","name":"錦英苑巴士總站","lat":"22.423558","long":"114.237219"},{"id":"D156C558FF163BE3","name":"錦龍苑","lat":"22.426073","long":"114.239403"},{"id":"013F884CBCB1CBE4","name":"富寶花園","lat":"22.425459","long":"114.235563"},{"id":"5E082FCF5C58328C","name":"馬鞍山警署","lat":"22.422399","long":"114.232966"},{"id":"E2602DD1C8EA1AC8","name":"雅景台","lat":"22.419173","long":"114.232389"},{"id":"30553FA19D045D25","name":"富安花園","lat":"22.407330","long":"114.222794"},{"id":"34740DD5ABC36F12","name":"亞公角","lat":"22.402205","long":"114.216004"},{"id":"25E1BAE2C272ED4C","name":"沙田醫院","lat":"22.398915","long":"114.212447"},{"id":"823E3EE2413E40E2","name":"石門轉車站-新界鄉議局大樓 (S2)","lat":"22.391352","long":"114.206356"},{"id":"E7133179F5800E85","name":"沙田第一城","lat":"22.388375","long":"114.201751"},{"id":"E34E3D48842C9B66","name":"獅子山隧道","lat":"22.358837","long":"114.174677"},{"id":"DF9E89A391CAC245","name":"九龍塘聯合道","lat":"22.337913","long":"114.179235"},{"id":"657E5836BC932790","name":"九龍塘站","lat":"22.335577","long":"114.179089"},{"id":"7A1C43F91CF8A6FC","name":"九龍塘會","lat":"22.329348","long":"114.178743"},{"id":"60F1DDDCB555E319","name":"拔萃男書院","lat":"22.324949","long":"114.174484"},{"id":"F7CAA2D4FF9D61F7","name":"太子站","lat":"22.324126","long":"114.169855"},{"id":"14F176D358D65A8B","name":"旺角奶路臣街 (S15)","lat":"22.318724","long":"114.169580"},{"id":"8E3A5C15E42020BB","name":"旺角豉油街 (S23)","lat":"22.316078","long":"114.170175"},{"id":"96442B84082D4DF5","name":"油麻地永星里 (S35)","lat":"22.311247","long":"114.171112"},{"id":"508D99EBC9AB3A9B","name":"油麻地長樂街 (S42)","lat":"22.306887","long":"114.171625"},{"id":"FE56DD70DEDE0395","name":"聖安德烈堂 (S48)","lat":"22.301952","long":"114.172017"},{"id":"D2217D7746597D10","name":"尖沙咀轉車站 - 中間道 (S54)","lat":"22.295794","long":"114.172446"},{"id":"5D75A800F823B45D","name":"尖東站","lat":"22.295152","long":"114.174392"},{"id":"1864222D8939BD69","name":"永安廣場","lat":"22.296522","long":"114.176660"},{"id":"2802E2DEE1D48B51","name":"紅磡站總站","lat":"22.303884","long":"114.182128"}],"routeId":"87D","description":"特別班次"},{"company":"kmb","route":"87D","routeType":"1","dir":"I","orig":"紅磡站","dest":"錦英苑","stopList":[{"id":"2802E2DEE1D48B51","name":"紅磡站總站","lat":"22.303884","long":"114.182128"},{"id":"FE2815CBCD21C57C","name":"香港歷史博物館","lat":"22.302694","long":"114.177430"},{"id":"F2508598F5A43655","name":"香港科學館","lat":"22.301061","long":"114.176514"},{"id":"3313287185163530","name":"尖沙咀麼地道","lat":"22.298540","long":"114.175858"},{"id":"8E8DB91C885F1230","name":"尖東站","lat":"22.294724","long":"114.174189"},{"id":"4A38244491180BF7","name":"尖沙咀轉車站 - 海防道 (N6)","lat":"22.297792","long":"114.172054"},{"id":"5419928D472EAD8D","name":"栢麗購物大道 (N13)","lat":"22.301864","long":"114.171726"},{"id":"357B7D41501CDACA","name":"柯士甸道 (N19)","lat":"22.304119","long":"114.171653"},{"id":"D7C7D86E923EEAE1","name":"九龍中央郵政局 (N35)","lat":"22.309345","long":"114.171133"},{"id":"A76BB6FCB881AF5C","name":"油麻地碧街 (N48)","lat":"22.314269","long":"114.170295"},{"id":"0F4F935A9F14F111","name":"旺角山東街 (N59)","lat":"22.317165","long":"114.169667"},{"id":"136480342AAF0BD2","name":"基榮小學","lat":"22.322538","long":"114.168096"},{"id":"32CCEDBCC9EAAA9E","name":"白楊街","lat":"22.326542","long":"114.166667"},{"id":"2751781A6F757C5D","name":"警察體育遊樂會","lat":"22.326707","long":"114.170094"},{"id":"6045969736940272","name":"花墟公園","lat":"22.326866","long":"114.173105"},{"id":"38A53BACD13CD0C8","name":"明愛太子宿舍","lat":"22.326946","long":"114.177209"},{"id":"A8C8FB27A0399D63","name":"九龍塘會","lat":"22.329976","long":"114.178547"},{"id":"C53A00F15DC2DB20","name":"基督中心堂","lat":"22.332030","long":"114.178636"},{"id":"48E5A1EED91712EE","name":"九龍塘站","lat":"22.336254","long":"114.178788"},{"id":"D099C45C9443AFC8","name":"映月台","lat":"22.342180","long":"114.178621"},{"id":"45D0CFA28B3FEFE5","name":"獅子山隧道","lat":"22.358720","long":"114.173449"},{"id":"91481C9100917BA7","name":"沙田第一城","lat":"22.389405","long":"114.203110"},{"id":"40829C12642639D4","name":"石門轉車站 - 濱景花園 (N2)","lat":"22.391590","long":"114.206164"},{"id":"16A7F2C343AA6DE6","name":"沙田醫院","lat":"22.399870","long":"114.213035"},{"id":"4B0E21EDF07F9C83","name":"亞公角","lat":"22.402759","long":"114.216742"},{"id":"1CF4AE2F7045B848","name":"富安花園","lat":"22.406232","long":"114.221917"},{"id":"CB667DC000F66D40","name":"耀安邨","lat":"22.419037","long":"114.229281"},{"id":"5E073AD8BC9F2AC8","name":"馬鞍山運動場","lat":"22.421847","long":"114.228372"},{"id":"B31E6B9D8E5B4493","name":"福安花園","lat":"22.423627","long":"114.228332"},{"id":"3A450B5AD5AF1605","name":"海栢花園","lat":"22.425043","long":"114.231566"},{"id":"0E2175C0750054FE","name":"雅典居","lat":"22.426028","long":"114.236373"},{"id":"0D4E07F475845DB3","name":"錦龍苑","lat":"22.425786","long":"114.239845"},{"id":"8CFD0DAAA2D9B47E","name":"錦英苑巴士總站","lat":"22.423558","long":"114.237219"}],"routeId":"87D","description":"正常班次"}]