[{"company":"kmb","route":"87E","routeType":"1","dir":"O","orig":"泥涌","dest":"尖沙咀","stopList":[{"id":"10E07C1870465E91","name":"泥涌 (SK970)","lat":"22.431682","long":"114.255293"},{"id":"F63D25B428F1C1D9","name":"樟木頭帝琴灣 (SK221)","lat":"22.430095","long":"114.251168"},{"id":"1E471172708B5C5D","name":"耀沙路 (MA200)","lat":"22.433294","long":"114.241483"},{"id":"2479788748627B65","name":"烏溪沙路 (MA210)","lat":"22.430936","long":"114.240685"},{"id":"0CB1F7979192FBB2","name":"烏溪沙站 (MA981)","lat":"22.428373","long":"114.243567"},{"id":"DF9E89A391CAC245","name":"九龍塘聯合道 (KC660)","lat":"22.337913","long":"114.179235"},{"id":"657E5836BC932790","name":"九龍塘站 (KC663)","lat":"22.335577","long":"114.179089"},{"id":"7A1C43F91CF8A6FC","name":"九龍塘會 (KC666)","lat":"22.329348","long":"114.178743"},{"id":"60F1DDDCB555E319","name":"拔萃男書院,太子道西 (KC743)","lat":"22.324949","long":"114.174484"},{"id":"F7CAA2D4FF9D61F7","name":"太子站, 旺角花墟 (MK751)","lat":"22.324126","long":"114.169855"},{"id":"14F176D358D65A8B","name":"旺角奶路臣街 (S15) (MK514)","lat":"22.318724","long":"114.169580"},{"id":"8E3A5C15E42020BB","name":"旺角豉油街 (S23) (MK522)","lat":"22.316078","long":"114.170175"},{"id":"96442B84082D4DF5","name":"油麻地永星里 (S35) (YT544)","lat":"22.311247","long":"114.171112"},{"id":"508D99EBC9AB3A9B","name":"油麻地長樂街 (S42) (YT551)","lat":"22.306887","long":"114.171625"},{"id":"FE56DD70DEDE0395","name":"聖安德烈堂 (S48) (YT557)","lat":"22.301952","long":"114.172017"},{"id":"D2217D7746597D10","name":"尖沙咀轉車站 - 中間道 (S54)","lat":"22.295794","long":"114.172446"}],"routeId":"87E","description":"正常班次"},{"company":"kmb","route":"87E","routeType":"1","dir":"I","orig":"尖沙咀東(麼地道)","dest":"泥涌","stopList":[{"id":"B545DBB9B5AA7A78","name":"尖沙咀東（麼地道） (YT920)","lat":"22.296852","long":"114.176077"},{"id":"9CAF2FDA35EEF9E2","name":"尖東站 K11 MUSEA (YT632)","lat":"22.294850","long":"114.174588"},{"id":"4A38244491180BF7","name":"尖沙咀轉車站 - 海防道 (N6)","lat":"22.297792","long":"114.172054"},{"id":"5419928D472EAD8D","name":"栢麗購物大道 (N13) (YT112)","lat":"22.301864","long":"114.171726"},{"id":"357B7D41501CDACA","name":"柯士甸道 (N19) (YT118)","lat":"22.304119","long":"114.171653"},{"id":"D7C7D86E923EEAE1","name":"九龍中央郵政局 (N35) (YT134)","lat":"22.309345","long":"114.171133"},{"id":"A76BB6FCB881AF5C","name":"油麻地碧街 (N48) (YT147)","lat":"22.314269","long":"114.170295"},{"id":"0F4F935A9F14F111","name":"山東街N59 朗豪坊 (MK168)","lat":"22.317165","long":"114.169667"},{"id":"136480342AAF0BD2","name":"基榮小學 維景酒店 (MK302)","lat":"22.322538","long":"114.168096"},{"id":"32CCEDBCC9EAAA9E","name":"白楊街 (MK231)","lat":"22.326542","long":"114.166667"},{"id":"2751781A6F757C5D","name":"警察體育遊樂會 (MK233)","lat":"22.326707","long":"114.170094"},{"id":"6045969736940272","name":"花墟公園 (MK234)","lat":"22.326866","long":"114.173105"},{"id":"38A53BACD13CD0C8","name":"明愛太子宿舍 (KC241)","lat":"22.326946","long":"114.177209"},{"id":"0209A3C455B1DBE9","name":"耀安邨耀遜樓 (MA111)","lat":"22.419014","long":"114.232161"},{"id":"4B5F39DBC6671C81","name":"錦英苑 (MA190)","lat":"22.423954","long":"114.238505"},{"id":"4CC126E0B1E42F14","name":"錦龍苑 (MA195)","lat":"22.425909","long":"114.239535"},{"id":"A90443FD0C19C4B1","name":"利安邨 (MA163)","lat":"22.427627","long":"114.240415"},{"id":"0CB1F7979192FBB2","name":"烏溪沙站 (MA981)","lat":"22.428373","long":"114.243567"},{"id":"2C5CA5F47FB6EB3F","name":"樟木頭帝琴灣 (SK300)","lat":"22.430218","long":"114.250966"},{"id":"10E07C1870465E91","name":"泥涌 (SK970)","lat":"22.431682","long":"114.255293"}],"routeId":"87E","description":"正常班次"}]