[{"company":"kmb","route":"87K","routeType":"1","dir":"O","orig":"大學站","dest":"錦英苑(循環線)","stopList":[{"id":"D4D322BE3E5B2A4B","name":"大學站 (ST904)","lat":"22.412578","long":"114.210303"},{"id":"E27820FF0AF73D52","name":"錦駿苑 (MA110)","lat":"22.411915","long":"114.224178"},{"id":"A384FBA637A1EBC5","name":"恆安邨 (MA123)","lat":"22.417857","long":"114.230664"},{"id":"857F6F958A96DCDB","name":"馬鞍山運動場 (MA126)","lat":"22.421785","long":"114.228481"},{"id":"B31E6B9D8E5B4493","name":"福安花園 (MA155)","lat":"22.423627","long":"114.228332"},{"id":"180DC2E520E7A4D0","name":"海栢花園 (MA157)","lat":"22.425017","long":"114.231436"},{"id":"1E04D9D97DE148C2","name":"馬鞍山警署 (MA181)","lat":"22.422348","long":"114.232940"},{"id":"507E8F5167002BC5","name":"錦英苑 (MA191)","lat":"22.423979","long":"114.238460"},{"id":"A235DF28053F60FE","name":"錦龍苑 (MA193)","lat":"22.425847","long":"114.239571"},{"id":"761CDB62DC025007","name":"富寶花園 (MA304)","lat":"22.425444","long":"114.235451"},{"id":"41E806B7927291BE","name":"馬鞍山市中心總站 (MA951)","lat":"22.424215","long":"114.231917"},{"id":"2B7E8054D4A2CBA7","name":"頌安巴士總站 (MA940)","lat":"22.422399","long":"114.226591"},{"id":"D96A94B0ED4E873A","name":"馬鞍山運動場 (MA372)","lat":"22.421873","long":"114.228903"},{"id":"66E32661C4298EEF","name":"耀安邨耀謙樓 (MA380)","lat":"22.418087","long":"114.230731"},{"id":"664BAA2EA12B80B1","name":"錦駿苑 (MA186)","lat":"22.413265","long":"114.226888"},{"id":"EC5018363D5C45EB","name":"大學站 (ST900)","lat":"22.412678","long":"114.210665"}],"routeId":"87K","description":"正常班次"},{"company":"kmb","route":"87K","routeType":"2","dir":"O","orig":"大學站","dest":"錦英苑(循環線)","stopList":[{"id":"D4D322BE3E5B2A4B","name":"大學站 (ST904)","lat":"22.412578","long":"114.210303"},{"id":"E27820FF0AF73D52","name":"錦駿苑 (MA110)","lat":"22.411915","long":"114.224178"},{"id":"A384FBA637A1EBC5","name":"恆安邨 (MA123)","lat":"22.417857","long":"114.230664"},{"id":"857F6F958A96DCDB","name":"馬鞍山運動場 (MA126)","lat":"22.421785","long":"114.228481"},{"id":"B31E6B9D8E5B4493","name":"福安花園 (MA155)","lat":"22.423627","long":"114.228332"},{"id":"180DC2E520E7A4D0","name":"海栢花園 (MA157)","lat":"22.425017","long":"114.231436"},{"id":"1E04D9D97DE148C2","name":"馬鞍山警署 (MA181)","lat":"22.422348","long":"114.232940"},{"id":"507E8F5167002BC5","name":"錦英苑 (MA191)","lat":"22.423979","long":"114.238460"},{"id":"A235DF28053F60FE","name":"錦龍苑 (MA193)","lat":"22.425847","long":"114.239571"},{"id":"761CDB62DC025007","name":"富寶花園 (MA304)","lat":"22.425444","long":"114.235451"},{"id":"41E806B7927291BE","name":"馬鞍山市中心總站 (MA951)","lat":"22.424215","long":"114.231917"},{"id":"D96A94B0ED4E873A","name":"馬鞍山運動場 (MA372)","lat":"22.421873","long":"114.228903"},{"id":"66E32661C4298EEF","name":"耀安邨耀謙樓 (MA380)","lat":"22.418087","long":"114.230731"},{"id":"664BAA2EA12B80B1","name":"錦駿苑 (MA186)","lat":"22.413265","long":"114.226888"},{"id":"EC5018363D5C45EB","name":"大學站 (ST900)","lat":"22.412678","long":"114.210665"}],"routeId":"87K","description":"特別班次"},{"company":"kmb","route":"87K","routeType":"3","dir":"O","orig":"錦英苑","dest":"大學站","stopList":[{"id":"507E8F5167002BC5","name":"錦英苑 (MA191)","lat":"22.423979","long":"114.238460"},{"id":"A235DF28053F60FE","name":"錦龍苑 (MA193)","lat":"22.425847","long":"114.239571"},{"id":"761CDB62DC025007","name":"富寶花園 (MA304)","lat":"22.425444","long":"114.235451"},{"id":"41E806B7927291BE","name":"馬鞍山市中心總站 (MA951)","lat":"22.424215","long":"114.231917"},{"id":"2B7E8054D4A2CBA7","name":"頌安巴士總站 (MA940)","lat":"22.422399","long":"114.226591"},{"id":"D96A94B0ED4E873A","name":"馬鞍山運動場 (MA372)","lat":"22.421873","long":"114.228903"},{"id":"66E32661C4298EEF","name":"耀安邨耀謙樓 (MA380)","lat":"22.418087","long":"114.230731"},{"id":"664BAA2EA12B80B1","name":"錦駿苑 (MA186)","lat":"22.413265","long":"114.226888"},{"id":"EC5018363D5C45EB","name":"大學站 (ST900)","lat":"22.412678","long":"114.210665"}],"routeId":"87K","description":"特別班次"},{"company":"kmb","route":"87K","routeType":"4","dir":"O","orig":"馬鞍山市中心","dest":"大學站","stopList":[{"id":"41E806B7927291BE","name":"馬鞍山市中心總站 (MA951)","lat":"22.424215","long":"114.231917"},{"id":"2B7E8054D4A2CBA7","name":"頌安巴士總站 (MA940)","lat":"22.422399","long":"114.226591"},{"id":"D96A94B0ED4E873A","name":"馬鞍山運動場 (MA372)","lat":"22.421873","long":"114.228903"},{"id":"66E32661C4298EEF","name":"耀安邨耀謙樓 (MA380)","lat":"22.418087","long":"114.230731"},{"id":"664BAA2EA12B80B1","name":"錦駿苑 (MA186)","lat":"22.413265","long":"114.226888"},{"id":"EC5018363D5C45EB","name":"大學站 (ST900)","lat":"22.412678","long":"114.210665"}],"routeId":"87K","description":"特別班次"},{"company":"kmb","route":"87K","routeType":"5","dir":"O","orig":"大學站","dest":"利安","stopList":[{"id":"D4D322BE3E5B2A4B","name":"大學站 (ST904)","lat":"22.412578","long":"114.210303"},{"id":"E27820FF0AF73D52","name":"錦駿苑 (MA110)","lat":"22.411915","long":"114.224178"},{"id":"A384FBA637A1EBC5","name":"恆安邨 (MA123)","lat":"22.417857","long":"114.230664"},{"id":"857F6F958A96DCDB","name":"馬鞍山運動場 (MA126)","lat":"22.421785","long":"114.228481"},{"id":"B31E6B9D8E5B4493","name":"福安花園 (MA155)","lat":"22.423627","long":"114.228332"},{"id":"180DC2E520E7A4D0","name":"海栢花園 (MA157)","lat":"22.425017","long":"114.231436"},{"id":"1E04D9D97DE148C2","name":"馬鞍山警署 (MA181)","lat":"22.422348","long":"114.232940"},{"id":"507E8F5167002BC5","name":"錦英苑 (MA191)","lat":"22.423979","long":"114.238460"},{"id":"0C81107C4ABFCD56","name":"利安巴士總站 (MA973)","lat":"22.425392","long":"114.240773"}],"routeId":"87K","description":"特別班次"},{"company":"gmb","route":"87K","routeType":1,"orig":"葵芳站","dest":"海貴路公共運輸交匯處","stopList":[{"id":20014848,"name":"興寧路,　近　新都會廣場","lat":"22.357494","long":"114.127801"},{"id":20014849,"name":"葵富路,　近　新葵芳花園","lat":"22.357589","long":"114.128782"},{"id":20001716,"name":"興芳路京寶大廈外","lat":"22.359452","long":"114.127884"},{"id":20021877,"name":"興芳路,　近　興芳路遊樂場","lat":"22.360627","long":"114.129104"},{"id":20016551,"name":"大窩口道葵康苑葵明閣外","lat":"22.363039","long":"114.130452"},{"id":20011986,"name":"葵盛圍南葵涌賽馬會分科診療所外","lat":"22.360966","long":"114.125059"},{"id":20019600,"name":"葵盛圍, 近 葵盛圍花園","lat":"22.359639","long":"114.122621"},{"id":20001696,"name":"葵福路, 晉昇工廠大廈外","lat":"22.361337","long":"114.120039"},{"id":20014791,"name":"楊屋道,　近　樂悠居","lat":"22.366552","long":"114.118342"},{"id":20014851,"name":"楊屋道,　近　荃灣88","lat":"22.367653","long":"114.115831"},{"id":20014852,"name":"楊屋道,　近　荃灣公園","lat":"22.368543","long":"114.114164"},{"id":20012208,"name":"海貴路公共運輸交匯處","lat":"22.368330","long":"114.110679"}],"routeId":2006705,"description":"正常班次"},{"company":"gmb","route":"87K","routeType":2,"orig":"海貴路公共運輸交匯處","dest":"葵芳站","stopList":[{"id":20012208,"name":"海貴路公共運輸交匯處","lat":"22.368330","long":"114.110679"},{"id":20014853,"name":"楊屋道, 楊屋道市政大廈外","lat":"22.368675","long":"114.114674"},{"id":20014854,"name":"楊屋道, 近明愛賽馬會荃灣診所（西醫及牙醫）","lat":"22.367901","long":"114.116088"},{"id":20001690,"name":"葵福路, 晉昇工廠大廈對面","lat":"22.360859","long":"114.120301"},{"id":20019601,"name":"葵福路, 近中華傳道會李賢堯紀念中學","lat":"22.359120","long":"114.121181"},{"id":20014983,"name":"大窩口道, 近新葵興花園Ｂ座","lat":"22.363125","long":"114.130606"},{"id":20014856,"name":"興芳路, 近葵芳邨葵信樓","lat":"22.361000","long":"114.129747"},{"id":20014857,"name":"興芳路, 近葵芳邨葵喜樓","lat":"22.359518","long":"114.128166"},{"id":20014858,"name":"興寧路, 近新都會廣場","lat":"22.357036","long":"114.127512"}],"routeId":2006705,"description":"正常班次"}]