[{"company":"kmb","route":"87K","routeType":"1","dir":"O","orig":"大學站","dest":"錦英苑(循環線)","stopList":[{"id":"D4D322BE3E5B2A4B","name":"大學站","lat":"22.412578","long":"114.210303"},{"id":"A384FBA637A1EBC5","name":"恆安邨","lat":"22.417857","long":"114.230664"},{"id":"857F6F958A96DCDB","name":"馬鞍山運動場","lat":"22.421785","long":"114.228481"},{"id":"B31E6B9D8E5B4493","name":"福安花園","lat":"22.423627","long":"114.228332"},{"id":"180DC2E520E7A4D0","name":"海栢花園","lat":"22.425017","long":"114.231436"},{"id":"1E04D9D97DE148C2","name":"馬鞍山警署","lat":"22.422348","long":"114.232940"},{"id":"507E8F5167002BC5","name":"錦英苑","lat":"22.423923","long":"114.238674"},{"id":"A235DF28053F60FE","name":"錦龍苑","lat":"22.425847","long":"114.239571"},{"id":"761CDB62DC025007","name":"富寶花園","lat":"22.425444","long":"114.235451"},{"id":"41E806B7927291BE","name":"馬鞍山市中心總站","lat":"22.424211","long":"114.231614"},{"id":"2B7E8054D4A2CBA7","name":"頌安巴士總站","lat":"22.422399","long":"114.226591"},{"id":"D96A94B0ED4E873A","name":"馬鞍山運動場","lat":"22.421873","long":"114.228903"},{"id":"66E32661C4298EEF","name":"耀安邨耀謙樓","lat":"22.418087","long":"114.230731"},{"id":"D4D322BE3E5B2A4B","name":"大學站","lat":"22.412578","long":"114.210303"}],"routeId":"87K","description":"正常班次"},{"company":"kmb","route":"87K","routeType":"2","dir":"O","orig":"大學站","dest":"錦英苑(循環線)","stopList":[{"id":"D4D322BE3E5B2A4B","name":"大學站","lat":"22.412578","long":"114.210303"},{"id":"A384FBA637A1EBC5","name":"恆安邨","lat":"22.417857","long":"114.230664"},{"id":"857F6F958A96DCDB","name":"馬鞍山運動場","lat":"22.421785","long":"114.228481"},{"id":"B31E6B9D8E5B4493","name":"福安花園","lat":"22.423627","long":"114.228332"},{"id":"180DC2E520E7A4D0","name":"海栢花園","lat":"22.425017","long":"114.231436"},{"id":"1E04D9D97DE148C2","name":"馬鞍山警署","lat":"22.422348","long":"114.232940"},{"id":"507E8F5167002BC5","name":"錦英苑","lat":"22.423923","long":"114.238674"},{"id":"A235DF28053F60FE","name":"錦龍苑","lat":"22.425847","long":"114.239571"},{"id":"761CDB62DC025007","name":"富寶花園","lat":"22.425444","long":"114.235451"},{"id":"41E806B7927291BE","name":"馬鞍山市中心總站","lat":"22.424211","long":"114.231614"},{"id":"D96A94B0ED4E873A","name":"馬鞍山運動場","lat":"22.421873","long":"114.228903"},{"id":"66E32661C4298EEF","name":"耀安邨耀謙樓","lat":"22.418087","long":"114.230731"},{"id":"D4D322BE3E5B2A4B","name":"大學站","lat":"22.412578","long":"114.210303"}],"routeId":"87K","description":"特別班次"},{"company":"kmb","route":"87K","routeType":"3","dir":"O","orig":"錦英苑","dest":"大學站","stopList":[{"id":"507E8F5167002BC5","name":"錦英苑","lat":"22.423923","long":"114.238674"},{"id":"A235DF28053F60FE","name":"錦龍苑","lat":"22.425847","long":"114.239571"},{"id":"761CDB62DC025007","name":"富寶花園","lat":"22.425444","long":"114.235451"},{"id":"41E806B7927291BE","name":"馬鞍山市中心總站","lat":"22.424211","long":"114.231614"},{"id":"2B7E8054D4A2CBA7","name":"頌安巴士總站","lat":"22.422399","long":"114.226591"},{"id":"D96A94B0ED4E873A","name":"馬鞍山運動場","lat":"22.421873","long":"114.228903"},{"id":"66E32661C4298EEF","name":"耀安邨耀謙樓","lat":"22.418087","long":"114.230731"},{"id":"D4D322BE3E5B2A4B","name":"大學站","lat":"22.412578","long":"114.210303"}],"routeId":"87K","description":"特別班次"},{"company":"kmb","route":"87K","routeType":"4","dir":"O","orig":"馬鞍山市中心","dest":"大學站","stopList":[{"id":"41E806B7927291BE","name":"馬鞍山市中心總站","lat":"22.424211","long":"114.231614"},{"id":"2B7E8054D4A2CBA7","name":"頌安巴士總站","lat":"22.422399","long":"114.226591"},{"id":"D96A94B0ED4E873A","name":"馬鞍山運動場","lat":"22.421873","long":"114.228903"},{"id":"66E32661C4298EEF","name":"耀安邨耀謙樓","lat":"22.418087","long":"114.230731"},{"id":"D4D322BE3E5B2A4B","name":"大學站","lat":"22.412578","long":"114.210303"}],"routeId":"87K","description":"特別班次"},{"company":"kmb","route":"87K","routeType":"5","dir":"O","orig":"大學站","dest":"利安","stopList":[{"id":"D4D322BE3E5B2A4B","name":"大學站","lat":"22.412578","long":"114.210303"},{"id":"A384FBA637A1EBC5","name":"恆安邨","lat":"22.417857","long":"114.230664"},{"id":"857F6F958A96DCDB","name":"馬鞍山運動場","lat":"22.421785","long":"114.228481"},{"id":"B31E6B9D8E5B4493","name":"福安花園","lat":"22.423627","long":"114.228332"},{"id":"180DC2E520E7A4D0","name":"海栢花園","lat":"22.425017","long":"114.231436"},{"id":"1E04D9D97DE148C2","name":"馬鞍山警署","lat":"22.422348","long":"114.232940"},{"id":"507E8F5167002BC5","name":"錦英苑","lat":"22.423923","long":"114.238674"},{"id":"0C81107C4ABFCD56","name":"利安巴士總站","lat":"22.425392","long":"114.240773"}],"routeId":"87K","description":"特別班次"},{"company":"gmb","route":"87K","routeType":1,"orig":"葵芳站","dest":"海貴路公共運輸交匯處","stopList":[{"id":20014848,"name":"興寧路,　近　新都會廣場","lat":22.357493534766054,"long":114.12780091679318},{"id":20014849,"name":"葵富路,　近　新葵芳花園","lat":22.35758895517931,"long":114.12878246325164},{"id":20001716,"name":"興芳路京寶大廈外","lat":22.35945231700617,"long":114.12788406779742},{"id":20016551,"name":"大窩口道葵康苑葵明閣外","lat":22.363039487196325,"long":114.1304518848969},{"id":20011986,"name":"葵盛圍南葵涌賽馬會分科診療所外","lat":22.36096572102093,"long":114.12505924701692},{"id":20014850,"name":"盛福街,　近　葵盛圍花園","lat":22.359098875100656,"long":114.12173345626829},{"id":20001696,"name":"葵福路, 晉昇工廠大廈外","lat":22.361337139197158,"long":114.12003864295512},{"id":20014791,"name":"楊屋道,　近　樂悠居","lat":22.366552339240393,"long":114.11834210442136},{"id":20014851,"name":"楊屋道,　近　荃灣88","lat":22.367652972265898,"long":114.11583070837565},{"id":20014852,"name":"楊屋道,　近　荃灣公園","lat":22.368542903350015,"long":114.11416444118403},{"id":20012208,"name":"海貴路公共運輸交匯處","lat":22.36833045955727,"long":114.11067934064323}],"routeId":2006705,"description":"正常班次"},{"company":"gmb","route":"87K","routeType":2,"orig":"海貴路公共運輸交匯處","dest":"葵芳站","stopList":[{"id":20012208,"name":"海貴路公共運輸交匯處","lat":22.36833045955727,"long":114.11067934064323},{"id":20014853,"name":"楊屋道, 楊屋道市政大廈外","lat":22.368674735499994,"long":114.1146743658598},{"id":20014854,"name":"楊屋道,　近　明愛賽馬會荃灣診所（西醫及牙醫）","lat":22.36790076793507,"long":114.1160877701115},{"id":20001690,"name":"葵福路, 晉昇工廠大廈對面","lat":22.360858612133775,"long":114.12030097553591},{"id":20014855,"name":"盛福街,　近　中華傳道會李賢堯紀念中學","lat":22.359188879489476,"long":114.1215707518248},{"id":20014856,"name":"興芳路,　近　葵芳邨　葵信樓","lat":22.36100026057107,"long":114.12974706989988},{"id":20014857,"name":"興芳路,　近　葵芳邨　葵喜樓","lat":22.35951843077992,"long":114.12816610918804},{"id":20014858,"name":"興寧路,　近　新都會廣場","lat":22.357035948302162,"long":114.1275116535054}],"routeId":2006705,"description":"正常班次"}]