[{"company":"kmb","route":"88","routeType":"1","dir":"O","orig":"中秀茂坪","dest":"大圍站","stopList":[{"id":"6BBF595BBAD1DB2E","name":"中秀茂坪","lat":"22.319058","long":"114.231292"},{"id":"6F106FD26B684372","name":"秀安樓","lat":"22.316738","long":"114.233354"},{"id":"D83C4CC1305E35E9","name":"上秀茂坪","lat":"22.315073","long":"114.235696"},{"id":"1FBAAE29AF1CA50E","name":"秀暉樓","lat":"22.316851","long":"114.235856"},{"id":"466BC4C1908A1A06","name":"寶達邨轉車站 (N2)","lat":"22.318565","long":"114.236118"},{"id":"81783E042C83CEC3","name":"仁達樓","lat":"22.318880","long":"114.235884"},{"id":"D9563FD5B8CB0CEF","name":"愛達樓","lat":"22.321967","long":"114.232500"},{"id":"6410DDEFBBD17426","name":"錦泰樓","lat":"22.324370","long":"114.230667"},{"id":"A6A1C99BF11EE56C","name":"安泰(南)(恆泰樓)","lat":"22.326480","long":"114.228783"},{"id":"DA64153E866AEEE4","name":"安泰(西)(和泰樓)","lat":"22.327861","long":"114.227638"},{"id":"58611212645F0AB1","name":"白虹樓","lat":"22.332339","long":"114.215512"},{"id":"F6703708A375C67E","name":"牛池灣轉車站 - 彩虹站 (K4)","lat":"22.334162","long":"114.210173"},{"id":"AB194503D9CC9465","name":"牛池灣轉車站 - 紅萼樓 (H1)","lat":"22.336858","long":"114.206330"},{"id":"7BFC2AE979358DA7","name":"大老山隧道 (B3)","lat":"22.376736","long":"114.211962"},{"id":"2E6DB54618C13048","name":"沙田圍新村","lat":"22.378583","long":"114.197527"},{"id":"6953AEF8B3921959","name":"田園閣","lat":"22.380055","long":"114.195008"},{"id":"EDE0D474E9C40EC2","name":"沙田大會堂","lat":"22.382109","long":"114.189951"},{"id":"F608A74B860B3C47","name":"帝都酒店","lat":"22.379864","long":"114.188064"},{"id":"92B3E07F00FBB305","name":"銅鑼灣村","lat":"22.377253","long":"114.180817"},{"id":"9E28FDE5126284C1","name":"美林邨","lat":"22.377226","long":"114.178845"},{"id":"1276AEF95F6564A2","name":"大圍街市","lat":"22.373617","long":"114.177213"},{"id":"62E74F8E7357BC2D","name":"大圍站總站 (G4)","lat":"22.373074","long":"114.180370"}],"routeId":"88","description":"正常班次"},{"company":"kmb","route":"88","routeType":"1","dir":"I","orig":"大圍站","dest":"中秀茂坪","stopList":[{"id":"62E74F8E7357BC2D","name":"大圍站總站 (G4)","lat":"22.373074","long":"114.180370"},{"id":"A3647D99DA65BA96","name":"海福花園","lat":"22.373685","long":"114.176755"},{"id":"AF61AE97990B5C08","name":"美桃樓","lat":"22.377402","long":"114.178459"},{"id":"4C19E0623146E4F9","name":"銅鑼灣村","lat":"22.377496","long":"114.181367"},{"id":"3523AA15D7F22A3F","name":"希爾頓中心","lat":"22.379677","long":"114.187123"},{"id":"B9270C10E51D95F4","name":"沙田市中心總站","lat":"22.382182","long":"114.188308"},{"id":"19521C0A1CA93C52","name":"田園閣","lat":"22.379777","long":"114.195822"},{"id":"72936E1AD7A19462","name":"崗背街休憩花園","lat":"22.378981","long":"114.197357"},{"id":"30D564180B68ECA8","name":"大老山隧道 (A2)","lat":"22.377526","long":"114.212311"},{"id":"2EFDB1EADF5955E6","name":"牛池灣轉車站 - 牛池灣村 (G3)","lat":"22.336020","long":"114.207625"},{"id":"E7116B44D9E9393A","name":"牛池灣轉車站 - 彩雲聖若瑟 (E1)","lat":"22.334458","long":"114.211619"},{"id":"29740CCBBD82FC33","name":"白虹樓","lat":"22.332630","long":"114.215379"},{"id":"7AEA492D148C9ECD","name":"基順學校","lat":"22.332927","long":"114.222500"},{"id":"7349A9FC61580972","name":"德望學校","lat":"22.333899","long":"114.222286"},{"id":"EC1E1868D370F3D9","name":"安泰邨","lat":"22.326704","long":"114.230921"},{"id":"51657C54B75A5304","name":"愛達樓","lat":"22.323350","long":"114.231662"},{"id":"4A91A327C9FC745E","name":"安達邨","lat":"22.320244","long":"114.234400"},{"id":"39AB774DC35311C0","name":"寶達邨轉車站 (H3)","lat":"22.318216","long":"114.237735"},{"id":"93084A14AE624C6F","name":"上秀茂坪","lat":"22.315229","long":"114.236377"},{"id":"D17050E8964504BB","name":"秀明樓","lat":"22.315934","long":"114.233922"},{"id":"04DDF4F7F1C74876","name":"秀富樓","lat":"22.317096","long":"114.232170"},{"id":"6BBF595BBAD1DB2E","name":"中秀茂坪","lat":"22.319058","long":"114.231292"}],"routeId":"88","description":"正常班次"},{"company":"gmb","route":"88","routeType":1,"orig":"啟晴邨(啟德)","dest":"黃大仙站(循環線)","stopList":[{"id":20012109,"name":"承啟道, 近保良局何壽南小學","lat":22.332175996120856,"long":114.20464428801158},{"id":20012120,"name":"協調道, 近工業貿易大樓","lat":22.332018933898535,"long":114.19803355624238},{"id":20012110,"name":"太子道東, 富豪東方酒店對面","lat":22.32760364232617,"long":114.19134032627053},{"id":20012121,"name":"衙前圍道, 龍崗道","lat":22.328947521470344,"long":114.19033808584587},{"id":20012112,"name":"樂善道, 獻主會溥仁小學外","lat":22.3316247211996,"long":114.19274661324027},{"id":20012113,"name":"樂善道, 近東頭（二）邨　祥東樓","lat":22.33302322477497,"long":114.19399603297828},{"id":20012114,"name":"彩虹道, 近樂善堂王仲銘中學","lat":22.33429240073658,"long":114.19436840393604},{"id":20012115,"name":"大成街街市,近黃大仙文化公園","lat":22.33795122626887,"long":114.19322469644246},{"id":20012116,"name":"黃大仙港鐵站 東頭邨道近龍慧樓","lat":22.33999119034341,"long":114.19420941714955},{"id":20000802,"name":"沙田坳道, 黃大仙紀律部隊宿舍外","lat":22.339970637809092,"long":114.19594939277653},{"id":20002394,"name":"彩虹道啟鑽苑, 鑽石山港鐵站","lat":22.339239620157123,"long":114.19944763183595},{"id":20012117,"name":"采頤花園, 嘉諾撒小學(新蒲崗)","lat":22.337064186510364,"long":114.20106882518272},{"id":20009238,"name":"協調道, 近工業貿易大樓","lat":22.33198773684473,"long":114.19799789786342},{"id":20012118,"name":"沐虹街, 聖公會聖十架小學","lat":22.332246522774895,"long":114.20383422345905},{"id":20012119,"name":"承啟道, 近保良局何壽南小學","lat":22.33210108404016,"long":114.20465309110851}],"routeId":2004428,"description":"正常班次"},{"company":"gmb","route":"88","routeType":1,"orig":"青衣邨","dest":"葵芳站","stopList":[{"id":20012802,"name":"青衣邨小巴總站","lat":22.353737293908203,"long":114.1031911969185},{"id":20001757,"name":"楓樹窩路, 近綠悠雅苑","lat":22.352643866600534,"long":114.10519822941616},{"id":20012803,"name":"青衣鄉事會路, 青衣警署對面","lat":22.35157008271149,"long":114.10793602466585},{"id":20012804,"name":"葵青路, 近葵涌公園","lat":22.354600251093895,"long":114.12200689315797},{"id":20011992,"name":"興芳路, 近葵涌運動場","lat":22.357755889253458,"long":114.12576735019685},{"id":20012805,"name":"葵芳站","lat":22.35608546468718,"long":114.12756979465486}],"routeId":2005088,"description":"正常班次"},{"company":"gmb","route":"88","routeType":2,"orig":"葵芳站","dest":"青衣邨","stopList":[{"id":20012805,"name":"葵芳站","lat":22.35608546468718,"long":114.12756979465486},{"id":20012806,"name":"興芳路, 近新都會廣場第２座","lat":22.357689385861008,"long":114.12603288888933},{"id":20012807,"name":"葵青路, 近葵涌工業污水泵房","lat":22.354302185988846,"long":114.12214100360872},{"id":20012808,"name":"青衣鄉事會路, 近青衣已婚警察宿舍Ａ座","lat":22.351814095469,"long":114.10744786262514},{"id":20001759,"name":"楓樹窩路, 綠悠雅苑對面","lat":22.35242711191585,"long":114.10514979897268},{"id":20001726,"name":"青葉街, 宜偉樓外","lat":22.35515355910137,"long":114.1034105938303},{"id":20012802,"name":"青衣邨小巴總站","lat":22.353737293908203,"long":114.1031911969185}],"routeId":2005088,"description":"正常班次"}]