[{"company":"kmb","route":"88","routeType":"1","dir":"O","orig":"中秀茂坪","dest":"大圍站","stopList":[{"id":"6BBF595BBAD1DB2E","name":"中秀茂坪 (KT978)","lat":"22.319058","long":"114.231292"},{"id":"6F106FD26B684372","name":"秀安樓 (KT390)","lat":"22.316738","long":"114.233354"},{"id":"D83C4CC1305E35E9","name":"上秀茂坪 (KT289)","lat":"22.314879","long":"114.235418"},{"id":"1FBAAE29AF1CA50E","name":"秀暉樓 (KT501)","lat":"22.316851","long":"114.235856"},{"id":"466BC4C1908A1A06","name":"寶達邨轉車站 (KT191)","lat":"22.318565","long":"114.236118"},{"id":"81783E042C83CEC3","name":"仁達樓 (AN201)","lat":"22.318880","long":"114.235884"},{"id":"D9563FD5B8CB0CEF","name":"愛達樓 (AN203)","lat":"22.321967","long":"114.232500"},{"id":"6410DDEFBBD17426","name":"錦泰樓 (AN205)","lat":"22.324370","long":"114.230667"},{"id":"A6A1C99BF11EE56C","name":"安泰(南)(恆泰樓) (AN210)","lat":"22.326480","long":"114.228783"},{"id":"DA64153E866AEEE4","name":"安泰(西)(和泰樓) (AN212)","lat":"22.327861","long":"114.227638"},{"id":"58611212645F0AB1","name":"白虹樓 (WT614)","lat":"22.332339","long":"114.215512"},{"id":"F6703708A375C67E","name":"牛池灣轉車站 - 彩虹站 (WT893)","lat":"22.334162","long":"114.210173"},{"id":"AB194503D9CC9465","name":"牛池灣轉車站-紅萼樓 (WT703)","lat":"22.336858","long":"114.206330"},{"id":"7BFC2AE979358DA7","name":"大老山隧道 (B3) (ST111)","lat":"22.376736","long":"114.211962"},{"id":"2E6DB54618C13048","name":"沙田圍新村 (ST666)","lat":"22.378583","long":"114.197527"},{"id":"6953AEF8B3921959","name":"田園閣 (ST669)","lat":"22.380055","long":"114.195008"},{"id":"13811ABFB6AF170A","name":"沙田市中心 (ST749)","lat":"22.381824","long":"114.188460"},{"id":"F608A74B860B3C47","name":"帝都酒店 (ST760)","lat":"22.379864","long":"114.188064"},{"id":"9E28FDE5126284C1","name":"美林邨 (TA730)","lat":"22.377226","long":"114.178845"},{"id":"1276AEF95F6564A2","name":"大圍街市 (TA333)","lat":"22.373617","long":"114.177213"},{"id":"62E74F8E7357BC2D","name":"大圍站總站 (G4) (TA943)","lat":"22.373074","long":"114.180370"}],"routeId":"88","description":"正常班次"},{"company":"kmb","route":"88","routeType":"1","dir":"I","orig":"大圍站","dest":"中秀茂坪","stopList":[{"id":"62E74F8E7357BC2D","name":"大圍站總站 (G4) (TA943)","lat":"22.373074","long":"114.180370"},{"id":"A3647D99DA65BA96","name":"海福花園 (TA145)","lat":"22.373685","long":"114.176755"},{"id":"D8D895494ECD7DDC","name":"美林邨美桃樓 (TA317)","lat":"22.377419","long":"114.178537"},{"id":"4C19E0623146E4F9","name":"銅鑼灣村 (TA318)","lat":"22.377496","long":"114.181367"},{"id":"3523AA15D7F22A3F","name":"希爾頓中心 (ST162)","lat":"22.379677","long":"114.187123"},{"id":"B9270C10E51D95F4","name":"沙田市中心總站 (ST925)","lat":"22.382182","long":"114.188308"},{"id":"19521C0A1CA93C52","name":"田園閣 (ST221)","lat":"22.379777","long":"114.195822"},{"id":"72936E1AD7A19462","name":"崗背街休憩花園 (ST223)","lat":"22.378981","long":"114.197357"},{"id":"30D564180B68ECA8","name":"大老山隧道 (A2) (ST791)","lat":"22.377526","long":"114.212311"},{"id":"2EFDB1EADF5955E6","name":"牛池灣轉車站-牛池灣村 (WT214)","lat":"22.336020","long":"114.207625"},{"id":"E7116B44D9E9393A","name":"牛池灣轉車站-彩雲聖若瑟","lat":"22.334458","long":"114.211619"},{"id":"29740CCBBD82FC33","name":"白虹樓 (WT231)","lat":"22.332630","long":"114.215379"},{"id":"7AEA492D148C9ECD","name":"基順學校","lat":"22.332927","long":"114.222500"},{"id":"7349A9FC61580972","name":"德望學校 (KT237)","lat":"22.333899","long":"114.222286"},{"id":"EC1E1868D370F3D9","name":"安泰邨 (AN641)","lat":"22.326704","long":"114.230921"},{"id":"51657C54B75A5304","name":"愛達樓 (AN643)","lat":"22.323350","long":"114.231662"},{"id":"4A91A327C9FC745E","name":"安達邨 (AN646)","lat":"22.320244","long":"114.234400"},{"id":"39AB774DC35311C0","name":"寶達邨轉車站 (KT458)","lat":"22.318216","long":"114.237735"},{"id":"93084A14AE624C6F","name":"上秀茂坪 (KT510)","lat":"22.315229","long":"114.236377"},{"id":"D17050E8964504BB","name":"秀明樓 (KT519)","lat":"22.315934","long":"114.233922"},{"id":"04DDF4F7F1C74876","name":"秀富樓 (KT520)","lat":"22.317096","long":"114.232170"},{"id":"6BBF595BBAD1DB2E","name":"中秀茂坪 (KT978)","lat":"22.319058","long":"114.231292"}],"routeId":"88","description":"正常班次"},{"company":"gmb","route":"88","routeType":1,"orig":"啟晴邨(啟德)","dest":"黃大仙站(循環線)","stopList":[{"id":20012109,"name":"承啟道, 近保良局何壽南小學","lat":"22.332176","long":"114.204644"},{"id":20021400,"name":"協調道西行近沐元街","lat":"22.332512","long":"114.199208"},{"id":20012110,"name":"太子道東, 富豪東方酒店對面","lat":"22.327604","long":"114.191340"},{"id":20012121,"name":"衙前圍道, 龍崗道","lat":"22.328948","long":"114.190338"},{"id":20012112,"name":"樂善道, 獻主會溥仁小學外","lat":"22.331625","long":"114.192747"},{"id":20012113,"name":"樂善道, 近東頭（二）邨　祥東樓","lat":"22.333023","long":"114.193996"},{"id":20012114,"name":"彩虹道, 近樂善堂王仲銘中學","lat":"22.334292","long":"114.194368"},{"id":20012115,"name":"大成街街市,近黃大仙文化公園","lat":"22.337951","long":"114.193225"},{"id":20012116,"name":"黃大仙港鐵站 東頭邨道近龍慧樓","lat":"22.339991","long":"114.194209"},{"id":20000802,"name":"沙田坳道, 黃大仙紀律部隊宿舍外","lat":"22.339971","long":"114.195949"},{"id":20002394,"name":"彩虹道啟鑽苑, 鑽石山港鐵站","lat":"22.339240","long":"114.199448"},{"id":20012117,"name":"采頤花園, 嘉諾撒小學(新蒲崗)","lat":"22.337064","long":"114.201069"},{"id":20021400,"name":"協調道西行近沐元街","lat":"22.332512","long":"114.199208"},{"id":20012118,"name":"沐虹街, 聖公會聖十架小學","lat":"22.332247","long":"114.203834"},{"id":20012119,"name":"承啟道, 近保良局何壽南小學","lat":"22.332101","long":"114.204653"}],"routeId":2004428,"description":"正常班次"},{"company":"gmb","route":"88","routeType":1,"orig":"青衣邨","dest":"葵芳站","stopList":[{"id":20012802,"name":"青衣邨小巴總站","lat":"22.353737","long":"114.103191"},{"id":20001757,"name":"楓樹窩路, 近綠悠雅苑","lat":"22.352644","long":"114.105198"},{"id":20012803,"name":"青衣鄉事會路, 青衣警署對面","lat":"22.351570","long":"114.107936"},{"id":20012804,"name":"葵青路, 近葵涌公園","lat":"22.354600","long":"114.122007"},{"id":20011992,"name":"興芳路, 近葵涌運動場","lat":"22.357756","long":"114.125767"},{"id":20012805,"name":"葵芳站","lat":"22.356085","long":"114.127570"}],"routeId":2005088,"description":"正常班次"},{"company":"gmb","route":"88","routeType":2,"orig":"葵芳站","dest":"青衣邨","stopList":[{"id":20012805,"name":"葵芳站","lat":"22.356085","long":"114.127570"},{"id":20012806,"name":"興芳路, 近新都會廣場第２座","lat":"22.357689","long":"114.126033"},{"id":20012807,"name":"葵青路, 近葵涌工業污水泵房","lat":"22.354302","long":"114.122141"},{"id":20012808,"name":"青衣鄉事會路, 近青衣已婚警察宿舍Ａ座","lat":"22.351814","long":"114.107448"},{"id":20001759,"name":"楓樹窩路, 綠悠雅苑對面","lat":"22.352427","long":"114.105150"},{"id":20001726,"name":"青葉街, 宜偉樓外","lat":"22.355154","long":"114.103411"},{"id":20012802,"name":"青衣邨小巴總站","lat":"22.353737","long":"114.103191"}],"routeId":2005088,"description":"正常班次"}]