[{"company":"kmb","route":"889","routeType":"1","dir":"O","orig":"沙田馬場","dest":"平田","stopList":[{"id":"0F76C05C69B00953","name":"沙田馬場巴士總站 (FT904)","lat":"22.397546","long":"114.201805"},{"id":"326199D24220A42B","name":"天馬苑 (WT200)","lat":"22.342707","long":"114.186638"},{"id":"F893C6ABC2743F64","name":"龍翔官立中學 (WT202)","lat":"22.342344","long":"114.189898"},{"id":"B27236FC63F891D9","name":"黃大仙轉車站 - 黃大仙廟 (B3)","lat":"22.341855","long":"114.192263"},{"id":"96A6FE5F07BDF203","name":"黃大仙轉車站 - 沙田坳道 (A1)","lat":"22.341856","long":"114.195281"},{"id":"2150919C68CAE98E","name":"新蒲崗大有街 (WT331)","lat":"22.338921","long":"114.200226"},{"id":"4A8AAC7402C3F60F","name":"彩虹轉車站 - 金碧樓 (L2)","lat":"22.335033","long":"114.205083"},{"id":"D9B53E4B3A192940","name":"啟業邨 (KT316)","lat":"22.330213","long":"114.210981"},{"id":"4BD5CE5106BB0697","name":"九龍灣站(東九文化中心) (KT317)","lat":"22.325601","long":"114.214336"},{"id":"6465DE9EE57F6C94","name":"牛頭角下邨 (KT323)","lat":"22.321984","long":"114.214628"},{"id":"4D3C6D74F6AE8C7D","name":"觀塘道休憩處 (KT331)","lat":"22.317953","long":"114.215055"},{"id":"0B8C52E4C34E3B64","name":"觀塘轉車站 - 觀塘市中心 (T5)","lat":"22.313264","long":"114.224346"},{"id":"144E9479168069DD","name":"觀塘游泳池 (R2) (KT361)","lat":"22.310432","long":"114.229545"},{"id":"7459D3AB11AFD6B5","name":"藍田站 (LT911)","lat":"22.306525","long":"114.233772"},{"id":"9C839C3824F47A6A","name":"聖安當女書院 (LT367)","lat":"22.300362","long":"114.238520"},{"id":"CB4BB0008A87E4FC","name":"油塘邨 (LT368)","lat":"22.298144","long":"114.239225"},{"id":"40FF132FB8E77051","name":"高怡邨 (LT115)","lat":"22.296699","long":"114.241904"},{"id":"B08CA4B3CDCF142A","name":"高俊苑 (LT116)","lat":"22.297943","long":"114.241074"},{"id":"CF18D17DE7B40350","name":"金栢閣 (LT120)","lat":"22.302001","long":"114.241063"},{"id":"736E84A8060D2AB9","name":"龍栢閣 (LT122)","lat":"22.303337","long":"114.238488"},{"id":"CB4B52222877C32F","name":"康雅苑 (LT124)","lat":"22.305080","long":"114.238251"},{"id":"6B9496267BEFF02A","name":"德康樓 (LT126)","lat":"22.308052","long":"114.239316"},{"id":"B9D7AE7CB0C56556","name":"德敬樓 (LT128)","lat":"22.310818","long":"114.238251"},{"id":"DA29C9192B8D12DC","name":"康逸苑 (LT502)","lat":"22.310454","long":"114.235354"},{"id":"23727783D2D3E994","name":"藍田綜合大樓 (LT146)","lat":"22.309953","long":"114.237311"},{"id":"EF17FDCDDF170D38","name":"平真樓 (LT150)","lat":"22.307422","long":"114.237626"},{"id":"657899B3C4E4F4A5","name":"平田 (LT934)","lat":"22.308254","long":"114.235514"}],"routeId":"889","description":"正常班次"}]