[{"company":"gmb","route":"88A","routeType":1,"orig":"黃大仙站","dest":"香港兒童醫院(循環線)","stopList":[{"id":20021382,"name":"黃大仙巴士總站","lat":"22.340790","long":"114.194840"},{"id":20021383,"name":"沙田坳道南行線近親仁街","lat":"22.340136","long":"114.195921"},{"id":20021384,"name":"彩虹道東行線盛景工業大廈對面(近燈柱AA6798)","lat":"22.339304","long":"114.199265"},{"id":20021385,"name":"四美街宏輝工業大廈對面","lat":"22.337173","long":"114.201100"},{"id":20021400,"name":"協調道西行近沐元街","lat":"22.332512","long":"114.199208"},{"id":20008528,"name":"協調道東行線近工業貿易大樓","lat":"22.332171","long":"114.197943"},{"id":20021387,"name":"協調道東行近稅務大樓","lat":"22.332799","long":"114.199134"},{"id":20021388,"name":"沐虹街南行停車灣","lat":"22.332405","long":"114.203873"},{"id":20021389,"name":"沐翠街東行近晴朗商場","lat":"22.331330","long":"114.202700"},{"id":20021390,"name":"常怡道南行近零碳天地","lat":"22.321056","long":"114.207746"},{"id":20021391,"name":"祥業街南行線近啟匯","lat":"22.316389","long":"114.211770"},{"id":20021392,"name":"承昌道近香港兒童醫院","lat":"22.315853","long":"114.209455"},{"id":20021393,"name":"祥業街近啟德消防局","lat":"22.316183","long":"114.211362"},{"id":20021394,"name":"宏照道北行線鴻力工業中心外巴士停車灣","lat":"22.322626","long":"114.208814"},{"id":20021395,"name":"臨興街西行啟曆學校對面","lat":"22.324239","long":"114.206781"},{"id":20021396,"name":"宏光道北行線近宏天廣場","lat":"22.326289","long":"114.205778"},{"id":20021397,"name":"承啟道北行近德朗邨","lat":"22.330189","long":"114.204683"},{"id":20021398,"name":"沐翠街東行近晴朗商場","lat":"22.331330","long":"114.202700"},{"id":20021399,"name":"承啟道北行啟晴邨外巴士停車灣","lat":"22.332055","long":"114.204683"},{"id":20021400,"name":"協調道西行近沐元街","lat":"22.332512","long":"114.199208"},{"id":20021401,"name":"彩虹道西行嘉榮工業大廈外","lat":"22.338647","long":"114.200362"},{"id":20021402,"name":"沙田坳道北行線龍逸樓外","lat":"22.339308","long":"114.195823"},{"id":20021382,"name":"黃大仙巴士總站","lat":"22.340790","long":"114.194840"}],"routeId":2010797,"description":"輔助班次"},{"company":"gmb","route":"88A","routeType":1,"orig":"啟晴邨","dest":"香港兒童醫院(循環線)","stopList":[{"id":20021399,"name":"承啟道北行啟晴邨外巴士停車灣","lat":"22.332055","long":"114.204683"},{"id":20021388,"name":"沐虹街南行停車灣","lat":"22.332405","long":"114.203873"},{"id":20021398,"name":"沐翠街東行近晴朗商場","lat":"22.331330","long":"114.202700"},{"id":20021390,"name":"常怡道南行近零碳天地","lat":"22.321056","long":"114.207746"},{"id":20021391,"name":"祥業街南行線近啟匯","lat":"22.316389","long":"114.211770"},{"id":20021392,"name":"承昌道近香港兒童醫院","lat":"22.315853","long":"114.209455"},{"id":20021393,"name":"祥業街近啟德消防局","lat":"22.316183","long":"114.211362"},{"id":20021394,"name":"宏照道北行線鴻力工業中心外巴士停車灣","lat":"22.322626","long":"114.208814"},{"id":20021395,"name":"臨興街西行啟曆學校對面","lat":"22.324239","long":"114.206781"},{"id":20021396,"name":"宏光道北行線近宏天廣場","lat":"22.326289","long":"114.205778"},{"id":20021397,"name":"承啟道北行近德朗邨","lat":"22.330189","long":"114.204683"},{"id":20021398,"name":"沐翠街東行近晴朗商場","lat":"22.331330","long":"114.202700"},{"id":20021399,"name":"承啟道北行啟晴邨外巴士停車灣","lat":"22.332055","long":"114.204683"}],"routeId":2010798,"description":"短途班次"},{"company":"gmb","route":"88A","routeType":1,"orig":"担杆山路","dest":"美景花園 (循環線)","stopList":[{"id":20016745,"name":"担杆山路, 近香港船廠有限公司","lat":"22.361154","long":"114.089944"},{"id":20014982,"name":"担杆山路, 近中華傳道會呂明才小學","lat":"22.362128","long":"114.101880"},{"id":20016746,"name":"港鐵青衣站小巴總站","lat":"22.359887","long":"114.106622"},{"id":20016747,"name":"長安邨小巴總站","lat":"22.361581","long":"114.103272"},{"id":20016748,"name":"青綠街, 近青綠街花園","lat":"22.354214","long":"114.103972"},{"id":20012810,"name":"青衣鄉事會路, 近翠怡花園第三座","lat":"22.351787","long":"114.107748"},{"id":20016749,"name":"青衣鄉事會路, 近涌美路","lat":"22.350001","long":"114.107898"},{"id":20014127,"name":"青康路, 近美景花園第七座","lat":"22.344863","long":"114.107729"},{"id":20016750,"name":"涌美路, 近上高灘街休憩處","lat":"22.350547","long":"114.106075"},{"id":20012808,"name":"青衣鄉事會路, 近青衣已婚警察宿舍Ａ座","lat":"22.351814","long":"114.107448"},{"id":20016751,"name":"楓樹窩路, 近翠怡花園第九座","lat":"22.353236","long":"114.108746"},{"id":20016752,"name":"青綠街, 近青綠街花園","lat":"22.354109","long":"114.103813"},{"id":20016746,"name":"港鐵青衣站小巴總站","lat":"22.359887","long":"114.106622"},{"id":20016747,"name":"長安邨小巴總站","lat":"22.361581","long":"114.103272"},{"id":20016745,"name":"担杆山路, 近香港船廠有限公司","lat":"22.361154","long":"114.089944"}],"routeId":2008596,"description":"正常班次"},{"company":"gmb","route":"88A","routeType":1,"orig":"美景花園","dest":"長安邨 (循環線)","stopList":[{"id":20014127,"name":"青康路, 近美景花園第七座","lat":"22.344863","long":"114.107729"},{"id":20012808,"name":"青衣鄉事會路, 近青衣已婚警察宿舍Ａ座","lat":"22.351814","long":"114.107448"},{"id":20016752,"name":"青綠街, 近青綠街花園","lat":"22.354109","long":"114.103813"},{"id":20016753,"name":"港鐵青衣站小巴總站","lat":"22.359887","long":"114.106622"},{"id":20001730,"name":"長安邨小巴總站","lat":"22.361403","long":"114.103262"},{"id":20016748,"name":"青綠街, 近青綠街花園","lat":"22.354214","long":"114.103972"},{"id":20012810,"name":"青衣鄉事會路, 近翠怡花園第三座","lat":"22.351787","long":"114.107748"},{"id":20014127,"name":"青康路, 近美景花園第七座","lat":"22.344863","long":"114.107729"}],"routeId":2008600,"description":"短程班次"},{"company":"gmb","route":"88A","routeType":1,"orig":"青衣站","dest":"担杆山路 (循環線)","stopList":[{"id":20016746,"name":"港鐵青衣站小巴總站","lat":"22.359887","long":"114.106622"},{"id":20001730,"name":"長安邨小巴總站","lat":"22.361403","long":"114.103262"},{"id":20016755,"name":"担杆山路, 近香港船廠有限公司","lat":"22.361154","long":"114.089944"},{"id":20014982,"name":"担杆山路, 近中華傳道會呂明才小學","lat":"22.362128","long":"114.101880"},{"id":20016746,"name":"港鐵青衣站小巴總站","lat":"22.359887","long":"114.106622"}],"routeId":2008601,"description":"短程班次"},{"company":"gmb","route":"88A","routeType":1,"orig":"青衣碼頭","dest":"青衣站","stopList":[{"id":20002103,"name":"青衣碼頭總站","lat":"22.353765","long":"114.109363"},{"id":20016746,"name":"港鐵青衣站小巴總站","lat":"22.359887","long":"114.106622"}],"routeId":2008602,"description":"短程班次"},{"company":"gmb","route":"88A","routeType":2,"orig":"青衣站","dest":"青衣碼頭","stopList":[{"id":20016746,"name":"港鐵青衣站小巴總站","lat":"22.359887","long":"114.106622"},{"id":20002103,"name":"青衣碼頭總站","lat":"22.353765","long":"114.109363"}],"routeId":2008602,"description":"短程班次"}]