[{"company":"gmb","route":"88A","routeType":1,"orig":"黃大仙站","dest":"香港兒童醫院(循環線)","stopList":[{"id":20021382,"name":"黃大仙巴士總站","lat":22.34079017917738,"long":114.19483959674837},{"id":20021383,"name":"沙田坳道南行線近親仁街","lat":22.34013646559696,"long":114.19592052698137},{"id":20021384,"name":"彩虹道東行線盛景工業大廈對面(近燈柱AA6798)","lat":22.339304123756126,"long":114.19926524162294},{"id":20021385,"name":"四美街宏輝工業大廈對面","lat":22.33717300828864,"long":114.20109987258913},{"id":20021400,"name":"協調道西行近沐元街","lat":22.33251247523444,"long":114.19920757412912},{"id":20008528,"name":"協調道東行線近工業貿易大樓","lat":22.33217133347984,"long":114.1979429125786},{"id":20021387,"name":"協調道東行近稅務大樓","lat":22.332799033663495,"long":114.19913381338121},{"id":20021388,"name":"沐虹街南行停車灣","lat":22.332404550478675,"long":114.20387327671052},{"id":20021389,"name":"沐翠街東行近晴朗商場","lat":22.33133026042592,"long":114.20269981026651},{"id":20021390,"name":"常怡道南行近零碳天地","lat":22.321055858444048,"long":114.20774638652803},{"id":20021391,"name":"祥業街南行線近啟匯","lat":22.31638858366881,"long":114.21176970005035},{"id":20021392,"name":"承昌道近香港兒童醫院","lat":22.315852618680843,"long":114.20945495367052},{"id":20021393,"name":"祥業街近啟德消防局","lat":22.316182634402995,"long":114.2113620042801},{"id":20021394,"name":"宏照道北行線鴻力工業中心外巴士停車灣","lat":22.322626469240983,"long":114.20881390571594},{"id":20021395,"name":"臨興街西行啟曆學校對面","lat":22.324239242342674,"long":114.20678079128267},{"id":20021396,"name":"宏光道北行線近宏天廣場","lat":22.32628867788129,"long":114.2057776451111},{"id":20021397,"name":"承啟道北行近德朗邨","lat":22.330188973245715,"long":114.20468330383302},{"id":20021398,"name":"沐翠街東行近晴朗商場","lat":22.33133026042592,"long":114.20269981026651},{"id":20021399,"name":"承啟道北行啟晴邨外巴士停車灣","lat":22.33205472483419,"long":114.20468330383302},{"id":20021400,"name":"協調道西行近沐元街","lat":22.33251247523444,"long":114.19920757412912},{"id":20021401,"name":"彩虹道西行嘉榮工業大廈外","lat":22.338646681829996,"long":114.20036226511003},{"id":20021402,"name":"沙田坳道北行線龍逸樓外","lat":22.33930784511668,"long":114.19582262635232},{"id":20021382,"name":"黃大仙巴士總站","lat":22.34079017917738,"long":114.19483959674837}],"routeId":2010797,"description":"輔助班次"},{"company":"gmb","route":"88A","routeType":1,"orig":"啟晴邨","dest":"香港兒童醫院(循環線)","stopList":[{"id":20021399,"name":"承啟道北行啟晴邨外巴士停車灣","lat":22.33205472483419,"long":114.20468330383302},{"id":20021388,"name":"沐虹街南行停車灣","lat":22.332404550478675,"long":114.20387327671052},{"id":20021398,"name":"沐翠街東行近晴朗商場","lat":22.33133026042592,"long":114.20269981026651},{"id":20021390,"name":"常怡道南行近零碳天地","lat":22.321055858444048,"long":114.20774638652803},{"id":20021391,"name":"祥業街南行線近啟匯","lat":22.31638858366881,"long":114.21176970005035},{"id":20021392,"name":"承昌道近香港兒童醫院","lat":22.315852618680843,"long":114.20945495367052},{"id":20021393,"name":"祥業街近啟德消防局","lat":22.316182634402995,"long":114.2113620042801},{"id":20021394,"name":"宏照道北行線鴻力工業中心外巴士停車灣","lat":22.322626469240983,"long":114.20881390571594},{"id":20021395,"name":"臨興街西行啟曆學校對面","lat":22.324239242342674,"long":114.20678079128267},{"id":20021396,"name":"宏光道北行線近宏天廣場","lat":22.32628867788129,"long":114.2057776451111},{"id":20021397,"name":"承啟道北行近德朗邨","lat":22.330188973245715,"long":114.20468330383302},{"id":20021398,"name":"沐翠街東行近晴朗商場","lat":22.33133026042592,"long":114.20269981026651},{"id":20021399,"name":"承啟道北行啟晴邨外巴士停車灣","lat":22.33205472483419,"long":114.20468330383302}],"routeId":2010798,"description":"短途班次"},{"company":"gmb","route":"88A","routeType":1,"orig":"担杆山路","dest":"美景花園 (循環線)","stopList":[{"id":20016745,"name":"担杆山路, 近香港船廠有限公司","lat":22.3611542405251,"long":114.08994376659395},{"id":20014982,"name":"担杆山路, 近中華傳道會呂明才小學","lat":22.362127840481495,"long":114.10187959671022},{"id":20016746,"name":"港鐵青衣站小巴總站","lat":22.359886690001595,"long":114.10662174224855},{"id":20016747,"name":"長安邨小巴總站","lat":22.361580888987064,"long":114.10327166318895},{"id":20016748,"name":"青綠街, 近青綠街花園","lat":22.354213577930004,"long":114.10397171974184},{"id":20012810,"name":"青衣鄉事會路, 近翠怡花園第三座","lat":22.35178746082515,"long":114.1077482700348},{"id":20016749,"name":"青衣鄉事會路, 近涌美路","lat":22.35000138464383,"long":114.10789847373964},{"id":20014127,"name":"青康路, 近美景花園第七座","lat":22.344863451218895,"long":114.10772885115618},{"id":20016750,"name":"涌美路, 近上高灘街休憩處","lat":22.350547141248406,"long":114.10607457160951},{"id":20012808,"name":"青衣鄉事會路, 近青衣已婚警察宿舍Ａ座","lat":22.351814095469,"long":114.10744786262514},{"id":20016751,"name":"楓樹窩路, 近翠怡花園第九座","lat":22.353236201669386,"long":114.10874605178834},{"id":20016752,"name":"青綠街, 近青綠街花園","lat":22.354109390939364,"long":114.10381346940996},{"id":20016746,"name":"港鐵青衣站小巴總站","lat":22.359886690001595,"long":114.10662174224855},{"id":20016747,"name":"長安邨小巴總站","lat":22.361580888987064,"long":114.10327166318895},{"id":20016745,"name":"担杆山路, 近香港船廠有限公司","lat":22.3611542405251,"long":114.08994376659395}],"routeId":2008596,"description":"正常班次"},{"company":"gmb","route":"88A","routeType":1,"orig":"美景花園","dest":"長安邨 (循環線)","stopList":[{"id":20014127,"name":"青康路, 近美景花園第七座","lat":22.344863451218895,"long":114.10772885115618},{"id":20012808,"name":"青衣鄉事會路, 近青衣已婚警察宿舍Ａ座","lat":22.351814095469,"long":114.10744786262514},{"id":20016752,"name":"青綠街, 近青綠街花園","lat":22.354109390939364,"long":114.10381346940996},{"id":20016753,"name":"港鐵青衣站小巴總站","lat":22.359886690001595,"long":114.10662174224855},{"id":20001730,"name":"長安邨小巴總站","lat":22.36140262913105,"long":114.1032616855855},{"id":20016748,"name":"青綠街, 近青綠街花園","lat":22.354213577930004,"long":114.10397171974184},{"id":20012810,"name":"青衣鄉事會路, 近翠怡花園第三座","lat":22.35178746082515,"long":114.1077482700348},{"id":20014127,"name":"青康路, 近美景花園第七座","lat":22.344863451218895,"long":114.10772885115618}],"routeId":2008600,"description":"短程班次"},{"company":"gmb","route":"88A","routeType":1,"orig":"青衣站","dest":"担杆山路 (循環線)","stopList":[{"id":20016746,"name":"港鐵青衣站小巴總站","lat":22.359886690001595,"long":114.10662174224855},{"id":20001730,"name":"長安邨小巴總站","lat":22.36140262913105,"long":114.1032616855855},{"id":20016755,"name":"担杆山路, 近香港船廠有限公司","lat":22.3611542405251,"long":114.08994376659395},{"id":20014982,"name":"担杆山路, 近中華傳道會呂明才小學","lat":22.362127840481495,"long":114.10187959671022},{"id":20016746,"name":"港鐵青衣站小巴總站","lat":22.359886690001595,"long":114.10662174224855}],"routeId":2008601,"description":"短程班次"},{"company":"gmb","route":"88A","routeType":1,"orig":"青衣碼頭","dest":"青衣站","stopList":[{"id":20002103,"name":"青衣碼頭總站","lat":22.353765443453128,"long":114.10936253483462},{"id":20016746,"name":"港鐵青衣站小巴總站","lat":22.359886690001595,"long":114.10662174224855}],"routeId":2008602,"description":"短程班次"},{"company":"gmb","route":"88A","routeType":2,"orig":"青衣站","dest":"青衣碼頭","stopList":[{"id":20016746,"name":"港鐵青衣站小巴總站","lat":22.359886690001595,"long":114.10662174224855},{"id":20002103,"name":"青衣碼頭總站","lat":22.353765443453128,"long":114.10936253483462}],"routeId":2008602,"description":"短程班次"}]