[{"company":"kmb","route":"89","routeType":"1","dir":"O","orig":"瀝源","dest":"觀塘(翠屏北邨)","stopList":[{"id":"588AC7E77A3E3DB6","name":"瀝源巴士總站","lat":"22.385027","long":"114.192309"},{"id":"9E3D2E34F849E298","name":"瀝源邨","lat":"22.384168","long":"114.193290"},{"id":"EDE0D474E9C40EC2","name":"沙田大會堂","lat":"22.382109","long":"114.189951"},{"id":"024D478CE8AC52F3","name":"帝都酒店","lat":"22.379667","long":"114.188126"},{"id":"613ED01D077362A9","name":"文化博物館","lat":"22.377877","long":"114.186508"},{"id":"B64A5DCCD5562BA5","name":"新田圍邨","lat":"22.370698","long":"114.189159"},{"id":"E34E3D48842C9B66","name":"獅子山隧道","lat":"22.358837","long":"114.174677"},{"id":"326199D24220A42B","name":"天馬苑","lat":"22.342707","long":"114.186638"},{"id":"C847B9021C407731","name":"龍翔官立中學","lat":"22.342366","long":"114.189837"},{"id":"38330C642568FE3F","name":"黃大仙轉車站 - 黃大仙廟 (B4)","lat":"22.341855","long":"114.192179"},{"id":"A15FFC3149FB92A0","name":"黃大仙轉車站 - 沙田坳道 (A2)","lat":"22.341856","long":"114.195204"},{"id":"9DE875FD17C67097","name":"鑽石山站","lat":"22.339809","long":"114.202618"},{"id":"68B207DDC9A182AB","name":"牛池灣轉車站 - 牛池灣村 (G1)","lat":"22.336630","long":"114.207400"},{"id":"830588EB9A8D26EC","name":"淘大花園","lat":"22.324283","long":"114.215805"},{"id":"5358062C769CEC05","name":"牛頭角上邨","lat":"22.320611","long":"114.215750"},{"id":"3CE7B5D1EBF9C5F7","name":"喜鵲樓","lat":"22.317181","long":"114.217644"},{"id":"750ADEB14D018CF7","name":"玉蓮臺","lat":"22.315299","long":"114.220122"},{"id":"49229D04FCA51B61","name":"物華街","lat":"22.315208","long":"114.225104"},{"id":"CED060CB0E89E2B3","name":"觀塘游泳池","lat":"22.311955","long":"114.229226"},{"id":"71B7CB659DF54E28","name":"觀塘(翠屏北邨)總站","lat":"22.314078","long":"114.229462"}],"routeId":"89","description":"正常班次"},{"company":"kmb","route":"89","routeType":"1","dir":"I","orig":"觀塘(翠屏北邨)","dest":"瀝源","stopList":[{"id":"71B7CB659DF54E28","name":"觀塘(翠屏北邨)總站","lat":"22.314078","long":"114.229462"},{"id":"073C44CE5FF431BC","name":"和樂邨","lat":"22.317237","long":"114.226791"},{"id":"45C2286729E1475B","name":"裕民坊","lat":"22.313405","long":"114.225071"},{"id":"5A95921B376A97CB","name":"牛頭角站","lat":"22.315247","long":"114.219788"},{"id":"84BACA14B0C50790","name":"觀塘官立小學","lat":"22.316752","long":"114.217683"},{"id":"7FF51CFDFA30964A","name":"牛頭角下邨","lat":"22.320548","long":"114.215649"},{"id":"34DCAF51F6056BB6","name":"淘大花園","lat":"22.324546","long":"114.215329"},{"id":"9C884013EBA1D548","name":"啟業邨","lat":"22.330292","long":"114.209927"},{"id":"AB194503D9CC9465","name":"牛池灣轉車站 - 紅萼樓 (H1)","lat":"22.336858","long":"114.206330"},{"id":"E47CD422B33E5BE7","name":"鑽石山站","lat":"22.339356","long":"114.201903"},{"id":"99440967B8390837","name":"黃大仙轉車站 - 黃大仙廟 (C1)","lat":"22.341481","long":"114.194301"},{"id":"BE4DB8D578A94BEF","name":"摩士公園泳池","lat":"22.341570","long":"114.191604"},{"id":"33D8E30DCBD27040","name":"永光書院","lat":"22.342292","long":"114.188712"},{"id":"EFED59E880B693F5","name":"天馬苑","lat":"22.342418","long":"114.186220"},{"id":"45D0CFA28B3FEFE5","name":"獅子山隧道","lat":"22.358720","long":"114.173449"},{"id":"B0D6494AF630229A","name":"新田圍邨","lat":"22.368914","long":"114.187352"},{"id":"B6B1AB47AB07887F","name":"文化博物館","lat":"22.377601","long":"114.186323"},{"id":"CCC5BAA6257BBDAA","name":"希爾頓中心","lat":"22.379566","long":"114.187154"},{"id":"B9270C10E51D95F4","name":"沙田市中心總站","lat":"22.382182","long":"114.188308"},{"id":"D507B4722D750F5A","name":"祿泉樓","lat":"22.386617","long":"114.192289"},{"id":"588AC7E77A3E3DB6","name":"瀝源巴士總站","lat":"22.385027","long":"114.192309"}],"routeId":"89","description":"正常班次"},{"company":"gmb","route":"89","routeType":1,"orig":"荃灣(河背街)","dest":"石頭街","stopList":[{"id":20015937,"name":"河背街, 近天佑小學","lat":22.36834465407321,"long":114.11613634614083},{"id":20015938,"name":"楊屋道, 近Jumbo iAdvantage","lat":22.366354539509327,"long":114.11908424524425},{"id":20015939,"name":"大窩口道, 近大窩口邨富強樓","lat":22.368246678968422,"long":114.12320489889882},{"id":20015940,"name":"大窩口道, 近大窩口邨富安樓","lat":22.36795041014317,"long":114.12430149163724},{"id":20015941,"name":"石頭街, 近大窩口邨富泰樓","lat":22.36577408095625,"long":114.12319696665685}],"routeId":2007959,"description":"正常班次"},{"company":"gmb","route":"89","routeType":2,"orig":"石頭街","dest":"荃灣(河背街)","stopList":[{"id":20015941,"name":"石頭街, 近大窩口邨富泰樓","lat":22.36577408095625,"long":114.12319696665685},{"id":20015942,"name":"德士古道, 近聖公會荊冕堂暨士德幼稚園","lat":22.368154076844135,"long":114.12231458723319},{"id":20015943,"name":"沙咀道, 近尚翠苑翠湖閣","lat":22.367674118673616,"long":114.12025505783112},{"id":20015937,"name":"河背街, 近天佑小學","lat":22.36834465407321,"long":114.11613634614083}],"routeId":2007959,"description":"正常班次"}]