[{"company":"kmb","route":"89C","routeType":"1","dir":"O","orig":"恆安","dest":"觀塘(翠屏道)","stopList":[{"id":"FA01BA1CA14120E3","name":"恆安巴士總站 (MA923)","lat":"22.418132","long":"114.228659"},{"id":"6F5592E4FF8A35E8","name":"耀安邨 (MA125)","lat":"22.419624","long":"114.229192"},{"id":"76A5F0AF87C0AA2C","name":"頌安邨 (MA317)","lat":"22.420862","long":"114.227253"},{"id":"8C52C44C69CEEA51","name":"錦鞍苑 (MA321)","lat":"22.418247","long":"114.226248"},{"id":"9E87D9D0191DACE9","name":"欣安邨 (MA140)","lat":"22.415211","long":"114.226664"},{"id":"96012665619E0B98","name":"保泰街 (MA340)","lat":"22.414337","long":"114.223778"},{"id":"C234CA2FB1299922","name":"德信中學 (MA350)","lat":"22.410689","long":"114.221549"},{"id":"F456DF523BCC5C21","name":"錦泰苑 (MA355)","lat":"22.407981","long":"114.220135"},{"id":"F508350699744D24","name":"富安花園巴士總站 (MA903)","lat":"22.405431","long":"114.224091"},{"id":"4A3D71FFAB41B756","name":"亞公角 (MA401)","lat":"22.402012","long":"114.215473"},{"id":"A78292AA77A277A7","name":"沙田醫院 (MA403)","lat":"22.398890","long":"114.212419"},{"id":"9E03B65B407F925A","name":"石門轉車站-新界鄉議局大樓","lat":"22.391500","long":"114.206510"},{"id":"A295FD27A4E5A7C5","name":"小瀝源草地滾球場 (ST530)","lat":"22.388524","long":"114.203828"},{"id":"C43782B93826F4CD","name":"小瀝源路遊樂場 (ST532)","lat":"22.386434","long":"114.206225"},{"id":"2223D64E9ED2E1A7","name":"帝逸酒店 (ST534)","lat":"22.383874","long":"114.209102"},{"id":"30D564180B68ECA8","name":"大老山隧道 (A2) (ST791)","lat":"22.377526","long":"114.212311"},{"id":"3BB1407BA61E0A9B","name":"彩虹轉車站 - 金碧樓 (WT345)","lat":"22.335522","long":"114.204886"},{"id":"23AF5995FEBCA8E6","name":"啟業邨 (KT314)","lat":"22.330675","long":"114.210388"},{"id":"66B78B49B8E626C9","name":"九龍灣站(東九文化中心) (KT319)","lat":"22.325485","long":"114.214337"},{"id":"D530D698BC181839","name":"牛頭角下邨 (KT324)","lat":"22.321874","long":"114.214633"},{"id":"4D3C6D74F6AE8C7D","name":"觀塘道休憩處 (KT331)","lat":"22.317953","long":"114.215055"},{"id":"FCA3906F0282A3CE","name":"牛頭角站 (KT334)","lat":"22.315292","long":"114.219320"},{"id":"9627881F2180C5AB","name":"創紀之城 (KT342)","lat":"22.314414","long":"114.221390"},{"id":"CED060CB0E89E2B3","name":"觀塘游泳池 (KT270)","lat":"22.311955","long":"114.229226"},{"id":"F9210821429F55B6","name":"翠桉樓 (KT272)","lat":"22.315232","long":"114.229331"},{"id":"12AF5B1935BB9735","name":"觀塘(翠屏道)總站 (KT950)","lat":"22.315761","long":"114.229448"}],"routeId":"89C","description":"正常班次"},{"company":"kmb","route":"89C","routeType":"2","dir":"O","orig":"恆安","dest":"觀塘(翠屏道)","stopList":[{"id":"FA01BA1CA14120E3","name":"恆安巴士總站 (MA923)","lat":"22.418132","long":"114.228659"},{"id":"6F5592E4FF8A35E8","name":"耀安邨 (MA125)","lat":"22.419624","long":"114.229192"},{"id":"76A5F0AF87C0AA2C","name":"頌安邨 (MA317)","lat":"22.420862","long":"114.227253"},{"id":"8C52C44C69CEEA51","name":"錦鞍苑 (MA321)","lat":"22.418247","long":"114.226248"},{"id":"9E87D9D0191DACE9","name":"欣安邨 (MA140)","lat":"22.415211","long":"114.226664"},{"id":"96012665619E0B98","name":"保泰街 (MA340)","lat":"22.414337","long":"114.223778"},{"id":"C234CA2FB1299922","name":"德信中學 (MA350)","lat":"22.410689","long":"114.221549"},{"id":"F456DF523BCC5C21","name":"錦泰苑 (MA355)","lat":"22.407981","long":"114.220135"},{"id":"F508350699744D24","name":"富安花園巴士總站 (MA903)","lat":"22.405431","long":"114.224091"},{"id":"4A3D71FFAB41B756","name":"亞公角 (MA401)","lat":"22.402012","long":"114.215473"},{"id":"A78292AA77A277A7","name":"沙田醫院 (MA403)","lat":"22.398890","long":"114.212419"},{"id":"30D564180B68ECA8","name":"大老山隧道 (A2) (ST791)","lat":"22.377526","long":"114.212311"},{"id":"66B78B49B8E626C9","name":"九龍灣站(東九文化中心) (KT319)","lat":"22.325485","long":"114.214337"},{"id":"D530D698BC181839","name":"牛頭角下邨 (KT324)","lat":"22.321874","long":"114.214633"},{"id":"4D3C6D74F6AE8C7D","name":"觀塘道休憩處 (KT331)","lat":"22.317953","long":"114.215055"},{"id":"FCA3906F0282A3CE","name":"牛頭角站 (KT334)","lat":"22.315292","long":"114.219320"},{"id":"9627881F2180C5AB","name":"創紀之城 (KT342)","lat":"22.314414","long":"114.221390"},{"id":"CED060CB0E89E2B3","name":"觀塘游泳池 (KT270)","lat":"22.311955","long":"114.229226"},{"id":"F9210821429F55B6","name":"翠桉樓 (KT272)","lat":"22.315232","long":"114.229331"},{"id":"12AF5B1935BB9735","name":"觀塘(翠屏道)總站 (KT950)","lat":"22.315761","long":"114.229448"}],"routeId":"89C","description":"特別班次"},{"company":"kmb","route":"89C","routeType":"1","dir":"I","orig":"觀塘(翠屏道)","dest":"恆安","stopList":[{"id":"12AF5B1935BB9735","name":"觀塘(翠屏道)總站 (KT950)","lat":"22.315761","long":"114.229448"},{"id":"3673A01280621EC2","name":"翠梓樓 (KT562)","lat":"22.313723","long":"114.229791"},{"id":"3558FA1D8DCF1F12","name":"觀塘游泳池 (KT563)","lat":"22.311663","long":"114.229373"},{"id":"FAAD25334A972923","name":"成業街休憩公園 (KT447)","lat":"22.309323","long":"114.228480"},{"id":"3221A3FF8CA898FF","name":"觀塘駿業里 (KT631)","lat":"22.313205","long":"114.223623"},{"id":"0ACB63B00DEE1B37","name":"觀塘轉車站 - 創紀之城 (KT638)","lat":"22.313983","long":"114.221682"},{"id":"E21A497AF62AF38F","name":"觀塘定富街 (KT649)","lat":"22.316382","long":"114.215918"},{"id":"CEA9610F9443BD8D","name":"牛頭角下邨 (KT655)","lat":"22.320262","long":"114.214422"},{"id":"06E1120EA9A7BF69","name":"德福花園 (KT661)","lat":"22.322227","long":"114.214267"},{"id":"91AED9CBCE81500D","name":"九龍灣站 (KT674)","lat":"22.325280","long":"114.213985"},{"id":"31B93EAF018D6956","name":"啟泰苑 (KT680)","lat":"22.328868","long":"114.211770"},{"id":"E7A8D18CC7046843","name":"牛池灣轉車站-紅萼樓 (WT706)","lat":"22.336963","long":"114.206156"},{"id":"7BFC2AE979358DA7","name":"大老山隧道 (B3) (ST111)","lat":"22.376736","long":"114.211962"},{"id":"02CF8D1FE31E9A09","name":"帝逸酒店 (ST606)","lat":"22.383660","long":"114.208940"},{"id":"B8E228521E55C7C5","name":"第一城寶城街 (ST607)","lat":"22.386360","long":"114.205960"},{"id":"8ECFB7DFFC0023DA","name":"石門轉車站 - 濱景花園 (ST148)","lat":"22.391566","long":"114.206129"},{"id":"33A4BFE372C06BA8","name":"沙田醫院 (MA101)","lat":"22.399874","long":"114.213037"},{"id":"B8BBCCA288E1F862","name":"亞公角 (MA104)","lat":"22.402759","long":"114.216742"},{"id":"9EAC85DD5495DB6F","name":"富安花園巴士總站 (MA902)","lat":"22.405467","long":"114.224149"},{"id":"11A1533C3B63F3E4","name":"錦泰苑 (MA130)","lat":"22.408730","long":"114.220556"},{"id":"1BD5318E1C647F83","name":"德信中學 (MA133)","lat":"22.410914","long":"114.221406"},{"id":"651489E8C0A626A1","name":"海典灣 (MA136)","lat":"22.414325","long":"114.222335"},{"id":"6B46C7E695EF21CF","name":"欣安邨 (MA142)","lat":"22.415305","long":"114.226294"},{"id":"F489213E82621D3F","name":"聽濤雅苑 (MA151)","lat":"22.418966","long":"114.226061"},{"id":"31DA09E74ABD87CD","name":"頌安邨 (MA154)","lat":"22.420741","long":"114.226763"},{"id":"53451B51DC815C50","name":"耀安邨 (MA373)","lat":"22.421150","long":"114.229615"},{"id":"7A550F91E3171941","name":"恆安巴士總站 (MA920)","lat":"22.417949","long":"114.228322"},{"id":"FA01BA1CA14120E3","name":"恆安巴士總站 (MA923)","lat":"22.418132","long":"114.228659"}],"routeId":"89C","description":"正常班次"},{"company":"gmb","route":"89C","routeType":1,"orig":"安達邨","dest":"牛頭角總站","stopList":[{"id":20007879,"name":"安翠街小巴總站","lat":"22.321069","long":"114.234125"},{"id":20003282,"name":"寶琳路, 寶達邨外","lat":"22.318206","long":"114.237585"},{"id":20003070,"name":"曉光街, 秀茂坪南邨外","lat":"22.315220","long":"114.236333"},{"id":20007670,"name":"秀明道, 秀明樓外","lat":"22.315715","long":"114.234080"},{"id":20003072,"name":"秀明道, 秀富樓外","lat":"22.317052","long":"114.232265"},{"id":20014136,"name":"秀明道, 秀茂坪商場對面","lat":"22.320120","long":"114.231319"},{"id":20007405,"name":"秀明道, 秀義樓對面","lat":"22.321595","long":"114.230522"},{"id":20002022,"name":"秀茂坪道, 寧波第二中學對面","lat":"22.323925","long":"114.228570"},{"id":20007872,"name":"康寧道, 高雷中學外","lat":"22.322484","long":"114.225664"},{"id":20007331,"name":"康寧道, 秀茂坪紀律部隊宿舍外","lat":"22.321335","long":"114.224434"},{"id":20000935,"name":"振華道, 樂華邨社區中心外","lat":"22.320784","long":"114.222571"},{"id":20000936,"name":"振華道, 普華樓出面","lat":"22.321932","long":"114.220843"},{"id":20007395,"name":"牛頭角總站","lat":"22.322962","long":"114.216767"}],"routeId":2001033,"description":"特別班次"},{"company":"gmb","route":"89C","routeType":2,"orig":"牛頭角總站","dest":"安達邨","stopList":[{"id":20007395,"name":"牛頭角總站","lat":"22.322962","long":"114.216767"},{"id":20007874,"name":"振華道, 樂雅苑對面","lat":"22.322912","long":"114.220887"},{"id":20007875,"name":"振華道, 樂華社區中心對面 ","lat":"22.320835","long":"114.222818"},{"id":20007876,"name":"康寧道, 康寧道公園對面","lat":"22.320709","long":"114.223950"},{"id":20000946,"name":"康寧道, 高雷中學對面","lat":"22.322274","long":"114.224910"},{"id":20002030,"name":"秀茂坪道, 寧波第二中學外","lat":"22.324061","long":"114.228541"},{"id":20016234,"name":"秀明道, 秀雅樓外","lat":"22.323348","long":"114.229968"},{"id":20007435,"name":"秀明道, 秀茂坪邨秀康樓外","lat":"22.321893","long":"114.230452"},{"id":20014147,"name":"秀明道基督教聖約教會堅樂小學外","lat":"22.320424","long":"114.231513"},{"id":20007401,"name":"秀明道, 秀茂坪商場外","lat":"22.319254","long":"114.231314"},{"id":20015121,"name":"秀明道, 路德會聖馬太學校外","lat":"22.317041","long":"114.232439"},{"id":20007402,"name":"秀明道, 觀塘官立小學對面","lat":"22.315100","long":"114.234623"},{"id":20001020,"name":"曉光街, 秀茂坪南邨外","lat":"22.315028","long":"114.235691"},{"id":20002551,"name":"秀茂坪道, 秀暉樓外","lat":"22.316969","long":"114.235759"},{"id":20014772,"name":"寶琳路, 寶達邨對面","lat":"22.318536","long":"114.235947"},{"id":20007334,"name":"安翠街, 近善達樓","lat":"22.320256","long":"114.235732"},{"id":20007879,"name":"安翠街小巴總站","lat":"22.321069","long":"114.234125"}],"routeId":2001033,"description":"特別班次"},{"company":"gmb","route":"89C","routeType":1,"orig":"安達邨","dest":"牛頭角總站","stopList":[{"id":20007879,"name":"安翠街小巴總站","lat":"22.321069","long":"114.234125"},{"id":20003282,"name":"寶琳路, 寶達邨外","lat":"22.318206","long":"114.237585"},{"id":20007481,"name":"秀茂坪道, 秀程樓外","lat":"22.319426","long":"114.233907"},{"id":20017257,"name":"秀茂坪邨, 秀樂樓外","lat":"22.321018","long":"114.232125"},{"id":20001154,"name":"秀茂坪道, 秀雅樓外","lat":"22.322895","long":"114.230656"},{"id":20002022,"name":"秀茂坪道, 寧波第二中學對面","lat":"22.323925","long":"114.228570"},{"id":20007872,"name":"康寧道, 高雷中學外","lat":"22.322484","long":"114.225664"},{"id":20007331,"name":"康寧道, 秀茂坪紀律部隊宿舍外","lat":"22.321335","long":"114.224434"},{"id":20000935,"name":"振華道, 樂華邨社區中心外","lat":"22.320784","long":"114.222571"},{"id":20000936,"name":"振華道, 普華樓出面","lat":"22.321932","long":"114.220843"},{"id":20007395,"name":"牛頭角總站","lat":"22.322962","long":"114.216767"}],"routeId":2001035,"description":"短途班次"},{"company":"gmb","route":"89C","routeType":2,"orig":"牛頭角總站","dest":"安達邨","stopList":[{"id":20007395,"name":"牛頭角總站","lat":"22.322962","long":"114.216767"},{"id":20007874,"name":"振華道, 樂雅苑對面","lat":"22.322912","long":"114.220887"},{"id":20007875,"name":"振華道, 樂華社區中心對面 ","lat":"22.320835","long":"114.222818"},{"id":20007876,"name":"康寧道, 康寧道公園對面","lat":"22.320709","long":"114.223950"},{"id":20000946,"name":"康寧道, 高雷中學對面","lat":"22.322274","long":"114.224910"},{"id":20002030,"name":"秀茂坪道, 寧波第二中學外","lat":"22.324061","long":"114.228541"},{"id":20007877,"name":"秀茂坪道, 秀雅樓對面","lat":"22.323148","long":"114.230607"},{"id":20007878,"name":"秀茂坪道, 秀程樓對面","lat":"22.319455","long":"114.234024"},{"id":20014772,"name":"寶琳路, 寶達邨對面","lat":"22.318536","long":"114.235947"},{"id":20007334,"name":"安翠街, 近善達樓","lat":"22.320256","long":"114.235732"},{"id":20007879,"name":"安翠街小巴總站","lat":"22.321069","long":"114.234125"}],"routeId":2001035,"description":"短途班次"}]