[{"company":"kmb","route":"89D","routeType":"1","dir":"O","orig":"烏溪沙站","dest":"藍田站","stopList":[{"id":"541FF05FA053F2B5","name":"烏溪沙站","lat":"22.428420","long":"114.243873"},{"id":"8337F935242C5CC3","name":"利安邨","lat":"22.427459","long":"114.240591"},{"id":"6BD93B827893E41E","name":"錦龍苑","lat":"22.425830","long":"114.239819"},{"id":"3C61E9226688CA79","name":"錦英苑","lat":"22.423882","long":"114.238591"},{"id":"7333653B0F4B71BD","name":"新港城","lat":"22.422761","long":"114.232945"},{"id":"76E8D8C73E0B8096","name":"馬鞍山市中心 (MA310)","lat":"22.424563","long":"114.231609"},{"id":"2F163186FB995E0B","name":"福安花園","lat":"22.423113","long":"114.228334"},{"id":"714F28F2DEB4EB4F","name":"耀安邨耀謙樓","lat":"22.418228","long":"114.230463"},{"id":"2021D186A889FA2E","name":"錦駿苑","lat":"22.413265","long":"114.226888"},{"id":"763D73BAB7E2A1AE","name":"富安花園","lat":"22.407042","long":"114.222731"},{"id":"4A3D71FFAB41B756","name":"亞公角","lat":"22.402012","long":"114.215473"},{"id":"A78292AA77A277A7","name":"沙田醫院","lat":"22.398890","long":"114.212419"},{"id":"30D564180B68ECA8","name":"大老山隧道 (A2)","lat":"22.377526","long":"114.212311"},{"id":"279C78D8C04A83BB","name":"彩虹轉車站 - 碧海樓 (M3)","lat":"22.335806","long":"114.204705"},{"id":"BA03816A38B9DA7F","name":"啟業邨","lat":"22.330268","long":"114.210894"},{"id":"D0F8772D043C207E","name":"九龍灣站(東九文化中心)","lat":"22.323713","long":"114.214493"},{"id":"BE36EF30B86ADD1D","name":"牛頭角下邨","lat":"22.321653","long":"114.214648"},{"id":"598F766175BE3EF3","name":"觀塘道休憩處","lat":"22.318159","long":"114.215070"},{"id":"38B86AC474D1060D","name":"創紀之城 (U5)","lat":"22.314442","long":"114.221302"},{"id":"EB177E95B39626AE","name":"觀塘轉車站 - 觀塘市中心 (T6)","lat":"22.313290","long":"114.224287"},{"id":"5AAC6A858427D04E","name":"觀塘游泳池 (R3)","lat":"22.310432","long":"114.229545"},{"id":"F36C1B3AC57D96FA","name":"藍田站 (落客站)","lat":"22.307670","long":"114.233509"},{"id":"81969BBB9A9F321A","name":"藍田站","lat":"22.306968","long":"114.233669"}],"routeId":"89D","description":"正常班次"},{"company":"kmb","route":"89D","routeType":"1","dir":"I","orig":"藍田站","dest":"烏溪沙站","stopList":[{"id":"81969BBB9A9F321A","name":"藍田站","lat":"22.306968","long":"114.233669"},{"id":"5B04604E989BBDF0","name":"觀塘法院 (F1)","lat":"22.310012","long":"114.229524"},{"id":"8C67C373BC19EDF5","name":"觀塘駿業里 (C4)","lat":"22.313120","long":"114.223876"},{"id":"0ACB63B00DEE1B37","name":"觀塘轉車站 - 創紀之城 (B6)","lat":"22.313983","long":"114.221682"},{"id":"E21A497AF62AF38F","name":"觀塘定富街","lat":"22.316382","long":"114.215918"},{"id":"CEA9610F9443BD8D","name":"牛頭角下邨","lat":"22.320262","long":"114.214422"},{"id":"06E1120EA9A7BF69","name":"德福花園","lat":"22.322227","long":"114.214267"},{"id":"91AED9CBCE81500D","name":"九龍灣站","lat":"22.325280","long":"114.213985"},{"id":"31B93EAF018D6956","name":"啟泰苑","lat":"22.328868","long":"114.211770"},{"id":"E7A8D18CC7046843","name":"牛池灣轉車站 - 紅萼樓 (H4)","lat":"22.336963","long":"114.206156"},{"id":"C57C924EEB5463E5","name":"大老山隧道 (B2)","lat":"22.376800","long":"114.211883"},{"id":"16A7F2C343AA6DE6","name":"沙田醫院","lat":"22.399870","long":"114.213035"},{"id":"4B0E21EDF07F9C83","name":"亞公角","lat":"22.402759","long":"114.216742"},{"id":"1CF4AE2F7045B848","name":"富安花園","lat":"22.406232","long":"114.221917"},{"id":"E27820FF0AF73D52","name":"錦駿苑 (MA110)","lat":"22.411915","long":"114.224178"},{"id":"CB667DC000F66D40","name":"耀安邨","lat":"22.419037","long":"114.229281"},{"id":"857F6F958A96DCDB","name":"馬鞍山運動場 (MA126)","lat":"22.421785","long":"114.228481"},{"id":"180DC2E520E7A4D0","name":"海栢花園 (MA157)","lat":"22.425017","long":"114.231436"},{"id":"1E04D9D97DE148C2","name":"馬鞍山警署 (MA181)","lat":"22.422348","long":"114.232940"},{"id":"4B5F39DBC6671C81","name":"錦英苑","lat":"22.423954","long":"114.238505"},{"id":"4CC126E0B1E42F14","name":"錦龍苑","lat":"22.425909","long":"114.239535"},{"id":"A90443FD0C19C4B1","name":"利安邨","lat":"22.427627","long":"114.240415"},{"id":"541FF05FA053F2B5","name":"烏溪沙站","lat":"22.428420","long":"114.243873"}],"routeId":"89D","description":"正常班次"},{"company":"kmb","route":"89D","routeType":"2","dir":"I","orig":"藍田站","dest":"烏溪沙站","stopList":[{"id":"81969BBB9A9F321A","name":"藍田站","lat":"22.306968","long":"114.233669"},{"id":"5B04604E989BBDF0","name":"觀塘法院 (F1)","lat":"22.310012","long":"114.229524"},{"id":"8C67C373BC19EDF5","name":"觀塘駿業里 (C4)","lat":"22.313120","long":"114.223876"},{"id":"0ACB63B00DEE1B37","name":"觀塘轉車站 - 創紀之城 (B6)","lat":"22.313983","long":"114.221682"},{"id":"E21A497AF62AF38F","name":"觀塘定富街","lat":"22.316382","long":"114.215918"},{"id":"CEA9610F9443BD8D","name":"牛頭角下邨","lat":"22.320262","long":"114.214422"},{"id":"06E1120EA9A7BF69","name":"德福花園","lat":"22.322227","long":"114.214267"},{"id":"91AED9CBCE81500D","name":"九龍灣站","lat":"22.325280","long":"114.213985"},{"id":"31B93EAF018D6956","name":"啟泰苑","lat":"22.328868","long":"114.211770"},{"id":"C57C924EEB5463E5","name":"大老山隧道 (B2)","lat":"22.376800","long":"114.211883"},{"id":"16A7F2C343AA6DE6","name":"沙田醫院","lat":"22.399870","long":"114.213035"},{"id":"4B0E21EDF07F9C83","name":"亞公角","lat":"22.402759","long":"114.216742"},{"id":"1CF4AE2F7045B848","name":"富安花園","lat":"22.406232","long":"114.221917"},{"id":"E27820FF0AF73D52","name":"錦駿苑 (MA110)","lat":"22.411915","long":"114.224178"},{"id":"CB667DC000F66D40","name":"耀安邨","lat":"22.419037","long":"114.229281"},{"id":"857F6F958A96DCDB","name":"馬鞍山運動場 (MA126)","lat":"22.421785","long":"114.228481"},{"id":"180DC2E520E7A4D0","name":"海栢花園 (MA157)","lat":"22.425017","long":"114.231436"},{"id":"1E04D9D97DE148C2","name":"馬鞍山警署 (MA181)","lat":"22.422348","long":"114.232940"},{"id":"4B5F39DBC6671C81","name":"錦英苑","lat":"22.423954","long":"114.238505"},{"id":"4CC126E0B1E42F14","name":"錦龍苑","lat":"22.425909","long":"114.239535"},{"id":"A90443FD0C19C4B1","name":"利安邨","lat":"22.427627","long":"114.240415"},{"id":"541FF05FA053F2B5","name":"烏溪沙站","lat":"22.428420","long":"114.243873"}],"routeId":"89D","description":"特別班次"}]