[{"company":"kmb","route":"89S","routeType":"1","dir":"O","orig":"圓洲角","dest":"烏溪沙站(循環線)","stopList":[{"id":"1C9A67AF93C79806","name":"圓洲角總站","lat":"22.381366","long":"114.201366"},{"id":"779954C17EAF3B95","name":"愉翠苑","lat":"22.382457","long":"114.205565"},{"id":"F8BB84BC801E4C85","name":"牛皮沙新村","lat":"22.380184","long":"114.207696"},{"id":"BC39BFC3C7BC3009","name":"香港恒生大學","lat":"22.380733","long":"114.211916"},{"id":"2FABE52A66DF7482","name":"廣柏樓","lat":"22.381786","long":"114.213729"},{"id":"ED0A8F0BF375EA10","name":"黃泥頭巴士總站","lat":"22.382216","long":"114.217969"},{"id":"7E3C2CA5ABEC8416","name":"廣源邨","lat":"22.383034","long":"114.214434"},{"id":"51D13DDB8EBA98AF","name":"小瀝源","lat":"22.383279","long":"114.213238"},{"id":"16A7F2C343AA6DE6","name":"沙田醫院","lat":"22.399870","long":"114.213035"},{"id":"4B0E21EDF07F9C83","name":"亞公角","lat":"22.402759","long":"114.216742"},{"id":"1CF4AE2F7045B848","name":"富安花園","lat":"22.406232","long":"114.221917"},{"id":"E27820FF0AF73D52","name":"錦駿苑","lat":"22.411915","long":"114.224178"},{"id":"880BE8598CB0CCE7","name":"恆安邨","lat":"22.417800","long":"114.230758"},{"id":"CB667DC000F66D40","name":"耀安邨","lat":"22.419037","long":"114.229281"},{"id":"857F6F958A96DCDB","name":"馬鞍山運動場","lat":"22.421785","long":"114.228481"},{"id":"180DC2E520E7A4D0","name":"海栢花園","lat":"22.425017","long":"114.231436"},{"id":"1E04D9D97DE148C2","name":"馬鞍山警署","lat":"22.422348","long":"114.232940"},{"id":"4B5F39DBC6671C81","name":"錦英苑","lat":"22.423954","long":"114.238505"},{"id":"4CC126E0B1E42F14","name":"錦龍苑","lat":"22.425909","long":"114.239535"},{"id":"A90443FD0C19C4B1","name":"利安邨","lat":"22.427627","long":"114.240415"},{"id":"7D54FE486D057070","name":"烏溪沙站","lat":"22.428420","long":"114.243873"},{"id":"763D73BAB7E2A1AE","name":"富安花園","lat":"22.407042","long":"114.222731"},{"id":"4A3D71FFAB41B756","name":"亞公角","lat":"22.402012","long":"114.215473"},{"id":"A78292AA77A277A7","name":"沙田醫院","lat":"22.398890","long":"114.212419"},{"id":"69E4C417312C10C0","name":"小瀝源","lat":"22.383115","long":"114.211971"},{"id":"C1E1199805BCC92D","name":"帝堡城","lat":"22.382838","long":"114.215121"},{"id":"A0496DDDC41213FA","name":"黃泥頭巴士總站","lat":"22.382436","long":"114.217712"},{"id":"260B43921BAFD8CB","name":"廣源邨","lat":"22.382987","long":"114.214518"},{"id":"BCEEE192EF01C361","name":"廣榕樓","lat":"22.381391","long":"114.213811"},{"id":"3F01C915E856B018","name":"香港恒生大學","lat":"22.380537","long":"114.211840"},{"id":"6282A73360ACEBEA","name":"牛皮沙新村","lat":"22.379688","long":"114.209116"},{"id":"8F78659628BA6795","name":"愉翠苑","lat":"22.382106","long":"114.205674"},{"id":"1C9A67AF93C79806","name":"圓洲角總站","lat":"22.381366","long":"114.201366"}],"routeId":"89S","description":"正常班次"},{"company":"kmb","route":"89S","routeType":"2","dir":"O","orig":"水泉澳","dest":"烏溪沙站","stopList":[{"id":"3229F37E6637B0ED","name":"水泉澳總站","lat":"22.374743","long":"114.197899"},{"id":"808CA5FECCC6646D","name":"多石街","lat":"22.377451","long":"114.201727"},{"id":"F8BB84BC801E4C85","name":"牛皮沙新村","lat":"22.380184","long":"114.207696"},{"id":"BC39BFC3C7BC3009","name":"香港恒生大學","lat":"22.380733","long":"114.211916"},{"id":"2FABE52A66DF7482","name":"廣柏樓","lat":"22.381786","long":"114.213729"},{"id":"ED0A8F0BF375EA10","name":"黃泥頭巴士總站","lat":"22.382216","long":"114.217969"},{"id":"7E3C2CA5ABEC8416","name":"廣源邨","lat":"22.383034","long":"114.214434"},{"id":"51D13DDB8EBA98AF","name":"小瀝源","lat":"22.383279","long":"114.213238"},{"id":"16A7F2C343AA6DE6","name":"沙田醫院","lat":"22.399870","long":"114.213035"},{"id":"4B0E21EDF07F9C83","name":"亞公角","lat":"22.402759","long":"114.216742"},{"id":"1CF4AE2F7045B848","name":"富安花園","lat":"22.406232","long":"114.221917"},{"id":"E27820FF0AF73D52","name":"錦駿苑","lat":"22.411915","long":"114.224178"},{"id":"880BE8598CB0CCE7","name":"恆安邨","lat":"22.417800","long":"114.230758"},{"id":"CB667DC000F66D40","name":"耀安邨","lat":"22.419037","long":"114.229281"},{"id":"857F6F958A96DCDB","name":"馬鞍山運動場","lat":"22.421785","long":"114.228481"},{"id":"180DC2E520E7A4D0","name":"海栢花園","lat":"22.425017","long":"114.231436"},{"id":"1E04D9D97DE148C2","name":"馬鞍山警署","lat":"22.422348","long":"114.232940"},{"id":"4B5F39DBC6671C81","name":"錦英苑","lat":"22.423954","long":"114.238505"},{"id":"4CC126E0B1E42F14","name":"錦龍苑","lat":"22.425909","long":"114.239535"},{"id":"A90443FD0C19C4B1","name":"利安邨","lat":"22.427627","long":"114.240415"},{"id":"7D54FE486D057070","name":"烏溪沙站","lat":"22.428420","long":"114.243873"}],"routeId":"89S","description":"特別班次"},{"company":"gmb","route":"89S","routeType":1,"orig":"葵芳站","dest":"葵盛北(循環線)","stopList":[{"id":20015985,"name":"興寧路, 近新都會廣場","lat":22.356815188852988,"long":114.1272792069342},{"id":20001716,"name":"興芳路, 京寶大廈外","lat":22.35945231700617,"long":114.12788406779742},{"id":20015984,"name":"興芳路, 近林士德體育館","lat":22.360893161616403,"long":114.12938869768048},{"id":20015976,"name":"葵盛圍, 近葵盛東邨盛和樓","lat":22.365688182394372,"long":114.12699728253067},{"id":20014857,"name":"興芳路, 近葵芳邨葵喜樓","lat":22.35951843077992,"long":114.12816610918804},{"id":20015985,"name":"興寧路, 近新都會廣場","lat":22.356815188852988,"long":114.1272792069342}],"routeId":2007996,"description":"額外班次"}]