[{"company":"kmb","route":"89S","routeType":"1","dir":"O","orig":"水泉澳","dest":"烏溪沙站","stopList":[{"id":"3229F37E6637B0ED","name":"水泉澳總站 (ST974)","lat":"22.374743","long":"114.197899"},{"id":"808CA5FECCC6646D","name":"多石街 (ST660)","lat":"22.377451","long":"114.201727"},{"id":"860026BE357B5462","name":"聖羅撒書院 (ST700)","lat":"22.381216","long":"114.202641"},{"id":"1C9A67AF93C79806","name":"威爾斯親王醫院 (ST864)","lat":"22.381366","long":"114.201366"},{"id":"779954C17EAF3B95","name":"愉翠苑 (ST321)","lat":"22.382457","long":"114.205565"},{"id":"F8BB84BC801E4C85","name":"牛皮沙新村 (ST325)","lat":"22.380184","long":"114.207696"},{"id":"BC39BFC3C7BC3009","name":"香港恒生大學 (ST330)","lat":"22.380733","long":"114.211916"},{"id":"2FABE52A66DF7482","name":"廣柏樓 (ST332)","lat":"22.381786","long":"114.213729"},{"id":"ED0A8F0BF375EA10","name":"黃泥頭巴士總站 (ST891)","lat":"22.382216","long":"114.217969"},{"id":"7E3C2CA5ABEC8416","name":"廣源邨廣柏樓 (ST601)","lat":"22.383034","long":"114.214434"},{"id":"51D13DDB8EBA98AF","name":"小瀝源 (綠怡雅苑) (ST604)","lat":"22.383279","long":"114.213238"},{"id":"16A7F2C343AA6DE6","name":"沙田醫院 (MA100)","lat":"22.399870","long":"114.213035"},{"id":"4B0E21EDF07F9C83","name":"亞公角 (MA103)","lat":"22.402759","long":"114.216742"},{"id":"1CF4AE2F7045B848","name":"富安花園 (MA108)","lat":"22.406232","long":"114.221917"},{"id":"E27820FF0AF73D52","name":"錦駿苑 (MA110)","lat":"22.411915","long":"114.224178"},{"id":"880BE8598CB0CCE7","name":"恆安邨 (MA122)","lat":"22.417800","long":"114.230758"},{"id":"CB667DC000F66D40","name":"耀安邨 (MA124)","lat":"22.419037","long":"114.229281"},{"id":"857F6F958A96DCDB","name":"馬鞍山運動場 (MA126)","lat":"22.421785","long":"114.228481"},{"id":"180DC2E520E7A4D0","name":"海栢花園 (MA157)","lat":"22.425017","long":"114.231436"},{"id":"1E04D9D97DE148C2","name":"馬鞍山警署 (MA181)","lat":"22.422348","long":"114.232940"},{"id":"4B5F39DBC6671C81","name":"錦英苑 (MA190)","lat":"22.423954","long":"114.238505"},{"id":"4CC126E0B1E42F14","name":"錦龍苑 (MA195)","lat":"22.425909","long":"114.239535"},{"id":"A90443FD0C19C4B1","name":"利安邨 (MA163)","lat":"22.427627","long":"114.240415"},{"id":"1E471172708B5C5D","name":"耀沙路 (MA200)","lat":"22.433294","long":"114.241483"},{"id":"2479788748627B65","name":"烏溪沙路 (MA210)","lat":"22.430936","long":"114.240685"},{"id":"7D54FE486D057070","name":"烏溪沙站 (MA985)","lat":"22.428420","long":"114.243873"}],"routeId":"89S","description":"正常班次"},{"company":"kmb","route":"89S","routeType":"2","dir":"O","orig":"水泉澳","dest":"烏溪沙站","stopList":[{"id":"3229F37E6637B0ED","name":"水泉澳總站 (ST974)","lat":"22.374743","long":"114.197899"},{"id":"808CA5FECCC6646D","name":"多石街 (ST660)","lat":"22.377451","long":"114.201727"},{"id":"F8BB84BC801E4C85","name":"牛皮沙新村 (ST325)","lat":"22.380184","long":"114.207696"},{"id":"BC39BFC3C7BC3009","name":"香港恒生大學 (ST330)","lat":"22.380733","long":"114.211916"},{"id":"2FABE52A66DF7482","name":"廣柏樓 (ST332)","lat":"22.381786","long":"114.213729"},{"id":"ED0A8F0BF375EA10","name":"黃泥頭巴士總站 (ST891)","lat":"22.382216","long":"114.217969"},{"id":"7E3C2CA5ABEC8416","name":"廣源邨廣柏樓 (ST601)","lat":"22.383034","long":"114.214434"},{"id":"51D13DDB8EBA98AF","name":"小瀝源 (綠怡雅苑) (ST604)","lat":"22.383279","long":"114.213238"},{"id":"16A7F2C343AA6DE6","name":"沙田醫院 (MA100)","lat":"22.399870","long":"114.213035"},{"id":"4B0E21EDF07F9C83","name":"亞公角 (MA103)","lat":"22.402759","long":"114.216742"},{"id":"1CF4AE2F7045B848","name":"富安花園 (MA108)","lat":"22.406232","long":"114.221917"},{"id":"E27820FF0AF73D52","name":"錦駿苑 (MA110)","lat":"22.411915","long":"114.224178"},{"id":"880BE8598CB0CCE7","name":"恆安邨 (MA122)","lat":"22.417800","long":"114.230758"},{"id":"CB667DC000F66D40","name":"耀安邨 (MA124)","lat":"22.419037","long":"114.229281"},{"id":"857F6F958A96DCDB","name":"馬鞍山運動場 (MA126)","lat":"22.421785","long":"114.228481"},{"id":"180DC2E520E7A4D0","name":"海栢花園 (MA157)","lat":"22.425017","long":"114.231436"},{"id":"1E04D9D97DE148C2","name":"馬鞍山警署 (MA181)","lat":"22.422348","long":"114.232940"},{"id":"4B5F39DBC6671C81","name":"錦英苑 (MA190)","lat":"22.423954","long":"114.238505"},{"id":"4CC126E0B1E42F14","name":"錦龍苑 (MA195)","lat":"22.425909","long":"114.239535"},{"id":"A90443FD0C19C4B1","name":"利安邨 (MA163)","lat":"22.427627","long":"114.240415"},{"id":"7D54FE486D057070","name":"烏溪沙站 (MA985)","lat":"22.428420","long":"114.243873"}],"routeId":"89S","description":"特別班次"},{"company":"kmb","route":"89S","routeType":"1","dir":"I","orig":"烏溪沙站","dest":"水泉澳","stopList":[{"id":"7D54FE486D057070","name":"烏溪沙站 (MA985)","lat":"22.428420","long":"114.243873"},{"id":"1E471172708B5C5D","name":"耀沙路 (MA200)","lat":"22.433294","long":"114.241483"},{"id":"2479788748627B65","name":"烏溪沙路 (MA210)","lat":"22.430936","long":"114.240685"},{"id":"8337F935242C5CC3","name":"利安邨 (MA300)","lat":"22.427459","long":"114.240591"},{"id":"0D4E07F475845DB3","name":"錦龍苑 (MA332)","lat":"22.425786","long":"114.239845"},{"id":"B071B60F5566934B","name":"錦英苑 (MA336)","lat":"22.423882","long":"114.238591"},{"id":"7333653B0F4B71BD","name":"新港城 (MA113)","lat":"22.422761","long":"114.232945"},{"id":"7E2611CD03F9450A","name":"馬鞍山市中心 (MA307)","lat":"22.424602","long":"114.231779"},{"id":"2F163186FB995E0B","name":"福安花園 (MA314)","lat":"22.423113","long":"114.228334"},{"id":"7FD05121B0A4A750","name":"耀安邨耀謙樓 (MA381)","lat":"22.418087","long":"114.230731"},{"id":"664BAA2EA12B80B1","name":"錦駿苑 (MA186)","lat":"22.413265","long":"114.226888"},{"id":"763D73BAB7E2A1AE","name":"富安花園 (MA390)","lat":"22.407042","long":"114.222731"},{"id":"4A3D71FFAB41B756","name":"亞公角 (MA401)","lat":"22.402012","long":"114.215473"},{"id":"A78292AA77A277A7","name":"沙田醫院 (MA403)","lat":"22.398890","long":"114.212419"},{"id":"69E4C417312C10C0","name":"小瀝源 (綠怡雅苑) (ST535)","lat":"22.383115","long":"114.211971"},{"id":"C1E1199805BCC92D","name":"帝堡城 (ST538)","lat":"22.382838","long":"114.215121"},{"id":"A0496DDDC41213FA","name":"黃泥頭巴士總站 (ST892)","lat":"22.382436","long":"114.217712"},{"id":"260B43921BAFD8CB","name":"廣源邨廣柏樓 (ST600)","lat":"22.382987","long":"114.214518"},{"id":"BCEEE192EF01C361","name":"廣源邨廣榕樓 (ST620)","lat":"22.381391","long":"114.213811"},{"id":"3F01C915E856B018","name":"香港恒生大學 (ST623)","lat":"22.380537","long":"114.211840"},{"id":"6282A73360ACEBEA","name":"牛皮沙新村 (ST630)","lat":"22.379688","long":"114.209116"},{"id":"8F78659628BA6795","name":"愉翠苑 (ST632)","lat":"22.382106","long":"114.205674"},{"id":"24E16716BBB7F2D0","name":"威爾斯親王醫院 (ST860)","lat":"22.381229","long":"114.201162"},{"id":"0333C7A4008A8DE3","name":"聖羅撒書院 (ST306)","lat":"22.379924","long":"114.203948"},{"id":"ECB8FB3328B3E1F5","name":"多石街 (ST231)","lat":"22.377441","long":"114.202092"},{"id":"3229F37E6637B0ED","name":"水泉澳總站 (ST974)","lat":"22.374743","long":"114.197899"}],"routeId":"89S","description":"正常班次"},{"company":"gmb","route":"89S","routeType":1,"orig":"葵芳站","dest":"葵盛北(循環線)","stopList":[{"id":20015985,"name":"興寧路, 近新都會廣場","lat":22.356815188852988,"long":114.1272792069342},{"id":20001716,"name":"興芳路, 京寶大廈外","lat":22.35945231700617,"long":114.12788406779742},{"id":20021877,"name":"興芳路, 近興芳路遊樂場","lat":22.360627129428646,"long":114.12910401821138},{"id":20015976,"name":"葵盛圍, 近葵盛東邨盛和樓","lat":22.365688182394372,"long":114.12699728253067},{"id":20020265,"name":"興芳路, 林士德體育館對面","lat":22.360960759977893,"long":114.129758477211},{"id":20014857,"name":"興芳路, 近葵芳邨葵喜樓","lat":22.35951843077992,"long":114.12816610918804},{"id":20015985,"name":"興寧路, 近新都會廣場","lat":22.356815188852988,"long":114.1272792069342}],"routeId":2007996,"description":"額外班次"}]