[{"company":"kmb","route":"8A","routeType":"1","dir":"O","orig":"黃埔花園","dest":"尖沙咀(循環線)","stopList":[{"id":"75D6E5952B41E1D2","name":"黃埔花園總站 (HH922)","lat":"22.304688","long":"114.190403"},{"id":"36F7DCE4723C2C44","name":"紅樂道 (HH300)","lat":"22.302752","long":"114.185478"},{"id":"95FAB1D2AD752ECE","name":"紅磡南道 (HH321)","lat":"22.305121","long":"114.185074"},{"id":"505D36136FD57784","name":"紅磡站 (HH979)","lat":"22.302083","long":"114.182547"},{"id":"FE2815CBCD21C57C","name":"香港歷史博物館 (YT615)","lat":"22.302694","long":"114.177430"},{"id":"BEEBDDB542A7E709","name":"香港科學館 (YT622)","lat":"22.301475","long":"114.176613"},{"id":"48184733EFE9D3E3","name":"尖沙咀麼地道 (YT624)","lat":"22.298487","long":"114.175834"},{"id":"8E8DB91C885F1230","name":"尖東站 K11 MUSEA (YT633)","lat":"22.294724","long":"114.174189"},{"id":"E507F6160447C129","name":"香港文化中心 (YT634)","lat":"22.294519","long":"114.171217"},{"id":"7209CEE65796F4DD","name":"尖沙咀碼頭,海港城 (YT904)","lat":"22.293816","long":"114.168797"},{"id":"5D75A800F823B45D","name":"尖東站 K11 MUSEA (YT216)","lat":"22.295152","long":"114.174392"},{"id":"C175ACB534E8C15C","name":"尖沙咀麼地道 (YT221)","lat":"22.297822","long":"114.175434"},{"id":"F656A38D2A40F77D","name":"金德大廈 香港科學館 (YT226)","lat":"22.301104","long":"114.176208"},{"id":"3D040EE809057C6E","name":"香港理工大學 (YT231)","lat":"22.302827","long":"114.177953"},{"id":"842DB57036C4C645","name":"紅磡站 (HH969)","lat":"22.304530","long":"114.182034"},{"id":"3DEB0D13043F4C17","name":"機利士南路 (HH331)","lat":"22.307054","long":"114.184247"},{"id":"97377AA89B45CD34","name":"觀音街 (HH340)","lat":"22.307555","long":"114.185684"},{"id":"438AFA4E9E76C953","name":"德民街 (HH346)","lat":"22.305880","long":"114.188304"},{"id":"75D6E5952B41E1D2","name":"黃埔花園總站 (HH922)","lat":"22.304688","long":"114.190403"}],"routeId":"8A","description":"正常班次"}]