[{"company":"kmb","route":"90","routeType":"1","dir":"O","orig":"碩門邨","dest":"將軍澳(彩明)","stopList":[{"id":"0035CDF15614428C","name":"碩門邨巴士總站 (ST991)","lat":"22.387499","long":"114.208580"},{"id":"B8E228521E55C7C5","name":"第一城寶城街 (ST607)","lat":"22.386360","long":"114.205960"},{"id":"C305A8135A09C094","name":"置富第一城 (ST300)","lat":"22.386857","long":"114.203657"},{"id":"C1E9F8237EDBBAD2","name":"愉田苑 (ST304)","lat":"22.384059","long":"114.201988"},{"id":"7F068ADB0659F04E","name":"第一城站 (ST311)","lat":"22.382902","long":"114.203852"},{"id":"779954C17EAF3B95","name":"愉翠苑 (ST321)","lat":"22.382457","long":"114.205565"},{"id":"F8BB84BC801E4C85","name":"牛皮沙新村 (ST325)","lat":"22.380184","long":"114.207696"},{"id":"BC39BFC3C7BC3009","name":"香港恒生大學 (ST330)","lat":"22.380733","long":"114.211916"},{"id":"2FABE52A66DF7482","name":"廣柏樓 (ST332)","lat":"22.381786","long":"114.213729"},{"id":"F0852C7827CC97EB","name":"黃泥頭巴士總站 (ST890)","lat":"22.382340","long":"114.217954"},{"id":"7E3C2CA5ABEC8416","name":"廣源邨廣柏樓 (ST601)","lat":"22.383034","long":"114.214434"},{"id":"51D13DDB8EBA98AF","name":"小瀝源 (綠怡雅苑) (ST604)","lat":"22.383279","long":"114.213238"},{"id":"FFBEBD7068E01EA4","name":"大老山隧道 (A1)","lat":"22.377571","long":"114.212260"},{"id":"9ACC26CD04287102","name":"將軍澳隧道轉車站 (P1)","lat":"22.316056","long":"114.240427"},{"id":"711927A9FAEF1158","name":"寶盈花園 (TK560)","lat":"22.307792","long":"114.262428"},{"id":"F09FF6C6349030C6","name":"將軍澳站 (TK570)","lat":"22.307809","long":"114.261095"},{"id":"D13C7436B13B4A4B","name":"唐明街公園 (TK576)","lat":"22.310441","long":"114.258958"},{"id":"EC9467FAB4EC7203","name":"彩富閣 (TK585)","lat":"22.308298","long":"114.253326"},{"id":"938667F4F953DFCA","name":"彩明總站 (TK916)","lat":"22.305903","long":"114.251711"}],"routeId":"90","description":"正常班次"},{"company":"kmb","route":"90","routeType":"1","dir":"I","orig":"將軍澳(彩明)","dest":"碩門邨","stopList":[{"id":"938667F4F953DFCA","name":"彩明總站 (TK916)","lat":"22.305903","long":"114.251711"},{"id":"1EF9F54185151A2F","name":"健明邨 (TK100)","lat":"22.306723","long":"114.251823"},{"id":"DF54B41AF7CE380C","name":"唐明街公園 (TK106)","lat":"22.310718","long":"114.259016"},{"id":"094EACC936039B3F","name":"佛教志蓮小學 (TK115)","lat":"22.310179","long":"114.260466"},{"id":"20FDDA894D722F88","name":"將軍澳廣場 (TK122)","lat":"22.308076","long":"114.262359"},{"id":"9762FC524B26C4A7","name":"將軍澳隧道轉車站 (G1)","lat":"22.315362","long":"114.240526"},{"id":"9961C7ED914E87DD","name":"大老山隧道 (B4)","lat":"22.376679","long":"114.212038"},{"id":"69E4C417312C10C0","name":"小瀝源 (綠怡雅苑) (ST535)","lat":"22.383115","long":"114.211971"},{"id":"C1E1199805BCC92D","name":"帝堡城 (ST538)","lat":"22.382838","long":"114.215121"},{"id":"A0496DDDC41213FA","name":"黃泥頭巴士總站 (ST892)","lat":"22.382436","long":"114.217712"},{"id":"BCEEE192EF01C361","name":"廣源邨廣榕樓 (ST620)","lat":"22.381391","long":"114.213811"},{"id":"3F01C915E856B018","name":"香港恒生大學 (ST623)","lat":"22.380537","long":"114.211840"},{"id":"6282A73360ACEBEA","name":"牛皮沙新村 (ST630)","lat":"22.379688","long":"114.209116"},{"id":"52C1ADA57FFA7DD4","name":"愉翠苑 (ST633)","lat":"22.382142","long":"114.205632"},{"id":"F4ABF71262D8C556","name":"愉田苑 (ST702)","lat":"22.382801","long":"114.201729"},{"id":"896D3C4F7F91E9C9","name":"第一城總站 (ST706)","lat":"22.386022","long":"114.202480"},{"id":"C6F406D78E5C515A","name":"置富第一城 (ST712)","lat":"22.386910","long":"114.203374"},{"id":"82F22BA7623AA4CB","name":"小瀝源路遊樂場 (ST531)","lat":"22.386434","long":"114.206225"},{"id":"0035CDF15614428C","name":"碩門邨巴士總站 (ST991)","lat":"22.387499","long":"114.208580"}],"routeId":"90","description":"正常班次"},{"company":"ctb","route":"90","routeType":null,"dir":"I","orig":"中環 (交易廣場)","dest":"鴨脷洲邨","stopList":[{"id":"001032","name":"中環 (交易廣場)","lat":"22.283695952091","long":"114.15803274053"},{"id":"001031","name":"大會堂, 干諾道中","lat":"22.281868122091","long":"114.16153245053"},{"id":"001138","name":"金鐘 - 港鐵 D 出口","lat":"22.278641252091","long":"114.16563501053"},{"id":"002427","name":"軍器廠街, 軒尼詩道","lat":"22.277848662091","long":"114.16894462053"},{"id":"002451","name":"修頓球場, 莊士敦道","lat":"22.276597032091","long":"114.17261036053"},{"id":"002538","name":"巴路士街, 灣仔道","lat":"22.277023422091","long":"114.17683052053"},{"id":"002540","name":"天樂里, 灣仔道","lat":"22.277898752091","long":"114.17916388053"},{"id":"002470","name":"跑馬地馬場, 摩理臣山道","lat":"22.275360852091","long":"114.18042067053"},{"id":"002348","name":"香港仔隧道巴士轉乘站","lat":"22.249770482091","long":"114.17533612053"},{"id":"002355","name":"黃竹坑遊樂場, 黃竹坑道","lat":"22.250122902091","long":"114.16985106053"},{"id":"002356","name":"業興街, 黃竹坑道","lat":"22.249175622091","long":"114.16779618053"},{"id":"002358","name":"勝利工廠大廈, 黃竹坑道","lat":"22.248392422091","long":"114.16314899053"},{"id":"002213","name":"香港真光書院, 利東邨道","lat":"22.241680522091","long":"114.15792123053"},{"id":"002210","name":"利東邨東興樓, 利東邨道","lat":"22.240572052091","long":"114.15491479053"},{"id":"002211","name":"利東街市, 利東邨道","lat":"22.241479512091","long":"114.15483183053"},{"id":"002167","name":"鴨脷洲徑, 鴨脷洲橋道","lat":"22.243437112091","long":"114.15652985053"},{"id":"002168","name":"利枝道, 鴨脷洲橋道","lat":"22.243012942091","long":"114.15500259053"},{"id":"002166","name":"鴨脷洲邨","lat":"22.244376802091","long":"114.15097708053"}],"routeId":"90","description":"正常班次"},{"company":"ctb","route":"90","routeType":null,"dir":"O","orig":"鴨脷洲邨","dest":"中環 (交易廣場)","stopList":[{"id":"002166","name":"鴨脷洲邨","lat":"22.244376802091","long":"114.15097708053"},{"id":"002172","name":"利枝道, 鴨脷洲橋道","lat":"22.243305822091","long":"114.15525315053"},{"id":"002173","name":"鴨脷洲徑, 鴨脷洲橋道","lat":"22.243626692091","long":"114.15653776053"},{"id":"002209","name":"利東邨","lat":"22.240744842091","long":"114.15645911053"},{"id":"002211","name":"利東街市, 利東邨道","lat":"22.241479512091","long":"114.15483183053"},{"id":"002212","name":"漁安苑, 利東邨道","lat":"22.243031932091","long":"114.15782740053"},{"id":"002344","name":"甄沾記大廈, 黃竹坑道","lat":"22.248523252091","long":"114.16362493053"},{"id":"002345","name":"黃竹坑遊樂場, 黃竹坑道","lat":"22.250546142091","long":"114.17056977053"},{"id":"002347","name":"香港仔隧道巴士轉乘站","lat":"22.249960892091","long":"114.17585543053"},{"id":"002467","name":"立德里, 摩理臣山道","lat":"22.276064312091","long":"114.18020849053"},{"id":"002442","name":"北海中心, 軒尼詩道","lat":"22.278327962091","long":"114.17845458053"},{"id":"002444","name":"軒尼詩道官立小學, 軒尼詩道","lat":"22.277744552091","long":"114.17543474053"},{"id":"002446","name":"修頓球場, 軒尼詩道","lat":"22.277433042091","long":"114.17187855053"},{"id":"002449","name":"晏頓街, 軒尼詩道","lat":"22.277666072091","long":"114.16883945053"},{"id":"001140","name":"金鐘 - 太古廣場, 金鐘道","lat":"22.278070732091","long":"114.16486695053"},{"id":"001142","name":"中銀大廈, 金鐘道","lat":"22.279480102091","long":"114.16214434053"},{"id":"001106","name":"畢打街","lat":"22.281823852091","long":"114.15738082053"},{"id":"001032","name":"中環 (交易廣場)","lat":"22.283695952091","long":"114.15803274053"}],"routeId":"90","description":"正常班次"}]