[{"company":"kmb","route":"900","routeType":"1","dir":"O","orig":"白石角","dest":"灣仔(會展)","stopList":[{"id":"2260C9C02C307D45","name":"博研路","lat":"22.427840","long":"114.202526"},{"id":"5747450359C7907C","name":"逸瓏灣","lat":"22.431675","long":"114.203753"},{"id":"33ABA49F0E91A247","name":"雲滙 (S3)","lat":"22.429805","long":"114.203323"},{"id":"B34F59A0270AEDA4","name":"創新路 (S4)","lat":"22.428649","long":"114.204981"},{"id":"B464BD6334A93FA1","name":"科研路 (S5)","lat":"22.426442","long":"114.208450"},{"id":"5C2A974134634635","name":"科學園(第一期) (S6)","lat":"22.424272","long":"114.211589"},{"id":"A0D379E172F5BC93","name":"香港生物科技研究院 (S7)","lat":"22.422664","long":"114.214179"},{"id":"853CD1316EB5227B","name":"水上活動中心 (S8)","lat":"22.418662","long":"114.214271"},{"id":"BE6EC9708F5FB613","name":"馬料水公眾碼頭 (S9)","lat":"22.416027","long":"114.213945"},{"id":"F4CC6B75BA4F647E","name":"禾輋邨","lat":"22.387544","long":"114.196445"},{"id":"7012718FDFC57D32","name":"瀝源邨","lat":"22.384168","long":"114.193290"},{"id":"480DB16994F8FFEE","name":"青沙公路轉車站","lat":"22.358632","long":"114.163389"},{"id":"673B33867260EBB7","name":"青沙公路轉車站 (A4)","lat":"22.358523","long":"114.163314"},{"id":"E18D73287340B634","name":"西隧轉車站 (A3)","lat":"22.304356","long":"114.159916"},{"id":"28B264A688848238","name":"港澳碼頭","lat":"22.288101","long":"114.150185"},{"id":"FFB52BC25F0AB482","name":"中環街市","lat":"22.285139","long":"114.155364"},{"id":"3D880BF3426C8C0B","name":"遮打道","lat":"22.281504","long":"114.159985"},{"id":"3FCC00D1D01ACD28","name":"金鐘站 (B1)","lat":"22.278410","long":"114.164530"},{"id":"3E63535258CAA9BB","name":"入境事務大樓","lat":"22.279529","long":"114.172673"},{"id":"D27B34CA3854232D","name":"香港會議展覽中心","lat":"22.281387","long":"114.174153"}],"routeId":"900","description":"正常班次"},{"company":"kmb","route":"900","routeType":"1","dir":"I","orig":"灣仔(會展)","dest":"白石角","stopList":[{"id":"D27B34CA3854232D","name":"香港會議展覽中心","lat":"22.281387","long":"114.174153"},{"id":"B603EBE7441D0A64","name":"菲林明道","lat":"22.277581","long":"114.174166"},{"id":"47A2AA98F8E20AE2","name":"盧押道","lat":"22.277431","long":"114.171323"},{"id":"FD91979BDA3DE7D8","name":"太古廣場 (A2)","lat":"22.277987","long":"114.165221"},{"id":"A63B90588F747496","name":"中銀大廈","lat":"22.279446","long":"114.162299"},{"id":"83B717529F9794BC","name":"利源東街","lat":"22.283008","long":"114.156894"},{"id":"98FEDCA813462C77","name":"永吉街","lat":"22.285430","long":"114.154473"},{"id":"A81B13297DB1C481","name":"文華里","lat":"22.286265","long":"114.152753"},{"id":"13E0A0449C73F4DE","name":"皇后街","lat":"22.288394","long":"114.147216"},{"id":"DEBD2B9A856C0B1F","name":"西隧轉車站 (B4)","lat":"22.304494","long":"114.158761"},{"id":"3F21ED54F86D9B1D","name":"青沙公路轉車站","lat":"22.360275","long":"114.162760"},{"id":"7EC5C567E35D2805","name":"青沙公路轉車站 (B2)","lat":"22.360716","long":"114.162966"},{"id":"142BE7225B0BB745","name":"瀝源邨","lat":"22.384405","long":"114.193158"},{"id":"AFC5E64568DBB2D5","name":"禾輋邨","lat":"22.388004","long":"114.196544"},{"id":"739A5DDE0CF1970C","name":"馬料水公眾碼頭 (N1)","lat":"22.415908","long":"114.213778"},{"id":"9E95343C77BB85E2","name":"水上活動中心 (N2)","lat":"22.420023","long":"114.214250"},{"id":"F808AF482CCA028E","name":"香港生物科技研究院 (N3)","lat":"22.422518","long":"114.213925"},{"id":"BE940A2F1B154D6E","name":"科學園(第一期) (N4)","lat":"22.424247","long":"114.211432"},{"id":"E8F5E085BAEFE100","name":"科研路 (N5)","lat":"22.426628","long":"114.208027"},{"id":"3313B37BF82AFF18","name":"雲滙 (N6)","lat":"22.429561","long":"114.203338"},{"id":"5747450359C7907C","name":"逸瓏灣","lat":"22.431675","long":"114.203753"},{"id":"2260C9C02C307D45","name":"博研路","lat":"22.427840","long":"114.202526"}],"routeId":"900","description":"正常班次"},{"company":"kmb","route":"900","routeType":"2","dir":"I","orig":"灣仔(會展)","dest":"白石角","stopList":[{"id":"D27B34CA3854232D","name":"香港會議展覽中心","lat":"22.281387","long":"114.174153"},{"id":"B603EBE7441D0A64","name":"菲林明道","lat":"22.277581","long":"114.174166"},{"id":"47A2AA98F8E20AE2","name":"盧押道","lat":"22.277431","long":"114.171323"},{"id":"FD91979BDA3DE7D8","name":"太古廣場 (A2)","lat":"22.277987","long":"114.165221"},{"id":"A63B90588F747496","name":"中銀大廈","lat":"22.279446","long":"114.162299"},{"id":"83B717529F9794BC","name":"利源東街","lat":"22.283008","long":"114.156894"},{"id":"98FEDCA813462C77","name":"永吉街","lat":"22.285430","long":"114.154473"},{"id":"A81B13297DB1C481","name":"文華里","lat":"22.286265","long":"114.152753"},{"id":"13E0A0449C73F4DE","name":"皇后街","lat":"22.288394","long":"114.147216"},{"id":"DEBD2B9A856C0B1F","name":"西隧轉車站 (B4)","lat":"22.304494","long":"114.158761"},{"id":"3F21ED54F86D9B1D","name":"青沙公路轉車站","lat":"22.360275","long":"114.162760"},{"id":"7EC5C567E35D2805","name":"青沙公路轉車站 (B2)","lat":"22.360716","long":"114.162966"},{"id":"142BE7225B0BB745","name":"瀝源邨","lat":"22.384405","long":"114.193158"},{"id":"AFC5E64568DBB2D5","name":"禾輋邨","lat":"22.388004","long":"114.196544"},{"id":"548DB838B4673D93","name":"大學站","lat":"22.412578","long":"114.210303"},{"id":"739A5DDE0CF1970C","name":"馬料水公眾碼頭 (N1)","lat":"22.415908","long":"114.213778"},{"id":"9E95343C77BB85E2","name":"水上活動中心 (N2)","lat":"22.420023","long":"114.214250"},{"id":"F808AF482CCA028E","name":"香港生物科技研究院 (N3)","lat":"22.422518","long":"114.213925"},{"id":"BE940A2F1B154D6E","name":"科學園(第一期) (N4)","lat":"22.424247","long":"114.211432"},{"id":"E8F5E085BAEFE100","name":"科研路 (N5)","lat":"22.426628","long":"114.208027"},{"id":"3313B37BF82AFF18","name":"雲滙 (N6)","lat":"22.429561","long":"114.203338"},{"id":"E42EE04A4E8CC11D","name":"白石角","lat":"22.431368","long":"114.201986"}],"routeId":"900","description":"特別班次"}]