[{"company":"kmb","route":"900X","routeType":"1","dir":"O","orig":"白石角","dest":"灣仔(會展)","stopList":[{"id":"2260C9C02C307D45","name":"博研路 (PA160)","lat":"22.427840","long":"114.202526"},{"id":"5747450359C7907C","name":"逸瓏灣 (PA150)","lat":"22.431675","long":"114.203753"},{"id":"33ABA49F0E91A247","name":"雲滙 (PA209)","lat":"22.429805","long":"114.203323"},{"id":"023E9E5A9E073E1A","name":"創新路 (PA211)","lat":"22.428649","long":"114.204981"},{"id":"B464BD6334A93FA1","name":"科研路 (PA216)","lat":"22.426442","long":"114.208450"},{"id":"5C2A974134634635","name":"科學園(第一期) (PA220)","lat":"22.424272","long":"114.211589"},{"id":"A0D379E172F5BC93","name":"香港生物科技研究院 (PA232)","lat":"22.422664","long":"114.214179"},{"id":"853CD1316EB5227B","name":"水上活動中心 (PA236)","lat":"22.418662","long":"114.214271"},{"id":"BE6EC9708F5FB613","name":"馬料水公眾碼頭 (PA238)","lat":"22.416027","long":"114.213945"},{"id":"480DB16994F8FFEE","name":"青沙公路轉車站 (TA750)","lat":"22.358632","long":"114.163389"},{"id":"673B33867260EBB7","name":"青沙公路轉車站 (A4) (TA752)","lat":"22.358523","long":"114.163314"},{"id":"E18D73287340B634","name":"西隧轉車站 (YT311)","lat":"22.304356","long":"114.159916"},{"id":"28B264A688848238","name":"港澳碼頭 (CW110)","lat":"22.288101","long":"114.150185"},{"id":"FFB52BC25F0AB482","name":"中環街市 (CW142)","lat":"22.285139","long":"114.155364"},{"id":"3D880BF3426C8C0B","name":"遮打道 (CW150)","lat":"22.281504","long":"114.159985"},{"id":"3FCC00D1D01ACD28","name":"金鐘站 (B1) (CW166)","lat":"22.278410","long":"114.164530"},{"id":"3E63535258CAA9BB","name":"入境事務大樓 (WC201)","lat":"22.279529","long":"114.172673"},{"id":"D27B34CA3854232D","name":"香港會議展覽中心 (WC190)","lat":"22.281387","long":"114.174153"}],"routeId":"900X","description":"正常班次"}]