[{"company":"kmb","route":"905A","routeType":"1","dir":"O","orig":"會展站","dest":"荔枝角","stopList":[{"id":"8FC6D695940F0933","name":"會展站巴士總站","lat":"22.281720","long":"114.175330"},{"id":"68139B105CBE1812","name":"菲林明道","lat":"22.277574","long":"114.174072"},{"id":"3B984EDD1277F1A9","name":"盧押道","lat":"22.277438","long":"114.171169"},{"id":"64A04DC2ADEE57E6","name":"高等法院","lat":"22.278428","long":"114.163825"},{"id":"B1DE024B06DE2EC7","name":"中銀大廈","lat":"22.279474","long":"114.162208"},{"id":"74EE2ECB1A3773E9","name":"利源東街","lat":"22.283072","long":"114.156844"},{"id":"C0B3CCF700EDA89C","name":"中環街市","lat":"22.284818","long":"114.155374"},{"id":"8ED2EBBD73781C58","name":"文華里","lat":"22.286277","long":"114.152667"},{"id":"0AB51B6742BD37E4","name":"西港城","lat":"22.287687","long":"114.149886"},{"id":"0F3CD50DC7D4F385","name":"皇后街","lat":"22.287577","long":"114.146890"},{"id":"1749ED5AAA821C85","name":"高陞街","lat":"22.287689","long":"114.145457"},{"id":"A72EB7FC6BB34E40","name":"正街","lat":"22.287818","long":"114.141681"},{"id":"B6606A91B6DE64E3","name":"水街","lat":"22.287136","long":"114.138029"},{"id":"07E603DFCBEAEA77","name":"山道","lat":"22.286586","long":"114.136037"},{"id":"7C99CFD0D8908BE7","name":"西隧轉車站 (YT601)","lat":"22.304637","long":"114.158912"},{"id":"7FC13D26792F63F9","name":"浪澄灣 (MK150)","lat":"22.318816","long":"114.156667"},{"id":"1E88575F644EF7D4","name":"西九龍法院大樓 (SS675)","lat":"22.330595","long":"114.153861"},{"id":"A8762A74241E8027","name":"麗閣邨 (SS680)","lat":"22.333118","long":"114.155983"},{"id":"0BADB28A19C2E0BE","name":"貿易廣場 (SS228)","lat":"22.336740","long":"114.154311"},{"id":"A1AA846971415968","name":"長沙灣徑 (SS234)","lat":"22.338091","long":"114.150935"},{"id":"6188A6666E298598","name":"長沙灣長荔街 (SS246a)","lat":"22.336684","long":"114.146749"},{"id":"70349D91EC82AFE1","name":"美孚轉車站 (SS318)","lat":"22.336449","long":"114.141577"},{"id":"E35B5F1B80E085E6","name":"蘭秀道 (SS270)","lat":"22.338565","long":"114.140480"},{"id":"EBEF10F95443B217","name":"荔灣道　 (SS271)","lat":"22.339842","long":"114.139735"},{"id":"2F8E1900654BF56C","name":"荔枝角巴士總站 (SS982)","lat":"22.341505","long":"114.136834"}],"routeId":"905A","description":"正常班次"},{"company":"ctb","route":"905A","routeType":null,"dir":"O","orig":"會展站","dest":"荔枝角","stopList":[{"id":"003415","name":"會展站","lat":"22.281692","long":"114.175846"},{"id":"002445","name":"菲林明道, 軒尼詩道","lat":"22.277602","long":"114.174072"},{"id":"002447","name":"盧押道, 軒尼詩道","lat":"22.277479","long":"114.171177"},{"id":"001141","name":"金鐘 - 高等法院, 金鐘道","lat":"22.278414","long":"114.163873"},{"id":"001142","name":"中銀大廈, 金鐘道","lat":"22.279480","long":"114.162144"},{"id":"001055","name":"利源東街, 德輔道中","lat":"22.283055","long":"114.156865"},{"id":"001056","name":"中環街市, 德輔道中","lat":"22.284855","long":"114.155394"},{"id":"001058","name":"文華里, 德輔道中","lat":"22.286446","long":"114.152190"},{"id":"001040","name":"西港城, 干諾道西","lat":"22.287711","long":"114.149801"},{"id":"001066","name":"皇后街, 德輔道西","lat":"22.287618","long":"114.146860"},{"id":"001067","name":"高陞街, 德輔道西","lat":"22.287747","long":"114.145416"},{"id":"001068","name":"正街, 德輔道西","lat":"22.287879","long":"114.141618"},{"id":"001069","name":"水街, 德輔道西","lat":"22.287187","long":"114.138064"},{"id":"001070","name":"山道, 德輔道西","lat":"22.286628","long":"114.136075"},{"id":"001628","name":"西區海底隧道巴士轉乘站","lat":"22.305020","long":"114.159204"},{"id":"001707","name":"浪澄灣, 海輝道","lat":"22.318815","long":"114.156644"},{"id":"003518","name":"西九龍法院大樓, 東京街西","lat":"22.330444","long":"114.153687"},{"id":"002595","name":"麗閣邨, 東京街","lat":"22.333070","long":"114.155954"},{"id":"001687","name":"貿易廣場, 長沙灣道","lat":"22.336862","long":"114.154204"},{"id":"002885","name":"長沙灣徑, 長沙灣道","lat":"22.338083","long":"114.150724"},{"id":"001434","name":"長荔街, 長沙灣道","lat":"22.336811","long":"114.147076"},{"id":"001517","name":"美孚, 荔枝角道","lat":"22.336504","long":"114.141143"},{"id":"002852","name":"蘭秀道, 美荔道","lat":"22.338600","long":"114.140542"},{"id":"002853","name":"荔灣道, 美荔道","lat":"22.339781","long":"114.139684"},{"id":"002847","name":"荔枝角","lat":"22.341509","long":"114.137156"}],"routeId":"905A","description":"正常班次"}]