[{"company":"kmb","route":"905A","routeType":"1","dir":"O","orig":"會展站","dest":"荔枝角","stopList":[{"id":"8FC6D695940F0933","name":"會展站巴士總站","lat":"22.281720","long":"114.175330"},{"id":"68139B105CBE1812","name":"菲林明道","lat":"22.277574","long":"114.174072"},{"id":"3B984EDD1277F1A9","name":"盧押道","lat":"22.277438","long":"114.171169"},{"id":"64A04DC2ADEE57E6","name":"高等法院","lat":"22.278428","long":"114.163825"},{"id":"B1DE024B06DE2EC7","name":"中銀大廈","lat":"22.279474","long":"114.162208"},{"id":"74EE2ECB1A3773E9","name":"利源東街","lat":"22.283072","long":"114.156844"},{"id":"C0B3CCF700EDA89C","name":"中環街市","lat":"22.284818","long":"114.155374"},{"id":"8ED2EBBD73781C58","name":"文華里","lat":"22.286277","long":"114.152667"},{"id":"0AB51B6742BD37E4","name":"西港城","lat":"22.287687","long":"114.149886"},{"id":"0F3CD50DC7D4F385","name":"皇后街","lat":"22.287577","long":"114.146890"},{"id":"1749ED5AAA821C85","name":"高陞街","lat":"22.287689","long":"114.145457"},{"id":"A72EB7FC6BB34E40","name":"正街","lat":"22.287818","long":"114.141681"},{"id":"B6606A91B6DE64E3","name":"水街","lat":"22.287136","long":"114.138029"},{"id":"07E603DFCBEAEA77","name":"山道","lat":"22.286586","long":"114.136037"},{"id":"7C99CFD0D8908BE7","name":"西隧轉車站 (B3) (YT601)","lat":"22.304637","long":"114.158912"},{"id":"7FC13D26792F63F9","name":"浪澄灣 (MK150)","lat":"22.318816","long":"114.156667"},{"id":"1E88575F644EF7D4","name":"西九龍法院大樓 (SS675)","lat":"22.330595","long":"114.153861"},{"id":"A8762A74241E8027","name":"麗閣邨 (SS680)","lat":"22.333118","long":"114.155983"},{"id":"0BADB28A19C2E0BE","name":"貿易廣場 (SS228)","lat":"22.336740","long":"114.154311"},{"id":"A1AA846971415968","name":"長沙灣徑 (SS234)","lat":"22.338091","long":"114.150935"},{"id":"6762DEA1B89E6354","name":"長沙灣長荔街 (SS246)","lat":"22.336786","long":"114.147023"},{"id":"70349D91EC82AFE1","name":"美孚轉車站 (SS318)","lat":"22.336449","long":"114.141577"},{"id":"E35B5F1B80E085E6","name":"蘭秀道 (SS270)","lat":"22.338565","long":"114.140480"},{"id":"EBEF10F95443B217","name":"荔灣道　 (SS271)","lat":"22.339842","long":"114.139735"},{"id":"2F8E1900654BF56C","name":"荔枝角巴士總站 (SS982)","lat":"22.341505","long":"114.136834"}],"routeId":"905A","description":"正常班次"},{"company":"ctb","route":"905A","routeType":null,"dir":"O","orig":"會展站","dest":"荔枝角","stopList":[{"id":"003415","name":"會展站","lat":"22.281692412091","long":"114.17584606053"},{"id":"002445","name":"菲林明道, 軒尼詩道","lat":"22.277602072091","long":"114.17407242053"},{"id":"002447","name":"盧押道, 軒尼詩道","lat":"22.277479362091","long":"114.17117721053"},{"id":"001141","name":"金鐘 - 高等法院, 金鐘道","lat":"22.278413762091","long":"114.16387262053"},{"id":"001142","name":"中銀大廈, 金鐘道","lat":"22.279480102091","long":"114.16214434053"},{"id":"001055","name":"利源東街, 德輔道中","lat":"22.283055002091","long":"114.15686516053"},{"id":"001056","name":"中環街市, 德輔道中","lat":"22.284855172091","long":"114.15539392053"},{"id":"001058","name":"文華里, 德輔道中","lat":"22.286445542091","long":"114.15219033053"},{"id":"001040","name":"西港城, 干諾道西","lat":"22.287710712091","long":"114.14980124053"},{"id":"001066","name":"皇后街, 德輔道西","lat":"22.287617562091","long":"114.14686036053"},{"id":"001067","name":"高陞街, 德輔道西","lat":"22.287746752091","long":"114.14541645053"},{"id":"001068","name":"正街, 德輔道西","lat":"22.287878642091","long":"114.14161842053"},{"id":"001069","name":"水街, 德輔道西","lat":"22.287186722091","long":"114.13806360053"},{"id":"001070","name":"山道, 德輔道西","lat":"22.286627542091","long":"114.13607459053"},{"id":"001628","name":"西區海底隧道巴士轉乘站","lat":"22.305020162091","long":"114.15920401053"},{"id":"001707","name":"浪澄灣, 海輝道","lat":"22.318815062091","long":"114.15664386053"},{"id":"003518","name":"西九龍法院大樓, 東京街西","lat":"22.330443872091","long":"114.15368717053"},{"id":"002595","name":"麗閣邨, 東京街","lat":"22.333070142091","long":"114.15595360053"},{"id":"001687","name":"貿易廣場, 長沙灣道","lat":"22.336862472091","long":"114.15420404053"},{"id":"002885","name":"長沙灣徑, 長沙灣道","lat":"22.338083142091","long":"114.15072445053"},{"id":"001434","name":"長荔街, 長沙灣道","lat":"22.336849532091","long":"114.14717828053"},{"id":"001517","name":"美孚, 荔枝角道","lat":"22.336503572091","long":"114.14114285053"},{"id":"002852","name":"蘭秀道, 美荔道","lat":"22.338600192091","long":"114.14054234053"},{"id":"002853","name":"荔灣道, 美荔道","lat":"22.339780522091","long":"114.13968433053"},{"id":"002847","name":"荔枝角","lat":"22.341509492091","long":"114.13715589053"}],"routeId":"905A","description":"正常班次"}]