[{"company":"ctb","route":"907B","routeType":null,"dir":"O","orig":"大埔 (廣福球場)","dest":"灣仔 (會議展覽中心)","stopList":[{"id":"003412","name":"廣福球場, 南運路","lat":"22.447610112091","long":"114.17208086053"},{"id":"002054","name":"運頭塘","lat":"22.442110482091","long":"114.16651466053"},{"id":"003323","name":"大埔墟街市, 運頭街","lat":"22.445828402091","long":"114.16698044053"},{"id":"003573","name":"寶鄉街","lat":"22.448246702091","long":"114.16633754053"},{"id":"002019","name":"寶鄉橋,  寶鄉街","lat":"22.449939122091","long":"114.16705568053"},{"id":"003574","name":"林村河畔, 大埔太和路","lat":"22.450957212091","long":"114.16644343053"},{"id":"003244","name":"太和廣場, 寶雅路","lat":"22.450459542091","long":"114.16094631053"},{"id":"001629","name":"西區海底隧道巴士轉乘站","lat":"22.304233652091","long":"114.15979682053"},{"id":"003409","name":"港澳碼頭, 干諾道中","lat":"22.288009492091","long":"114.15024149053"},{"id":"001046","name":"中環街市, 德輔道中","lat":"22.285207892091","long":"114.15517314053"},{"id":"001025","name":"皇后像廣場, 遮打道","lat":"22.281482342091","long":"114.16005494053"},{"id":"001137","name":"金鐘 - 統一中心, 金鐘道","lat":"22.278348592091","long":"114.16493918053"},{"id":"002427","name":"軍器廠街, 軒尼詩道","lat":"22.277848662091","long":"114.16894462053"},{"id":"002432","name":"菲林明道, 軒尼詩道","lat":"22.277753192091","long":"114.17369502053"},{"id":"002565","name":"香港會議展覽中心, 菲林明道","lat":"22.281164532091","long":"114.17420326053"}],"routeId":"907B","description":"正常班次"}]