[{"company":"kmb","route":"91S","routeType":"1","dir":"O","orig":"清水灣","dest":"觀塘","stopList":[{"id":"440AEE375A242B6D","name":"清水灣總站","lat":"22.286983","long":"114.287299"},{"id":"55950D2113A80E72","name":"清水灣第一灘","lat":"22.290759","long":"114.289534"},{"id":"31C7E8E4A4626178","name":"大環頭路","lat":"22.295668","long":"114.291022"},{"id":"F7EE3594526686DB","name":"相思灣","lat":"22.297829","long":"114.289667"},{"id":"80D6E715DA51CA02","name":"兩塊田","lat":"22.301361","long":"114.286271"},{"id":"225FBE9D52AD0ED2","name":"下洋","lat":"22.304077","long":"114.285326"},{"id":"2A62A6244F598604","name":"上洋","lat":"22.309901","long":"114.284423"},{"id":"0CF0429A4BEE8F4C","name":"檳榔灣","lat":"22.311956","long":"114.283372"},{"id":"F937BECF8C53EEF3","name":"五塊田","lat":"22.316245","long":"114.281998"},{"id":"EA5AF653CB5975F8","name":"孟公屋","lat":"22.315362","long":"114.277676"},{"id":"7BFE214AF3036D86","name":"碧沙路","lat":"22.317713","long":"114.274155"},{"id":"5B4EE863B18FED7D","name":"銀線灣廣場","lat":"22.320726","long":"114.271200"},{"id":"8353D95EF9733231","name":"坑口道","lat":"22.322030","long":"114.269685"},{"id":"511D1F0A4F2B25C0","name":"水邊村","lat":"22.321881","long":"114.269060"},{"id":"C9E33E7E7EDAA459","name":"半見村","lat":"22.317092","long":"114.270832"},{"id":"76AA75F4BF183FB3","name":"明德邨","lat":"22.317372","long":"114.268995"},{"id":"9B0382206D441221","name":"重華路","lat":"22.316957","long":"114.265927"},{"id":"5BE08E5DCD826740","name":"坑口站","lat":"22.315863","long":"114.264333"},{"id":"ECD84D5B8C52642B","name":"厚德邨","lat":"22.319144","long":"114.264207"},{"id":"6A01E709D806A5D6","name":"頌明苑","lat":"22.318018","long":"114.262157"},{"id":"E0BAA3364D0CE860","name":"將軍澳隧道轉車站 (G2)","lat":"22.315426","long":"114.240619"},{"id":"CB341BEEABF66D6E","name":"觀塘站 (E3)","lat":"22.311151","long":"114.227669"},{"id":"0306B53F46955E3E","name":"觀塘轉車站 - 創紀之城 (B3)","lat":"22.314286","long":"114.220838"},{"id":"3F9AE21DC3A540B9","name":"牛頭角站 (V1)","lat":"22.314739","long":"114.220539"},{"id":"5FD7848A339751B6","name":"觀塘轉車站 - 觀塘市中心 (T4)","lat":"22.313239","long":"114.224419"}],"routeId":"91S","description":"正常班次"}]