[{"company":"kmb","route":"91S","routeType":"1","dir":"O","orig":"清水灣","dest":"將軍澳隧道轉車站","stopList":[{"id":"440AEE375A242B6D","name":"清水灣總站","lat":"22.286983","long":"114.287299"},{"id":"55950D2113A80E72","name":"清水灣第一灘","lat":"22.290759","long":"114.289534"},{"id":"31C7E8E4A4626178","name":"大環頭路","lat":"22.295668","long":"114.291022"},{"id":"F7EE3594526686DB","name":"相思灣","lat":"22.297829","long":"114.289667"},{"id":"80D6E715DA51CA02","name":"兩塊田","lat":"22.301361","long":"114.286271"},{"id":"225FBE9D52AD0ED2","name":"下洋","lat":"22.304077","long":"114.285326"},{"id":"2A62A6244F598604","name":"上洋","lat":"22.309901","long":"114.284423"},{"id":"0CF0429A4BEE8F4C","name":"檳榔灣","lat":"22.311956","long":"114.283372"},{"id":"F937BECF8C53EEF3","name":"五塊田","lat":"22.316245","long":"114.281998"},{"id":"EA5AF653CB5975F8","name":"孟公屋","lat":"22.315362","long":"114.277676"},{"id":"7BFE214AF3036D86","name":"碧沙路","lat":"22.317713","long":"114.274155"},{"id":"5B4EE863B18FED7D","name":"銀線灣廣場","lat":"22.320726","long":"114.271200"},{"id":"8353D95EF9733231","name":"坑口道","lat":"22.322030","long":"114.269685"},{"id":"511D1F0A4F2B25C0","name":"水邊村","lat":"22.321881","long":"114.269060"},{"id":"C9E33E7E7EDAA459","name":"半見村","lat":"22.317092","long":"114.270832"},{"id":"0F283CD99F7295F3","name":"坑口站","lat":"22.315311","long":"114.264905"},{"id":"D5E1A3D34328F867","name":"厚德邨","lat":"22.319132","long":"114.264392"},{"id":"6A01E709D806A5D6","name":"頌明苑","lat":"22.318018","long":"114.262157"},{"id":"9762FC524B26C4A7","name":"將軍澳隧道轉車站 (G1)","lat":"22.315362","long":"114.240526"}],"routeId":"91S","description":"正常班次"}]