[{"company":"kmb","route":"92","routeType":"1","dir":"O","orig":"西貢","dest":"鑽石山站","stopList":[{"id":"F4CE5E8FCC1B2F59","name":"西貢巴士總站 (SK902)","lat":"22.381951","long":"114.274021"},{"id":"60E02B7ACBBB80E8","name":"西貢大會堂 (SK450)","lat":"22.383129","long":"114.271006"},{"id":"3CF260D7083B411D","name":"翠塘花園 (SK451)","lat":"22.380818","long":"114.268837"},{"id":"9458BE33A2B7B934","name":"菠蘿輋 (SK452)","lat":"22.378650","long":"114.265631"},{"id":"CB4F0A350A26D033","name":"北港 (SK453)","lat":"22.375032","long":"114.261768"},{"id":"1741D103CB826E93","name":"大涌口 (SK454)","lat":"22.372007","long":"114.260106"},{"id":"4823D6EFB3722E64","name":"白沙臺 (SK455)","lat":"22.367542","long":"114.260133"},{"id":"5089C69E080B7A43","name":"白沙灣 (SK456)","lat":"22.364778","long":"114.259413"},{"id":"1CEB9D13E7279ADA","name":"漁民新村 (SK457)","lat":"22.361822","long":"114.256979"},{"id":"23DC6B90DC9515D9","name":"北圍 (SK458)","lat":"22.359761","long":"114.252464"},{"id":"E4C26E79F0D6DC5E","name":"匡湖居 (SK459)","lat":"22.355879","long":"114.251599"},{"id":"0572B9F0B640DB10","name":"南邊圍 (SK460)","lat":"22.354330","long":"114.250293"},{"id":"F93E38FD194A9C6C","name":"響鐘村 (SK461)","lat":"22.351923","long":"114.251497"},{"id":"BE81792B3E788D41","name":"窩美 (SK462)","lat":"22.351305","long":"114.252799"},{"id":"E03DE379E28F63D8","name":"南圍 (SK463)","lat":"22.351991","long":"114.253521"},{"id":"B563C75938584FDA","name":"鄭植之中學 (SK470)","lat":"22.342260","long":"114.257688"},{"id":"86DF43320DF0F596","name":"打鼓嶺新村 (SK504)","lat":"22.343234","long":"114.251518"},{"id":"36F2D783428B6307","name":"壁屋 (SK505)","lat":"22.339393","long":"114.246378"},{"id":"EBA1C02EA9906C96","name":"白石窩 (SK506)","lat":"22.335838","long":"114.241970"},{"id":"47B8E78BAB4FEB5D","name":"井欄樹 (SK507)","lat":"22.333682","long":"114.236925"},{"id":"0BE9DE9BA299E126","name":"龍窩村　　　 (SK508)","lat":"22.333235","long":"114.235120"},{"id":"4D55F6240E2AAFB8","name":"安達臣道 (SK509)","lat":"22.334318","long":"114.230979"},{"id":"C58FCEE9339E5319","name":"德望學校 (WT610)","lat":"22.333864","long":"114.221341"},{"id":"1EF5FAB9266BD6C8","name":"彩雲邨 (WT987)","lat":"22.333471","long":"114.214923"},{"id":"5D77A5CBE41F2984","name":"牛池灣轉車站 - 彩虹站 (K2)","lat":"22.334080","long":"114.210004"},{"id":"18F3C20116BFE83D","name":"牛池灣轉車站 - 紅萼樓 (H3)","lat":"22.336926","long":"114.206219"},{"id":"332F374B6CB17C57","name":"彩虹轉車站 - 錦雲樓 (P2)","lat":"22.337361","long":"114.204768"},{"id":"AFB03B10416E2199","name":"志蓮淨苑 (WT131)","lat":"22.339894","long":"114.204371"},{"id":"10B8C166D8E60F65","name":"鑽石山站巴士總站 (WT962)","lat":"22.340895","long":"114.201502"}],"routeId":"92","description":"正常班次"},{"company":"kmb","route":"92","routeType":"2","dir":"O","orig":"西貢","dest":"鑽石山站","stopList":[{"id":"F4CE5E8FCC1B2F59","name":"西貢巴士總站 (SK902)","lat":"22.381951","long":"114.274021"},{"id":"60E02B7ACBBB80E8","name":"西貢大會堂 (SK450)","lat":"22.383129","long":"114.271006"},{"id":"5089C69E080B7A43","name":"白沙灣 (SK456)","lat":"22.364778","long":"114.259413"},{"id":"E4C26E79F0D6DC5E","name":"匡湖居 (SK459)","lat":"22.355879","long":"114.251599"},{"id":"5D77A5CBE41F2984","name":"牛池灣轉車站 - 彩虹站 (K2)","lat":"22.334080","long":"114.210004"},{"id":"18F3C20116BFE83D","name":"牛池灣轉車站 - 紅萼樓 (H3)","lat":"22.336926","long":"114.206219"},{"id":"10B8C166D8E60F65","name":"鑽石山站巴士總站 (WT962)","lat":"22.340895","long":"114.201502"}],"routeId":"92","description":"特別班次"},{"company":"kmb","route":"92","routeType":"1","dir":"I","orig":"鑽石山站","dest":"西貢","stopList":[{"id":"10B8C166D8E60F65","name":"鑽石山站巴士總站 (WT962)","lat":"22.340895","long":"114.201502"},{"id":"951CE3B3EB98BA3A","name":"志蓮淨苑 (WT410)","lat":"22.340105","long":"114.204311"},{"id":"87825C8E4FE99CD8","name":"彩虹轉車站 - 碧海樓 (M2)","lat":"22.335857","long":"114.204713"},{"id":"38021D9E2840F8CC","name":"牛池灣轉車站 - 牛池灣村 (G4)","lat":"22.335535","long":"114.207944"},{"id":"942E95B4336BDFA7","name":"白虹樓 (WT230)","lat":"22.332599","long":"114.215269"},{"id":"7AEA492D148C9ECD","name":"基順學校","lat":"22.332927","long":"114.222500"},{"id":"927CE95D5C98C195","name":"順利消防局 (KT184)","lat":"22.331694","long":"114.222567"},{"id":"7349A9FC61580972","name":"德望學校 (KT237)","lat":"22.333899","long":"114.222286"},{"id":"B9F5BB33A96E53FF","name":"安達臣道 (SK100)","lat":"22.334690","long":"114.230493"},{"id":"ECD1295E23CF491B","name":"騰龍台 (SK101)","lat":"22.333420","long":"114.235477"},{"id":"8761A61C8F422D4D","name":"井欄樹 (SK102)","lat":"22.334146","long":"114.237430"},{"id":"6D582F3C571E5E9C","name":"白石窩 (SK103)","lat":"22.337200","long":"114.242756"},{"id":"427116D2E76AFFFD","name":"壁屋 (SK104)","lat":"22.340031","long":"114.246806"},{"id":"4568080E28FB1E56","name":"打鼓嶺新村 (SK105)","lat":"22.343840","long":"114.254085"},{"id":"7F958A00CD28D2AD","name":"鄭植之中學 (SK140)","lat":"22.342266","long":"114.257079"},{"id":"03134CEBBD692D21","name":"窩美 (SK141)","lat":"22.351649","long":"114.251796"},{"id":"914D0783CAF2B89A","name":"南邊圍 (SK142)","lat":"22.353136","long":"114.249536"},{"id":"A780214C3EB5640A","name":"蠔涌 (SK143)","lat":"22.355744","long":"114.251523"},{"id":"DA3DC3BE73A6CF8E","name":"北圍 (SK144)","lat":"22.360488","long":"114.254262"},{"id":"50C17CB06B7A0B2B","name":"漁民新村 (SK145)","lat":"22.361976","long":"114.257002"},{"id":"90AC6FE5BBD1428A","name":"白沙灣 (SK146)","lat":"22.365131","long":"114.259473"},{"id":"37A4437BB427891D","name":"白沙臺 (SK147)","lat":"22.368477","long":"114.259890"},{"id":"0E9E4997C2B89CA9","name":"大涌口 (SK148)","lat":"22.372108","long":"114.260011"},{"id":"55550BED65A18A13","name":"北港 (SK149)","lat":"22.375538","long":"114.262252"},{"id":"38D3C2983AC9D261","name":"菠蘿輋 (SK150)","lat":"22.378701","long":"114.265580"},{"id":"1B539DE1162FFA1D","name":"翠塘花園 (SK151)","lat":"22.380661","long":"114.268361"},{"id":"745DA7ECAF6C9247","name":"西貢大會堂 (SK152)","lat":"22.382202","long":"114.270847"},{"id":"23B5C67999C778E0","name":"西貢警署 (SK160)","lat":"22.383127","long":"114.272113"},{"id":"F4CE5E8FCC1B2F59","name":"西貢巴士總站 (SK902)","lat":"22.381951","long":"114.274021"}],"routeId":"92","description":"正常班次"},{"company":"kmb","route":"92","routeType":"2","dir":"I","orig":"鑽石山站","dest":"西貢","stopList":[{"id":"10B8C166D8E60F65","name":"鑽石山站巴士總站 (WT962)","lat":"22.340895","long":"114.201502"},{"id":"38021D9E2840F8CC","name":"牛池灣轉車站 - 牛池灣村 (G4)","lat":"22.335535","long":"114.207944"},{"id":"4568080E28FB1E56","name":"打鼓嶺新村 (SK105)","lat":"22.343840","long":"114.254085"},{"id":"03134CEBBD692D21","name":"窩美 (SK141)","lat":"22.351649","long":"114.251796"},{"id":"A780214C3EB5640A","name":"蠔涌 (SK143)","lat":"22.355744","long":"114.251523"},{"id":"90AC6FE5BBD1428A","name":"白沙灣 (SK146)","lat":"22.365131","long":"114.259473"},{"id":"745DA7ECAF6C9247","name":"西貢大會堂 (SK152)","lat":"22.382202","long":"114.270847"},{"id":"23B5C67999C778E0","name":"西貢警署 (SK160)","lat":"22.383127","long":"114.272113"},{"id":"F4CE5E8FCC1B2F59","name":"西貢巴士總站 (SK902)","lat":"22.381951","long":"114.274021"}],"routeId":"92","description":"特別班次"}]