[{"company":"ctb","route":"930","routeType":null,"dir":"I","orig":"會展站","dest":"荃灣 (愉景新城／荃灣西站)","stopList":[{"id":"003415","name":"會展站","lat":"22.281692","long":"114.175846"},{"id":"002446","name":"修頓球場, 軒尼詩道","lat":"22.277433","long":"114.171879"},{"id":"002449","name":"晏頓街, 軒尼詩道","lat":"22.277666","long":"114.168839"},{"id":"001140","name":"金鐘 - 太古廣場, 金鐘道","lat":"22.278071","long":"114.164867"},{"id":"001142","name":"中銀大廈, 金鐘道","lat":"22.279480","long":"114.162144"},{"id":"001055","name":"利源東街, 德輔道中","lat":"22.283055","long":"114.156865"},{"id":"001056","name":"中環街市, 德輔道中","lat":"22.284855","long":"114.155394"},{"id":"001038","name":"永安中心, 干諾道中","lat":"22.286883","long":"114.153183"},{"id":"001193","name":"皇后街, 干諾道西","lat":"22.288404","long":"114.147345"},{"id":"001628","name":"西區海底隧道巴士轉乘站","lat":"22.305020","long":"114.159204"},{"id":"001929","name":"葵涌廣場, 葵富路","lat":"22.358479","long":"114.127762"},{"id":"001921","name":"智芳街, 興芳路","lat":"22.359333","long":"114.127778"},{"id":"001918","name":"林士德體育館, 興芳路","lat":"22.361036","long":"114.129571"},{"id":"001974","name":"葵康苑, 大窩口道","lat":"22.363199","long":"114.130519"},{"id":"001975","name":"葵涌邨夏葵樓, 大窩口道","lat":"22.366280","long":"114.131101"},{"id":"001976","name":"葵涌邨秋葵樓, 大窩口道","lat":"22.368083","long":"114.130291"},{"id":"002057","name":"葵馥苑, 大窩口道","lat":"22.367132","long":"114.129064"},{"id":"001977","name":"葵涌邨茵葵樓, 大窩口道","lat":"22.366950","long":"114.127086"},{"id":"001978","name":"大窩口邨富華樓, 大窩口道","lat":"22.366137","long":"114.125173"},{"id":"001979","name":"大窩口邨富安樓, 大窩口道","lat":"22.367525","long":"114.124556"},{"id":"001987","name":"荃富街, 德士古道","lat":"22.368122","long":"114.122247"},{"id":"001955","name":"尚翠苑, 沙咀道","lat":"22.367520","long":"114.120522"},{"id":"001956","name":"寶石大廈, 沙咀道","lat":"22.368900","long":"114.118000"},{"id":"001957","name":"戴麟趾夫人診療所, 沙咀道","lat":"22.370364","long":"114.115376"},{"id":"003341","name":"祈德尊新邨, 大涌道","lat":"22.371589","long":"114.109923"},{"id":"003340","name":"荃灣 (愉景新城)","lat":"22.377590","long":"114.111300"},{"id":"001969","name":"荃灣西站","lat":"22.367638","long":"114.110862"}],"routeId":"930","description":"正常班次"},{"company":"ctb","route":"930","routeType":null,"dir":"O","orig":"荃灣 (愉景新城／荃灣西站)","dest":"會展站","stopList":[{"id":"001969","name":"荃灣西站","lat":"22.367638","long":"114.110862"},{"id":"003277","name":"楊屋道街市, 楊屋道","lat":"22.368739","long":"114.114468"},{"id":"003448","name":"聯仁街","lat":"22.367548","long":"114.117269"},{"id":"001960","name":"名逸居, 沙咀道","lat":"22.367641","long":"114.120694"},{"id":"001980","name":"大窩口邨富安樓, 大窩口道","lat":"22.367873","long":"114.124330"},{"id":"001981","name":"大窩口邨富貴樓, 大窩口道","lat":"22.366899","long":"114.125039"},{"id":"002056","name":"葵涌邨曉葵樓, 上角街","lat":"22.368212","long":"114.127388"},{"id":"001983","name":"葵涌邨秋葵樓, 大窩口道","lat":"22.368257","long":"114.130402"},{"id":"001984","name":"新葵興花園, 大窩口道","lat":"22.363617","long":"114.130702"},{"id":"001919","name":"葵芳邨葵信樓, 興芳路","lat":"22.361037","long":"114.129755"},{"id":"001920","name":"新都會廣場, 興芳路","lat":"22.357682","long":"114.125961"},{"id":"001629","name":"西區海底隧道巴士轉乘站","lat":"22.304234","long":"114.159797"},{"id":"003253","name":"西消防街, 干諾道西","lat":"22.288830","long":"114.145863"},{"id":"001028","name":"港澳碼頭, 干諾道中","lat":"22.287715","long":"114.151337"},{"id":"001029","name":"海港政府大樓, 統一碼頭道","lat":"22.286703","long":"114.155358"},{"id":"001030","name":"怡和大廈, 干諾道中","lat":"22.282619","long":"114.159299"},{"id":"003845","name":"金鐘 - 金鐘廊, 金鐘道","lat":"22.278485","long":"114.164478"},{"id":"002423","name":"入境事務大樓, 告士打道","lat":"22.279436","long":"114.172703"},{"id":"002568","name":"百德新街, 告士打道","lat":"22.282502","long":"114.185034"},{"id":"003415","name":"會展站","lat":"22.281692","long":"114.175846"}],"routeId":"930","description":"正常班次"}]