[{"company":"ctb","route":"93C","routeType":null,"dir":"O","orig":"鴨脷洲大街／田灣","dest":"堅道","stopList":[{"id":"002299","name":"田灣邨","lat":"22.250655","long":"114.149763"},{"id":"002294","name":"耀中幼教學院, 田灣山道","lat":"22.250299","long":"114.147563"},{"id":"002296","name":"興偉中心, 田灣海旁道","lat":"22.248570","long":"114.147264"},{"id":"002297","name":"香港製冰冰廠及冷庫, 田灣海旁道","lat":"22.248590","long":"114.144430"},{"id":"002372","name":"華貴邨","lat":"22.249877","long":"114.139940"},{"id":"002295","name":"香港製冰冰廠及冷庫, 田灣海旁道","lat":"22.248631","long":"114.144183"},{"id":"002174","name":"鴨脷洲大街","lat":"22.243798","long":"114.153250"},{"id":"002172","name":"利枝道, 鴨脷洲橋道","lat":"22.243306","long":"114.155253"},{"id":"002173","name":"鴨脷洲徑, 鴨脷洲橋道","lat":"22.243627","long":"114.156538"},{"id":"002160","name":"逸港居, 香港仔海傍道","lat":"22.247488","long":"114.159026"},{"id":"002161","name":"香港仔海濱公園, 香港仔海傍道","lat":"22.247000","long":"114.155783"},{"id":"002162","name":"香港仔魚類批發市場, 香港仔海傍道","lat":"22.247980","long":"114.152431"},{"id":"002163","name":"田灣街, 香港仔海傍道","lat":"22.248633","long":"114.148091"},{"id":"002261","name":"華富道, 石排灣道","lat":"22.252557","long":"114.140248"},{"id":"002226","name":"余振強紀念第二中學, 薄扶林道","lat":"22.256090","long":"114.137535"},{"id":"002183","name":"置富徑, 置富道","lat":"22.255735","long":"114.138435"},{"id":"002184","name":"置富花園 1- 7 座, 置富道","lat":"22.255954","long":"114.139746"},{"id":"002185","name":"置富南區廣場, 置富道","lat":"22.257587","long":"114.139384"},{"id":"002187","name":"置富花園網球場, 置富道","lat":"22.259082","long":"114.137545"},{"id":"002227","name":"薄扶林村, 薄扶林道","lat":"22.260643","long":"114.136122"},{"id":"002228","name":"薄扶林水塘道, 薄扶林道","lat":"22.262870","long":"114.134906"},{"id":"002229","name":"嘉林閣, 薄扶林道","lat":"22.264648","long":"114.133285"},{"id":"002230","name":"心光學校, 薄扶林道","lat":"22.267097","long":"114.132139"},{"id":"002231","name":"瑪麗醫院, 薄扶林道","lat":"22.269073","long":"114.130633"},{"id":"002232","name":"香港華人基督教聯會薄扶林道墳場, 薄扶林道","lat":"22.274060","long":"114.129880"},{"id":"001109","name":"摩星嶺道, 薄扶林道","lat":"22.278377","long":"114.130955"},{"id":"001110","name":"富林苑, 薄扶林道","lat":"22.279835","long":"114.131265"},{"id":"001111","name":"蒲飛路, 薄扶林道","lat":"22.282023","long":"114.132233"},{"id":"001112","name":"何東夫人堂, 薄扶林道","lat":"22.283611","long":"114.132960"},{"id":"001188","name":"香港潮商學校, 薄扶林道","lat":"22.283598","long":"114.136061"},{"id":"001006","name":"英皇書院, 般咸道","lat":"22.284272","long":"114.139754"},{"id":"001007","name":"寧養台, 般咸道","lat":"22.284804","long":"114.141177"},{"id":"001008","name":"東邊街, 般咸道","lat":"22.284293","long":"114.143462"},{"id":"001009","name":"高街, 般咸道","lat":"22.284882","long":"114.145753"},{"id":"001010","name":"醫院道, 般咸道","lat":"22.283648","long":"114.147415"},{"id":"001015","name":"樓梯街, 堅道","lat":"22.283116","long":"114.148868"},{"id":"001016","name":"鴨巴甸街, 堅道","lat":"22.282471","long":"114.150740"},{"id":"001017","name":"明愛中心, 堅道","lat":"22.280153","long":"114.153912"}],"routeId":"93C","description":"正常班次"}]