[{"company":"kmb","route":"948A","routeType":"1","dir":"O","orig":"青衣(長安邨)","dest":"銅鑼灣(天后)","stopList":[{"id":"8013D41156BC24BD","name":"青衣轉車站 - 長安總站 (A9)","lat":"22.361600","long":"114.103397"},{"id":"4E870B220826BEE0","name":"楓樹窩體育館","lat":"22.355604","long":"114.102353"},{"id":"5AD2A4D21C226335","name":"青衣邨宜業樓","lat":"22.354345","long":"114.102443"},{"id":"A454170B2B59B587","name":"綠悠雅苑","lat":"22.352641","long":"114.105149"},{"id":"973EBE6A3543C701","name":"翠怡花園","lat":"22.351555","long":"114.107871"},{"id":"AB87BD2749FFEACA","name":"長青邨青梅樓","lat":"22.350044","long":"114.106997"},{"id":"D0BE5E470FE2AD0B","name":"長康邨康富樓","lat":"22.350508","long":"114.105682"},{"id":"67F3E54FF145BA65","name":"長康邨康豐樓","lat":"22.350826","long":"114.101846"},{"id":"F02CE37AD01DF17E","name":"長康邨康祥樓","lat":"22.349964","long":"114.100818"},{"id":"3A9EE9221AB3E27C","name":"青盛苑","lat":"22.348985","long":"114.103555"},{"id":"7192051038B36F08","name":"長青巴士總站","lat":"22.348183","long":"114.106781"},{"id":"1A37A52F97A04C81","name":"長青邨青槐樓","lat":"22.345714","long":"114.107914"},{"id":"CA60760D2303E6D0","name":"長青邨青桃樓","lat":"22.345004","long":"114.109689"},{"id":"466111DE1A3E4656","name":"西隧轉車站 (A2)","lat":"22.304356","long":"114.159916"},{"id":"CE1BEC7176C47D52","name":"港澳碼頭","lat":"22.287684","long":"114.151702"},{"id":"C93D9BCDD63A360F","name":"中區政府碼頭","lat":"22.287398","long":"114.154591"},{"id":"ECA27B00E599556A","name":"中環三號碼頭","lat":"22.287611","long":"114.157218"},{"id":"D0C67A916767F79B","name":"郵政總局","lat":"22.283162","long":"114.159681"},{"id":"04601C2FB7201CAA","name":"力寶中心","lat":"22.279725","long":"114.163177"},{"id":"E74202351AF7F37D","name":"盧押道","lat":"22.277724","long":"114.170967"},{"id":"85D7313CCE53D396","name":"菲林明道","lat":"22.277826","long":"114.173943"},{"id":"36904A9AD2C13B32","name":"史釗域道","lat":"22.278242","long":"114.177343"},{"id":"1F3870BB293E9DAF","name":"灣仔消防局","lat":"22.279815","long":"114.182056"},{"id":"DB3C788ACBB6668D","name":"百德新街","lat":"22.279816","long":"114.186024"},{"id":"DF901EF2F9A46F7B","name":"維多利亞公園","lat":"22.280960","long":"114.189952"},{"id":"6F206EE9D2AF0838","name":"銅鑼灣天后總站","lat":"22.282672","long":"114.191703"}],"routeId":"948A","description":"正常班次"},{"company":"ctb","route":"948A","routeType":null,"dir":"O","orig":"長安邨","dest":"天后站","stopList":[{"id":"003108","name":"長安邨","lat":"22.361614492091","long":"114.10334104053"},{"id":"003109","name":"楓樹窩體育館, 楓樹窩路","lat":"22.355774492091","long":"114.10227707053"},{"id":"003110","name":"青衣邨宜業樓, 楓樹窩路","lat":"22.353930342091","long":"114.10238967053"},{"id":"003111","name":"綠悠雅苑, 楓樹窩路","lat":"22.352617712091","long":"114.10515363053"},{"id":"003112","name":"翠怡花園, 青衣鄉事會路","lat":"22.351573222091","long":"114.10786171053"},{"id":"003113","name":"長青邨青梅樓, 涌美路","lat":"22.350119882091","long":"114.10698398053"},{"id":"003114","name":"長康邨康富樓, 涌美路","lat":"22.350456982091","long":"114.10563934053"},{"id":"003115","name":"長康邨康豐樓, 涌美路","lat":"22.350882442091","long":"114.10184093053"},{"id":"003116","name":"長康邨康祥樓, 涌美路","lat":"22.349880032091","long":"114.10074011053"},{"id":"003117","name":"青盛苑, 青康路","lat":"22.349030072091","long":"114.10343268053"},{"id":"003118","name":"長青邨, 青康路","lat":"22.348155322091","long":"114.10672938053"},{"id":"003119","name":"長青邨青槐樓, 青康路","lat":"22.345828512091","long":"114.10787335053"},{"id":"003138","name":"長青邨青桃樓, 青衣路","lat":"22.345164902091","long":"114.10983153053"},{"id":"001629","name":"西區海底隧道巴士轉乘站","lat":"22.304233652091","long":"114.15979682053"},{"id":"001028","name":"港澳碼頭, 干諾道中","lat":"22.287714882091","long":"114.15133682053"},{"id":"001107","name":"中區政府碼頭, 民光街","lat":"22.287395152091","long":"114.15457705053"},{"id":"001170","name":"中環碼頭 - 愉景灣渡輪, 民光街","lat":"22.287492242091","long":"114.15733493053"},{"id":"001180","name":"郵政總局, 康樂廣場","lat":"22.283258052091","long":"114.15961761053"},{"id":"001174","name":"金鐘 - 力寶中心, 紅棉路","lat":"22.279675002091","long":"114.16307119053"},{"id":"002430","name":"盧押道, 軒尼詩道","lat":"22.277681222091","long":"114.17099800053"},{"id":"002432","name":"菲林明道, 軒尼詩道","lat":"22.277753192091","long":"114.17369502053"},{"id":"002572","name":"史釗域道, 軒尼詩道","lat":"22.278203892091","long":"114.17734192053"},{"id":"002437","name":"灣仔消防局, 軒尼詩道","lat":"22.279686862091","long":"114.18178779053"},{"id":"002574","name":"銅鑼灣 - 百德新街, 怡和街","lat":"22.279778702091","long":"114.18607065053"},{"id":"001213","name":"維多利亞公園, 高士威道","lat":"22.281133262091","long":"114.19006592053"},{"id":"001363","name":"天后站","lat":"22.282838422091","long":"114.19185190053"}],"routeId":"948A","description":"正常班次"}]