[{"company":"ctb","route":"952C","routeType":null,"dir":"I","orig":"太古 (康怡廣場)","dest":"掃管笏","stopList":[{"id":"001365","name":"新威園, 英皇道","lat":"22.285529","long":"114.211081"},{"id":"003251","name":"北角官立小學, 英皇道","lat":"22.288852","long":"114.209668"},{"id":"001275","name":"模範邨, 英皇道","lat":"22.291544","long":"114.207667"},{"id":"001276","name":"健康村, 英皇道","lat":"22.291913","long":"114.206341"},{"id":"001277","name":"健威花園, 英皇道","lat":"22.291810","long":"114.203890"},{"id":"001279","name":"琴行街, 英皇道","lat":"22.291204","long":"114.200959"},{"id":"001281","name":"美麗閣, 英皇道","lat":"22.290568","long":"114.197884"},{"id":"001282","name":"新時代廣場, 英皇道","lat":"22.289910","long":"114.195157"},{"id":"001283","name":"炮台山站, 英皇道","lat":"22.288147","long":"114.193555"},{"id":"001285","name":"清風街天橋, 英皇道","lat":"22.286175","long":"114.193035"},{"id":"001034","name":"砵典乍街, 干諾道中","lat":"22.283588","long":"114.157304"},{"id":"001628","name":"西區海底隧道巴士轉乘站","lat":"22.305020","long":"114.159204"},{"id":"002619","name":"碧堤半島, 青山公路","lat":"22.367523","long":"114.061408"},{"id":"002617","name":"深井村, 青山公路","lat":"22.366902","long":"114.059198"},{"id":"002615","name":"馬灣碼頭, 青山公路","lat":"22.365159","long":"114.056370"},{"id":"002695","name":"浪翠園第三期, 青山公路","lat":"22.363226","long":"114.053381"},{"id":"002612","name":"浪翠園第四期, 青山公路","lat":"22.362442","long":"114.051249"},{"id":"002610","name":"青龍頭村, 青山公路","lat":"22.361060","long":"114.046759"},{"id":"002609","name":"豪景花園, 青山公路","lat":"22.361385","long":"114.044447"},{"id":"003480","name":"豪景花園商場, 青山公路","lat":"22.361078","long":"114.043478"},{"id":"003240","name":"御天峰, 青山公路","lat":"22.358258","long":"114.038469"},{"id":"002607","name":"御海峰, 青山公路","lat":"22.357586","long":"114.036203"},{"id":"002605","name":"嘉龍村, 青山公路","lat":"22.356497","long":"114.033073"},{"id":"003364","name":"屯門公路巴士轉乘站(下層), 青山公路","lat":"22.358448","long":"114.018521"},{"id":"002050","name":"大欖涌, 青山公路","lat":"22.362195","long":"114.019029"},{"id":"002058","name":"小欖, 青山公路","lat":"22.364095","long":"114.015018"},{"id":"001895","name":"澄麗路, 青山公路","lat":"22.365774","long":"114.012340"},{"id":"001896","name":"小欖村, 青山公路","lat":"22.366273","long":"114.009420"},{"id":"001897","name":"小欖新村, 青山公路","lat":"22.366008","long":"114.005485"},{"id":"001898","name":"愛琴灣, 青山公路","lat":"22.366476","long":"114.001644"},{"id":"001899","name":"小秀村, 青山公路","lat":"22.367941","long":"113.999195"},{"id":"001900","name":"龍珠島, 青山公路","lat":"22.368105","long":"113.996144"},{"id":"003488","name":"愛琴海岸, 掃管笏路","lat":"22.371503","long":"113.995328"},{"id":"003489","name":"掃管笏變電站, 掃管笏路","lat":"22.373760","long":"113.996137"},{"id":"003490","name":"星堤, 掃管笏路","lat":"22.375687","long":"113.999792"},{"id":"003542","name":"上源, 掃管笏路","lat":"22.373796","long":"114.002770"},{"id":"003484","name":"掃管笏","lat":"22.372204","long":"114.003537"}],"routeId":"952C","description":"正常班次"},{"company":"ctb","route":"952C","routeType":null,"dir":"O","orig":"掃管笏","dest":"太古 (康怡廣場)","stopList":[{"id":"003484","name":"掃管笏","lat":"22.372204","long":"114.003537"},{"id":"003543","name":"NAPA, 掃管笏路","lat":"22.374301","long":"114.002227"},{"id":"003485","name":"星堤, 掃管笏路","lat":"22.375541","long":"113.999511"},{"id":"003486","name":"管翠路, 掃管笏路","lat":"22.374962","long":"113.997522"},{"id":"003487","name":"愛琴海岸, 掃管笏路","lat":"22.371349","long":"113.995239"},{"id":"001891","name":"嘉和里村, 青山公路","lat":"22.369464","long":"113.995357"},{"id":"001892","name":"小秀村, 青山公路","lat":"22.368121","long":"113.999152"},{"id":"002048","name":"愛琴灣, 青山公路","lat":"22.366255","long":"114.003343"},{"id":"002049","name":"小欖新村, 青山公路","lat":"22.366366","long":"114.006406"},{"id":"001893","name":"小欖村, 青山公路","lat":"22.366296","long":"114.011209"},{"id":"001894","name":"澄麗路, 青山公路","lat":"22.364977","long":"114.013323"},{"id":"003363","name":"屯門公路巴士轉乘站, 青山公路","lat":"22.362674","long":"114.015836"},{"id":"002603","name":"大欖涌, 青山公路","lat":"22.361604","long":"114.019352"},{"id":"002604","name":"嘉龍村, 青山公路","lat":"22.356628","long":"114.032900"},{"id":"002606","name":"御海峰, 青山公路","lat":"22.357896","long":"114.035883"},{"id":"002608","name":"豪景花園, 青山公路","lat":"22.360824","long":"114.042401"},{"id":"002675","name":"青龍頭村, 青山公路","lat":"22.361294","long":"114.046589"},{"id":"002611","name":"浪翠園第四期, 青山公路","lat":"22.362409","long":"114.050892"},{"id":"002613","name":"浪翠園第三期, 青山公路","lat":"22.363730","long":"114.054109"},{"id":"002614","name":"馬灣碼頭, 青山公路","lat":"22.365550","long":"114.056696"},{"id":"002616","name":"深井村, 青山公路","lat":"22.366957","long":"114.059013"},{"id":"002618","name":"海韻花園, 青山公路","lat":"22.367659","long":"114.061834"},{"id":"001629","name":"西區海底隧道巴士轉乘站","lat":"22.304234","long":"114.159797"},{"id":"001248","name":"歌頓道","lat":"22.285721","long":"114.191035"},{"id":"001243","name":"電氣道街市, 電氣道","lat":"22.289384","long":"114.193632"},{"id":"001244","name":"城市花園, 電氣道","lat":"22.290835","long":"114.194913"},{"id":"001254","name":"北角道, 渣華道","lat":"22.291788","long":"114.197244"},{"id":"001256","name":"琴行街, 渣華道","lat":"22.292466","long":"114.200737"},{"id":"001257","name":"電照街, 渣華道","lat":"22.292829","long":"114.202507"},{"id":"001258","name":"北角消防局, 渣華道","lat":"22.292127","long":"114.207819"},{"id":"001267","name":"北角官立小學, 英皇道","lat":"22.288826","long":"114.209867"},{"id":"001268","name":"新威園, 英皇道","lat":"22.285544","long":"114.211338"},{"id":"001393","name":"船塢里, 英皇道","lat":"22.284774","long":"114.214208"},{"id":"001287","name":"康怡廣場, 康山道","lat":"22.284744","long":"114.216176"}],"routeId":"952C","description":"正常班次"}]