[{"company":"ctb","route":"952C","routeType":null,"dir":"I","orig":"太古 (康怡廣場)","dest":"掃管笏","stopList":[{"id":"001365","name":"新威園, 英皇道","lat":"22.285529212091","long":"114.21108139053"},{"id":"003251","name":"北角官立小學, 英皇道","lat":"22.288852392091","long":"114.20966772053"},{"id":"001275","name":"模範邨, 英皇道","lat":"22.291544482091","long":"114.20766679053"},{"id":"001276","name":"健康村, 英皇道","lat":"22.291912702091","long":"114.20634072053"},{"id":"001277","name":"健威花園, 英皇道","lat":"22.291810122091","long":"114.20389006053"},{"id":"001279","name":"琴行街, 英皇道","lat":"22.291204122091","long":"114.20095851053"},{"id":"001281","name":"美麗閣, 英皇道","lat":"22.290567652091","long":"114.19788360053"},{"id":"001282","name":"新時代廣場, 英皇道","lat":"22.289909792091","long":"114.19515688053"},{"id":"001283","name":"炮台山站, 英皇道","lat":"22.288146742091","long":"114.19355472053"},{"id":"001285","name":"清風街天橋, 英皇道","lat":"22.286174722091","long":"114.19303544053"},{"id":"001034","name":"砵典乍街, 干諾道中","lat":"22.283587582091","long":"114.15730419053"},{"id":"001628","name":"西區海底隧道巴士轉乘站","lat":"22.305020162091","long":"114.15920401053"},{"id":"002619","name":"碧堤半島, 青山公路","lat":"22.367522862091","long":"114.06140785053"},{"id":"002617","name":"深井村, 青山公路","lat":"22.366901972091","long":"114.05919759053"},{"id":"002615","name":"馬灣碼頭, 青山公路","lat":"22.365158862091","long":"114.05637024053"},{"id":"002695","name":"浪翠園第三期, 青山公路","lat":"22.363225892091","long":"114.05338096053"},{"id":"002612","name":"浪翠園第四期, 青山公路","lat":"22.362441612091","long":"114.05124899053"},{"id":"002610","name":"青龍頭村, 青山公路","lat":"22.361060432091","long":"114.04675908053"},{"id":"002609","name":"豪景花園, 青山公路","lat":"22.361384952091","long":"114.04444715053"},{"id":"003480","name":"豪景花園商場, 青山公路","lat":"22.360892212091","long":"114.04304712053"},{"id":"003240","name":"御天峰, 青山公路","lat":"22.358257762091","long":"114.03846851053"},{"id":"002607","name":"御海峰, 青山公路","lat":"22.357585772091","long":"114.03620268053"},{"id":"002605","name":"嘉龍村, 青山公路","lat":"22.356497362091","long":"114.03307313053"},{"id":"003364","name":"屯門公路巴士轉乘站, 青山公路","lat":"22.358447832091","long":"114.01852119053"},{"id":"002050","name":"大欖涌, 青山公路","lat":"22.362195442091","long":"114.01902937053"},{"id":"002058","name":"小欖, 青山公路","lat":"22.364095362091","long":"114.01501818053"},{"id":"001895","name":"澄麗路, 青山公路","lat":"22.365773952091","long":"114.01233950053"},{"id":"001896","name":"小欖村, 青山公路","lat":"22.366273072091","long":"114.00942046053"},{"id":"001897","name":"小欖新村, 青山公路","lat":"22.366007562091","long":"114.00548538053"},{"id":"001898","name":"愛琴灣, 青山公路","lat":"22.366476162091","long":"114.00164388053"},{"id":"001899","name":"小秀村, 青山公路","lat":"22.367940942091","long":"113.99919507053"},{"id":"001900","name":"龍珠島, 青山公路","lat":"22.368105012091","long":"113.99614369053"},{"id":"003488","name":"愛琴海岸, 掃管笏路","lat":"22.371503192091","long":"113.99532767053"},{"id":"003489","name":"掃管笏變電站, 掃管笏路","lat":"22.373760182091","long":"113.99613682053"},{"id":"003490","name":"星堤, 掃管笏路","lat":"22.375686732091","long":"113.99979200053"},{"id":"003542","name":"上源, 掃管笏路","lat":"22.373795842091","long":"114.00277027053"},{"id":"003484","name":"掃管笏","lat":"22.371838802091","long":"114.00360027053"}],"routeId":"952C","description":"正常班次"},{"company":"ctb","route":"952C","routeType":null,"dir":"O","orig":"掃管笏","dest":"太古 (康怡廣場)","stopList":[{"id":"003484","name":"掃管笏","lat":"22.371838802091","long":"114.00360027053"},{"id":"003543","name":"NAPA, 掃管笏路","lat":"22.374301082091","long":"114.00222662053"},{"id":"003485","name":"星堤, 掃管笏路","lat":"22.375540622091","long":"113.99951058053"},{"id":"003486","name":"管翠路, 掃管笏路","lat":"22.374961652091","long":"113.99752248053"},{"id":"003487","name":"愛琴海岸, 掃管笏路","lat":"22.371349122091","long":"113.99523908053"},{"id":"001891","name":"嘉和里村, 青山公路","lat":"22.369464482091","long":"113.99535738053"},{"id":"001892","name":"小秀村, 青山公路","lat":"22.368120842091","long":"113.99915158053"},{"id":"002048","name":"愛琴灣, 青山公路","lat":"22.366255022091","long":"114.00334253053"},{"id":"002049","name":"小欖新村, 青山公路","lat":"22.366366032091","long":"114.00640610053"},{"id":"001893","name":"小欖村, 青山公路","lat":"22.366295772091","long":"114.01120932053"},{"id":"001894","name":"澄麗路, 青山公路","lat":"22.364976592091","long":"114.01332304053"},{"id":"003363","name":"屯門公路巴士轉乘站, 青山公路","lat":"22.362673552091","long":"114.01583572053"},{"id":"002603","name":"大欖涌, 青山公路","lat":"22.361604402091","long":"114.01935182053"},{"id":"002604","name":"嘉龍村, 青山公路","lat":"22.356627912091","long":"114.03290027053"},{"id":"002606","name":"御海峰, 青山公路","lat":"22.357895942091","long":"114.03588282053"},{"id":"002608","name":"豪景花園, 青山公路","lat":"22.360824032091","long":"114.04240133053"},{"id":"002675","name":"青龍頭村, 青山公路","lat":"22.361294232091","long":"114.04658913053"},{"id":"002611","name":"浪翠園第四期, 青山公路","lat":"22.362409322091","long":"114.05089234053"},{"id":"002613","name":"浪翠園第三期, 青山公路","lat":"22.363730182091","long":"114.05410907053"},{"id":"002614","name":"馬灣碼頭, 青山公路","lat":"22.365550092091","long":"114.05669550053"},{"id":"002616","name":"深井村, 青山公路","lat":"22.366957312091","long":"114.05901260053"},{"id":"002618","name":"海韻花園, 青山公路","lat":"22.367659062091","long":"114.06183385053"},{"id":"001629","name":"西區海底隧道巴士轉乘站","lat":"22.304233652091","long":"114.15979682053"},{"id":"001248","name":"歌頓道","lat":"22.285721352091","long":"114.19103465053"},{"id":"001243","name":"電氣道街市, 電氣道","lat":"22.289384232091","long":"114.19363237053"},{"id":"001244","name":"城市花園, 電氣道","lat":"22.290834522091","long":"114.19491332053"},{"id":"001254","name":"北角道, 渣華道","lat":"22.291788112091","long":"114.19724449053"},{"id":"001256","name":"琴行街, 渣華道","lat":"22.292465872091","long":"114.20073702053"},{"id":"001257","name":"電照街, 渣華道","lat":"22.292829302091","long":"114.20250688053"},{"id":"001258","name":"北角消防局, 渣華道","lat":"22.292126752091","long":"114.20781923053"},{"id":"001267","name":"北角官立小學, 英皇道","lat":"22.288825782091","long":"114.20986716053"},{"id":"001268","name":"新威園, 英皇道","lat":"22.285544382091","long":"114.21133814053"},{"id":"001393","name":"船塢里, 英皇道","lat":"22.284773752091","long":"114.21420833053"},{"id":"001287","name":"康怡廣場, 康山道","lat":"22.284744092091","long":"114.21617625053"}],"routeId":"952C","description":"正常班次"}]