[{"company":"gmb","route":"95A","routeType":1,"orig":"荃德花園","dest":"荃灣站(循環線)","stopList":[{"id":20016010,"name":"荃德花園","lat":"22.375807","long":"114.106135"},{"id":20016011,"name":"青山公路-荃灣段錦豐園外","lat":"22.375734","long":"114.107856"},{"id":20001872,"name":"青山公路-荃灣段中染大廈外","lat":"22.374962","long":"114.112867"},{"id":20001873,"name":"西樓角路南豐中心對面","lat":"22.374096","long":"114.116480"},{"id":20001877,"name":"青山公路-荃灣段287號外","lat":"22.373382","long":"114.116150"},{"id":20016003,"name":"青山公路-荃灣段413號外","lat":"22.374840","long":"114.112517"},{"id":20016012,"name":"青山公路-荃灣段491-501號外","lat":"22.375392","long":"114.108821"},{"id":20016010,"name":"荃德花園","lat":"22.375807","long":"114.106135"}],"routeId":2008005,"description":"正常班次"}]