[{"company":"kmb","route":"96","routeType":"1","dir":"O","orig":"康盛花園","dest":"大埔工業邨","stopList":[{"id":"D4D418BAEAC719B0","name":"康盛花園巴士總站 (TK902)","lat":"22.318545","long":"114.254011"},{"id":"ABC15E2110BF7A49","name":"康盛花園 (TK200)","lat":"22.319847","long":"114.254072"},{"id":"BC66863007C0592B","name":"翠林邨 (TK202)","lat":"22.323025","long":"114.250283"},{"id":"848CA90EB0DB1146","name":"寶林消防局 (TK203)","lat":"22.326540","long":"114.252091"},{"id":"7486D53F341F1AAC","name":"英明苑 (TK204)","lat":"22.327247","long":"114.256144"},{"id":"FC42DCBDC3AB0B6F","name":"欣景路 新都城 (TK145)","lat":"22.323790","long":"114.258615"},{"id":"22E2678081E88368","name":"景林邨 (TK206)","lat":"22.322301","long":"114.261306"},{"id":"7613538D58A9C452","name":"厚德邨 (TK215)","lat":"22.319436","long":"114.264290"},{"id":"9B0382206D441221","name":"重華路 東港城 (TK232)","lat":"22.316957","long":"114.265927"},{"id":"54FCA9F5D8F3587E","name":"銀澳路 (TK240)","lat":"22.314696","long":"114.266582"},{"id":"711927A9FAEF1158","name":"寶盈花園 (TK560)","lat":"22.307792","long":"114.262428"},{"id":"C9EA7B56F1197D16","name":"將軍澳站 (TK561)","lat":"22.306997","long":"114.260136"},{"id":"B6159AAFFD30E234","name":"將軍澳中心 (TK562)","lat":"22.305988","long":"114.257389"},{"id":"0E8140AF4317BDAE","name":"將藍隧道轉車站(A1) (LT551)","lat":"22.300182","long":"114.230851"},{"id":"81C1875EBC7FD3E4","name":"茶果嶺道 (LT400)","lat":"22.300048","long":"114.228399"},{"id":"9274EF6791CA3ED8","name":"大老山隧道 (B1) (ST113)","lat":"22.376864","long":"114.211807"},{"id":"739A5DDE0CF1970C","name":"馬料水公眾碼頭 (PA100)","lat":"22.415908","long":"114.213778"},{"id":"9E95343C77BB85E2","name":"水上活動中心 (PA104)","lat":"22.420023","long":"114.214250"},{"id":"2D1A8946EF054FC9","name":"香港生物科技研究院 (PA107)","lat":"22.423223","long":"114.213922"},{"id":"DADEC4FDAD7C58B3","name":"科學園(第一期) (PA122)","lat":"22.424247","long":"114.211432"},{"id":"E8F5E085BAEFE100","name":"科研路 (PA124)","lat":"22.426628","long":"114.208027"},{"id":"79FD1B44D37205B8","name":"雲滙 (PA127)","lat":"22.429561","long":"114.203338"},{"id":"369A5601F8A63B5E","name":"白石角 (PA129)","lat":"22.431492","long":"114.201512"},{"id":"A339426A8F633D63","name":"白石角變電站 (PA130)","lat":"22.433895","long":"114.200812"},{"id":"E94AD3FBEF23A842","name":"運頭塘邨運亨樓 (TP200)","lat":"22.442049","long":"114.165224"},{"id":"AF04BB6F5FFF4C45","name":"新達廣場 (TP321)","lat":"22.443407","long":"114.169018"},{"id":"FB5500F0D32629B2","name":"廣福球場 (TP322)","lat":"22.448010","long":"114.171768"},{"id":"55D37B4406A049FB","name":"林村河 (TP324)","lat":"22.449808","long":"114.171721"},{"id":"0A8E2BA2F75E472E","name":"大埔超級城 (TP390)","lat":"22.451004","long":"114.170088"},{"id":"18E4449F4C5CE30B","name":"太和邨亨和樓 (TP392)","lat":"22.452199","long":"114.163197"},{"id":"E796B592A3D045F0","name":"大埔公眾泳池 (TP245)","lat":"22.454643","long":"114.163986"},{"id":"F9C14690633CE7E0","name":"太平工業中心 (TP616)","lat":"22.456967","long":"114.168023"},{"id":"7BCFD79F22F60457","name":"富亨邨 (TP617)","lat":"22.456330","long":"114.170752"},{"id":"32C1F605CAAD7861","name":"怡雅苑 (TP618)","lat":"22.455885","long":"114.173614"},{"id":"DAC33107054B9FED","name":"魚角 (TP619)","lat":"22.458094","long":"114.177443"},{"id":"51D8A415C1DDEB54","name":"鳳園路 (TP620)","lat":"22.459201","long":"114.180350"},{"id":"4705F639E370A9AD","name":"大埔大發街 (TP660)","lat":"22.458615","long":"114.181310"},{"id":"CAB927254C5D8892","name":"大埔大昌街 (TP675)","lat":"22.457166","long":"114.186861"},{"id":"3D8A0FB3051B32EC","name":"大埔工業邨 (TP873)","lat":"22.457662","long":"114.187770"}],"routeId":"96","description":"正常班次"},{"company":"kmb","route":"96","routeType":"2","dir":"O","orig":"將軍澳中心","dest":"大埔工業邨","stopList":[{"id":"B6159AAFFD30E234","name":"將軍澳中心 (TK562)","lat":"22.305988","long":"114.257389"},{"id":"0E8140AF4317BDAE","name":"將藍隧道轉車站(A1) (LT551)","lat":"22.300182","long":"114.230851"},{"id":"81C1875EBC7FD3E4","name":"茶果嶺道 (LT400)","lat":"22.300048","long":"114.228399"},{"id":"9274EF6791CA3ED8","name":"大老山隧道 (B1) (ST113)","lat":"22.376864","long":"114.211807"},{"id":"739A5DDE0CF1970C","name":"馬料水公眾碼頭 (PA100)","lat":"22.415908","long":"114.213778"},{"id":"9E95343C77BB85E2","name":"水上活動中心 (PA104)","lat":"22.420023","long":"114.214250"},{"id":"2D1A8946EF054FC9","name":"香港生物科技研究院 (PA107)","lat":"22.423223","long":"114.213922"},{"id":"DADEC4FDAD7C58B3","name":"科學園(第一期) (PA122)","lat":"22.424247","long":"114.211432"},{"id":"E8F5E085BAEFE100","name":"科研路 (PA124)","lat":"22.426628","long":"114.208027"},{"id":"79FD1B44D37205B8","name":"雲滙 (PA127)","lat":"22.429561","long":"114.203338"},{"id":"369A5601F8A63B5E","name":"白石角 (PA129)","lat":"22.431492","long":"114.201512"},{"id":"A339426A8F633D63","name":"白石角變電站 (PA130)","lat":"22.433895","long":"114.200812"},{"id":"E94AD3FBEF23A842","name":"運頭塘邨運亨樓 (TP200)","lat":"22.442049","long":"114.165224"},{"id":"AF04BB6F5FFF4C45","name":"新達廣場 (TP321)","lat":"22.443407","long":"114.169018"},{"id":"FB5500F0D32629B2","name":"廣福球場 (TP322)","lat":"22.448010","long":"114.171768"},{"id":"55D37B4406A049FB","name":"林村河 (TP324)","lat":"22.449808","long":"114.171721"},{"id":"0A8E2BA2F75E472E","name":"大埔超級城 (TP390)","lat":"22.451004","long":"114.170088"},{"id":"18E4449F4C5CE30B","name":"太和邨亨和樓 (TP392)","lat":"22.452199","long":"114.163197"},{"id":"E796B592A3D045F0","name":"大埔公眾泳池 (TP245)","lat":"22.454643","long":"114.163986"},{"id":"F9C14690633CE7E0","name":"太平工業中心 (TP616)","lat":"22.456967","long":"114.168023"},{"id":"7BCFD79F22F60457","name":"富亨邨 (TP617)","lat":"22.456330","long":"114.170752"},{"id":"32C1F605CAAD7861","name":"怡雅苑 (TP618)","lat":"22.455885","long":"114.173614"},{"id":"DAC33107054B9FED","name":"魚角 (TP619)","lat":"22.458094","long":"114.177443"},{"id":"51D8A415C1DDEB54","name":"鳳園路 (TP620)","lat":"22.459201","long":"114.180350"},{"id":"4705F639E370A9AD","name":"大埔大發街 (TP660)","lat":"22.458615","long":"114.181310"},{"id":"CAB927254C5D8892","name":"大埔大昌街 (TP675)","lat":"22.457166","long":"114.186861"},{"id":"3D8A0FB3051B32EC","name":"大埔工業邨 (TP873)","lat":"22.457662","long":"114.187770"}],"routeId":"96","description":"特別班次"},{"company":"kmb","route":"96","routeType":"1","dir":"I","orig":"大埔工業邨","dest":"康盛花園","stopList":[{"id":"D56873352ED40E14","name":"大埔工業邨 (TP874)","lat":"22.457661","long":"114.187931"},{"id":"BB33B8049C297ADD","name":"大埔大貴街 (TP756)","lat":"22.460760","long":"114.188164"},{"id":"298C08C4E1D1E7BF","name":"大埔工業邨 (TP734)","lat":"22.462070","long":"114.187708"},{"id":"507DA53C608E13A0","name":"下坑 (TP735)","lat":"22.461085","long":"114.184499"},{"id":"916501787D3948F1","name":"大埔大發街 (TP736)","lat":"22.458961","long":"114.180318"},{"id":"4197D80D370042C2","name":"魚角 (TP737)","lat":"22.458106","long":"114.177936"},{"id":"6E1E84A8BAF508AC","name":"救恩書院 (TP738)","lat":"22.456277","long":"114.176509"},{"id":"DB241439B4E2785A","name":"怡雅苑 (TP739)","lat":"22.455545","long":"114.173860"},{"id":"378DA3C43904CFF9","name":"大元邨　 (TP740)","lat":"22.456236","long":"114.170374"},{"id":"9FBD2D7974A0AB50","name":"沐恩中學 (TP741)","lat":"22.456232","long":"114.167196"},{"id":"B09912B0547243D2","name":"翠怡花園 (TP315)","lat":"22.452386","long":"114.163105"},{"id":"512C07C3D131AB5A","name":"大埔超級城 (TP317)","lat":"22.451195","long":"114.169901"},{"id":"597CE200C2824BEE","name":"廣福邨廣智樓 (TP383)","lat":"22.449785","long":"114.171981"},{"id":"7AC279608B65128C","name":"廣福球場 (TP385)","lat":"22.448044","long":"114.172048"},{"id":"403CF34C7A6517DF","name":"運頭塘邨 (TP386)","lat":"22.443221","long":"114.168832"},{"id":"B8973475672F6202","name":"運頭塘邨運亨樓 (TP410)","lat":"22.442272","long":"114.165540"},{"id":"74648B92E0E80E2E","name":"白石角變電站 (PA201)","lat":"22.434893","long":"114.201372"},{"id":"261392BB77CC768D","name":"天賦海灣 (PA203)","lat":"22.431492","long":"114.201558"},{"id":"07AB149DAD888683","name":"雲滙 (PA207)","lat":"22.429805","long":"114.203323"},{"id":"3A7AC3A5F9530786","name":"創新路 (PA210)","lat":"22.428649","long":"114.204981"},{"id":"39E7051B17D302DA","name":"科研路 (PA214)","lat":"22.426442","long":"114.208450"},{"id":"1C6EAAF5F48167F9","name":"科學園(第一期) (PA219)","lat":"22.424272","long":"114.211589"},{"id":"1D1571E9D1588FBE","name":"香港生物科技研究院 (PA231)","lat":"22.422664","long":"114.214179"},{"id":"64101F297D3C1C55","name":"水上活動中心 (PA234)","lat":"22.418662","long":"114.214271"},{"id":"5B39CC28607910E4","name":"馬料水公眾碼頭 (PA237)","lat":"22.416027","long":"114.213945"},{"id":"FFBEBD7068E01EA4","name":"大老山隧道 (A1) (ST792)","lat":"22.377571","long":"114.212260"},{"id":"F282012BBB2865E5","name":"將軍澳中心 (TK120)","lat":"22.306252","long":"114.257182"},{"id":"B550EC84B77440F8","name":"將軍澳站 (TK121)","lat":"22.307111","long":"114.259778"},{"id":"20FDDA894D722F88","name":"將軍澳廣場 (TK122)","lat":"22.308076","long":"114.262359"},{"id":"6C3F6AF77695CAE9","name":"銀澳路 新寶城 (TK390)","lat":"22.314326","long":"114.266633"},{"id":"43C8B0C86DE8805D","name":"培成路 南豐廣場 (TK251)","lat":"22.315198","long":"114.263988"},{"id":"ECD84D5B8C52642B","name":"厚德邨 (TK428)","lat":"22.319144","long":"114.264207"},{"id":"1078119989C67B82","name":"景林邨 (TK435)","lat":"22.322301","long":"114.260993"},{"id":"3047EC57E5BC5FA6","name":"欣景路 新都城 (TK455)","lat":"22.322949","long":"114.259137"},{"id":"544FDBB0FC074ABC","name":"英明苑 (TK444)","lat":"22.327016","long":"114.256218"},{"id":"E86C2ACAFC72D243","name":"寶仁樓 (TK446)","lat":"22.326295","long":"114.252315"},{"id":"3CEDAAAC5071EF7B","name":"翠林邨 (TK449)","lat":"22.321524","long":"114.250355"},{"id":"D4D418BAEAC719B0","name":"康盛花園巴士總站 (TK902)","lat":"22.318545","long":"114.254011"}],"routeId":"96","description":"正常班次"},{"company":"gmb","route":"96","routeType":1,"orig":"荃灣(海壩街)","dest":"青龍頭","stopList":[{"id":20016004,"name":"荃灣(海壩街)","lat":22.371047265349034,"long":114.1171482083503},{"id":20012208,"name":"海貴路公共運輸交匯處","lat":22.36833045955727,"long":114.11067934064323},{"id":20016005,"name":"沙咀道近享成街的停車灣","lat":22.372662944891093,"long":114.11105623914582},{"id":20002085,"name":"沙咀道62號外","lat":22.373398004431845,"long":114.10976088393666},{"id":20009134,"name":"沙咀道6號外","lat":22.374595346989008,"long":114.10774458199741},{"id":20016006,"name":"青龍頭(龍如路)","lat":22.36283511921983,"long":114.04581074457445}],"routeId":2008003,"description":"正常班次"},{"company":"gmb","route":"96","routeType":2,"orig":"青龍頭","dest":"荃灣(海壩街)","stopList":[{"id":20016006,"name":"青龍頭(龍如路)","lat":22.36283511921983,"long":114.04581074457445},{"id":20020495,"name":" 青山公路-青龍頭深井公眾碼頭對面停車處","lat":22.365487638249782,"long":114.05679300427438},{"id":20016009,"name":"沙咀道125號外","lat":22.372744648808823,"long":114.11127219822066},{"id":20012208,"name":"海貴路公共運輸交匯處","lat":22.36833045955727,"long":114.11067934064323},{"id":20016002,"name":"大河道30號外","lat":22.372162344796344,"long":114.11585256457332},{"id":20016004,"name":"荃灣(海壩街)","lat":22.371047265349034,"long":114.1171482083503}],"routeId":2008003,"description":"正常班次"}]