[{"company":"kmb","route":"960C","routeType":"1","dir":"O","orig":"屯門(富泰邨)","dest":"銅鑼灣(維園)","stopList":[{"id":"664C6FCE94BB37FD","name":"富泰邨總站","lat":"22.413073","long":"113.982697"},{"id":"406864EDEB186C9A","name":"聚康山莊","lat":"22.412123","long":"113.983992"},{"id":"B954B8082D1AA9B0","name":"富泰邨","lat":"22.412935","long":"113.982196"},{"id":"E01BD8E1BEC29EA6","name":"五柳路","lat":"22.415511","long":"113.979679"},{"id":"E16D49ECA536ECC6","name":"兆康路","lat":"22.414894","long":"113.977411"},{"id":"F224A907BD68406A","name":"兆康苑兆賢閣","lat":"22.410177","long":"113.976578"},{"id":"4F36FEF121788834","name":"屯門醫院","lat":"22.408729","long":"113.975608"},{"id":"ECE3F3BE270C27E2","name":"寶怡花園","lat":"22.408361","long":"113.968805"},{"id":"594A765BE3A43C73","name":"寶田轉車站 - 盈豐園 (S1)","lat":"22.407770","long":"113.967281"},{"id":"507D90B4B976DBD6","name":"田景邨田樂樓","lat":"22.407591","long":"113.964929"},{"id":"1F6BFDF34BABCE6A","name":"田景邨田裕樓","lat":"22.405482","long":"113.964709"},{"id":"F7BE579A89615965","name":"建生邨樂生樓","lat":"22.405113","long":"113.968859"},{"id":"DD56DC2336C878C1","name":"紅橋 (K1)","lat":"22.402117","long":"113.977486"},{"id":"8121695666A4D9CE","name":"屯門屯仁街","lat":"22.394185","long":"113.977084"},{"id":"C2787E27F82716BF","name":"華都花園","lat":"22.391762","long":"113.977754"},{"id":"376C4835851621D4","name":"屯門公路轉車站 (A15)","lat":"22.362928","long":"114.015522"},{"id":"ACB5FEA2BF9FC5AD","name":"屯門公路轉車站 (A4)","lat":"22.362444","long":"114.015978"},{"id":"72F743E4D464E498","name":"西隧轉車站 (A1) (YT313)","lat":"22.304288","long":"114.159875"},{"id":"25D811895B82ABCA","name":"港澳碼頭 (CW111)","lat":"22.287641","long":"114.151866"},{"id":"709C8604AFB90F27","name":"海港政府大樓 (CW135)","lat":"22.286969","long":"114.155364"},{"id":"8379C4B1265C27F7","name":"怡和大廈 (CW112)","lat":"22.282710","long":"114.159271"},{"id":"C804CCACB2781EEE","name":"力寶中心 (E1) (CW160)","lat":"22.279831","long":"114.163252"},{"id":"AD1B202B678A3B56","name":"軍器廠街 (WC210)","lat":"22.277878","long":"114.169050"},{"id":"B30799FB3732222B","name":"菲林明道 (WC214)","lat":"22.277831","long":"114.174009"},{"id":"4C333C4D4E80902B","name":"史釗域道 (WC217)","lat":"22.278228","long":"114.177304"},{"id":"F1A22B170518051B","name":"灣仔消防局 (WC220)","lat":"22.279647","long":"114.181855"},{"id":"69F0130ADB11EF8B","name":"崇光百貨 (WC222)","lat":"22.280249","long":"114.183934"},{"id":"17B98BD1165A7B92","name":"維多利亞公園 (ED310)","lat":"22.280958","long":"114.189949"}],"routeId":"960C","description":"正常班次"},{"company":"kmb","route":"960C","routeType":"1","dir":"I","orig":"銅鑼灣","dest":"富泰邨","stopList":[{"id":"CFC063BFE7F6F67B","name":"中央圖書館 (ED641)","lat":"22.280326","long":"114.189351"},{"id":"BBFDDE87E6A6DD13","name":"怡和街 (WC651)","lat":"22.279806","long":"114.185362"},{"id":"D073FFE1CF019F1F","name":"天樂里 (WC665)","lat":"22.278923","long":"114.180447"},{"id":"569100345CF1E324","name":"廣生行大廈 (WC667)","lat":"22.278032","long":"114.177487"},{"id":"C3D2F84C0F0FF415","name":"菲林明道 (WC670)","lat":"22.277581","long":"114.174166"},{"id":"F5BB84FC3C97BC6A","name":"盧押道 (WC705)","lat":"22.278400","long":"114.171600"},{"id":"11CE1FD8440A89D3","name":"皇后像廣場 (CW775)","lat":"22.281936","long":"114.160120"},{"id":"4AA350AD8FFF4786","name":"砵典乍街 (CW776)","lat":"22.283262","long":"114.157565"},{"id":"B8FBAC0A201E0F2C","name":"機利文街 (CW778)","lat":"22.286175","long":"114.154539"},{"id":"16F1654702825C04","name":"林士街 (CW780)","lat":"22.286858","long":"114.153154"},{"id":"AD97EA183A25102C","name":"西隧轉車站 (B1) (YT603)","lat":"22.304471","long":"114.158659"},{"id":"DFE346B2C7332BC0","name":"屯門公路轉車站 (B6)","lat":"22.358063","long":"114.019164"},{"id":"872110C8ADA14DA1","name":"屯門公路轉車站 (B1)","lat":"22.358720","long":"114.018548"},{"id":"25BC743BF6EB726E","name":"屯門市廣場","lat":"22.392977","long":"113.976862"},{"id":"7AC6625D894BA101","name":"新墟街市","lat":"22.398858","long":"113.976525"},{"id":"CBE54DB551C24A02","name":"紅橋","lat":"22.402437","long":"113.977155"},{"id":"78B537644BD4FE00","name":"建生邨樂生樓","lat":"22.404967","long":"113.969095"},{"id":"542CC0EC83BAEA01","name":"新圍苑","lat":"22.405362","long":"113.964142"},{"id":"840532B7C95DF870","name":"兆邦苑","lat":"22.407738","long":"113.965595"},{"id":"315BE0CA231DCD4F","name":"寶田轉車站 - 寶田 (T2)","lat":"22.409406","long":"113.967043"},{"id":"EDF4C2EAFDBD4693","name":"大興警署","lat":"22.407849","long":"113.970585"},{"id":"12CF2025741EF844","name":"麒麟圍","lat":"22.410727","long":"113.976479"},{"id":"580D52F4D93CAD9B","name":"欣田邨","lat":"22.413767","long":"113.976890"},{"id":"3199543D3AE70527","name":"五柳路","lat":"22.415601","long":"113.979372"},{"id":"F1D1F84A466543BE","name":"富泰邨","lat":"22.412973","long":"113.982399"}],"routeId":"960C","description":"正常班次"}]