[{"company":"kmb","route":"960P","routeType":"1","dir":"O","orig":"洪水橋(洪元路)","dest":"銅鑼灣(維園)","stopList":[{"id":"595CE3974AB6F377","name":"洪水橋(洪元路)總站 (YL910)","lat":"22.434560","long":"113.998290"},{"id":"D0F6D267978B38E3","name":"洪元路洪福邨 (YL125)","lat":"22.437150","long":"113.996592"},{"id":"5FCE752FBBAB3B14","name":"尚城 (YL269)","lat":"22.435412","long":"114.000373"},{"id":"8FA8E142E834CB7C","name":"洪水橋站 (YL270)","lat":"22.433635","long":"113.997883"},{"id":"92A09EC9B712A1ED","name":"鍾屋村站 (TM273)","lat":"22.429689","long":"113.992695"},{"id":"4885700825A72F51","name":"亦園村 (TM275)","lat":"22.426912","long":"113.989881"},{"id":"A1541789F09C89BA","name":"泥圍 (TM277)","lat":"22.423907","long":"113.987079"},{"id":"D073CC71A1B4F79C","name":"福亨村 (TM279)","lat":"22.422574","long":"113.985749"},{"id":"B64EEA7F564C7853","name":"妙法寺 (TM281)","lat":"22.420492","long":"113.983893"},{"id":"46D1A9FD1F84CA5C","name":"藍地站 (TM284)","lat":"22.418325","long":"113.982282"},{"id":"BDD49A91FF705B42","name":"虎地 (TM700)","lat":"22.413423","long":"113.980436"},{"id":"DD56DC2336C878C1","name":"紅橋 (TM714)","lat":"22.402117","long":"113.977486"},{"id":"8121695666A4D9CE","name":"屯門屯仁街 (TM718)","lat":"22.394185","long":"113.977084"},{"id":"C2787E27F82716BF","name":"華都花園 (TM721)","lat":"22.391762","long":"113.977754"},{"id":"376C4835851621D4","name":"屯門公路轉車站 (A15) (TM750)","lat":"22.362928","long":"114.015522"},{"id":"ACB5FEA2BF9FC5AD","name":"屯門公路轉車站 (A4) (TM755)","lat":"22.362444","long":"114.015978"},{"id":"72F743E4D464E498","name":"西隧轉車站 (A1) (YT313)","lat":"22.304288","long":"114.159875"},{"id":"28B264A688848238","name":"港澳碼頭 (CW110)","lat":"22.288101","long":"114.150185"},{"id":"B8CAE7A1372554AB","name":"中區政府碼頭 (CW125)","lat":"22.287398","long":"114.154591"},{"id":"D996531BBC23B44D","name":"中環三號碼頭 (CW126)","lat":"22.287565","long":"114.157409"},{"id":"EE2334043E6E8184","name":"郵政總局 (CW155)","lat":"22.283298","long":"114.159665"},{"id":"EF111F2EC49F64AE","name":"金鐘站 (B2) (CW165)","lat":"22.278566","long":"114.164343"},{"id":"AD1B202B678A3B56","name":"軍器廠街 (WC210)","lat":"22.277878","long":"114.169050"},{"id":"B30799FB3732222B","name":"菲林明道 (WC214)","lat":"22.277831","long":"114.174009"},{"id":"4C333C4D4E80902B","name":"史釗域道 (WC217)","lat":"22.278228","long":"114.177304"},{"id":"F1A22B170518051B","name":"灣仔消防局 (WC220)","lat":"22.279647","long":"114.181855"},{"id":"69F0130ADB11EF8B","name":"崇光百貨 (WC222)","lat":"22.280249","long":"114.183934"},{"id":"17B98BD1165A7B92","name":"維多利亞公園 (ED310)","lat":"22.280958","long":"114.189949"}],"routeId":"960P","description":"正常班次"},{"company":"kmb","route":"960P","routeType":"1","dir":"I","orig":"銅鑼灣","dest":"洪水橋","stopList":[{"id":"CFC063BFE7F6F67B","name":"中央圖書館 (ED641)","lat":"22.280326","long":"114.189351"},{"id":"BBFDDE87E6A6DD13","name":"怡和街 (WC651)","lat":"22.279806","long":"114.185362"},{"id":"D073FFE1CF019F1F","name":"天樂里 (WC665)","lat":"22.278923","long":"114.180447"},{"id":"569100345CF1E324","name":"廣生行大廈 (WC667)","lat":"22.278032","long":"114.177487"},{"id":"C3D2F84C0F0FF415","name":"菲林明道 (WC670)","lat":"22.277581","long":"114.174166"},{"id":"F5BB84FC3C97BC6A","name":"盧押道 (WC705)","lat":"22.278400","long":"114.171600"},{"id":"11CE1FD8440A89D3","name":"皇后像廣場 (CW775)","lat":"22.281936","long":"114.160120"},{"id":"4AA350AD8FFF4786","name":"砵典乍街 (CW776)","lat":"22.283262","long":"114.157565"},{"id":"B8FBAC0A201E0F2C","name":"機利文街 (CW778)","lat":"22.286175","long":"114.154539"},{"id":"16F1654702825C04","name":"林士街 (CW780)","lat":"22.286858","long":"114.153154"},{"id":"AD97EA183A25102C","name":"西隧轉車站 (B1) (YT603)","lat":"22.304471","long":"114.158659"},{"id":"DFE346B2C7332BC0","name":"屯門公路轉車站 (B6) (TM102)","lat":"22.358063","long":"114.019164"},{"id":"872110C8ADA14DA1","name":"屯門公路轉車站 (B1) (TM107)","lat":"22.358720","long":"114.018548"},{"id":"F26CC0CB9587F2F9","name":"屯門大會堂 (TM120)","lat":"22.391927","long":"113.977165"},{"id":"7AC6625D894BA101","name":"新墟街市 (TM130)","lat":"22.398858","long":"113.976525"},{"id":"CBE54DB551C24A02","name":"紅橋 (TM133)","lat":"22.402437","long":"113.977155"},{"id":"EC225F6F55BFA35E","name":"虎地 (TM151)","lat":"22.412962","long":"113.979772"},{"id":"7FE552E3792C9047","name":"藍地站 (TM340)","lat":"22.418158","long":"113.981936"},{"id":"5587F6CBEF8C74F1","name":"青磚圍 (TM342)","lat":"22.422507","long":"113.985394"},{"id":"468DB19F9ECA7507","name":"泥圍站 (TM344)","lat":"22.423445","long":"113.986270"},{"id":"030A0F57C577B5EA","name":"亦園村 (TM346)","lat":"22.426616","long":"113.989202"},{"id":"F1A6B3410C090751","name":"鍾屋村站 (TM348)","lat":"22.429686","long":"113.992324"},{"id":"0BFC5F7FC4A2D431","name":"洪水橋站 (YL350)","lat":"22.433880","long":"113.997787"},{"id":"AC1A0FA3D0743FCC","name":"洪天路洪福邨 (YL580)","lat":"22.437614","long":"113.998962"},{"id":"A856593C105D479B","name":"洪元路洪福邨 (YL586)","lat":"22.437026","long":"113.996724"}],"routeId":"960P","description":"正常班次"}]