[{"company":"kmb","route":"961","routeType":"1","dir":"O","orig":"屯門(山景邨)","dest":"灣仔(會展)","stopList":[{"id":"2297CADDD7BC438D","name":"山景總站 (TM942)","lat":"22.401682","long":"113.965881"},{"id":"B3CCA98CC6CE7C8C","name":"鳴琴站 (TM585)","lat":"22.397121","long":"113.967538"},{"id":"490F1A302D8C32FC","name":"屯門消防局 (TM600)","lat":"22.395072","long":"113.970184"},{"id":"79D68EE7C6CBAB9D","name":"屯門站總站 (V6) (TM954)","lat":"22.395081","long":"113.973782"},{"id":"C1BF4509359B0895","name":"屯門市中心總站 (TM976)","lat":"22.391509","long":"113.975556"},{"id":"C425164651C7EF52","name":"安定邨 (TM611)","lat":"22.387784","long":"113.975339"},{"id":"ABDD74161F650B6E","name":"兆麟苑 (TM616)","lat":"22.384918","long":"113.975370"},{"id":"123A364D76B2CE5D","name":"豐景園 (TM620)","lat":"22.383796","long":"113.973641"},{"id":"376C4835851621D4","name":"屯門公路轉車站 (A15) (TM750)","lat":"22.362928","long":"114.015522"},{"id":"ACB5FEA2BF9FC5AD","name":"屯門公路轉車站 (A4) (TM755)","lat":"22.362444","long":"114.015978"},{"id":"72F743E4D464E498","name":"西隧轉車站 (YT313)","lat":"22.304288","long":"114.159875"},{"id":"25D811895B82ABCA","name":"港澳碼頭 (CW111)","lat":"22.287641","long":"114.151866"},{"id":"709C8604AFB90F27","name":"海港政府大樓 (CW135)","lat":"22.286969","long":"114.155364"},{"id":"8379C4B1265C27F7","name":"怡和大廈 (CW112)","lat":"22.282710","long":"114.159271"},{"id":"C804CCACB2781EEE","name":"力寶中心 (E1) (CW160)","lat":"22.279831","long":"114.163252"},{"id":"AD1B202B678A3B56","name":"軍器廠街 (WC210)","lat":"22.277878","long":"114.169050"},{"id":"B30799FB3732222B","name":"菲林明道 (WC214)","lat":"22.277831","long":"114.174009"},{"id":"D27B34CA3854232D","name":"香港會議展覽中心 (WC190)","lat":"22.281387","long":"114.174153"},{"id":"3B254E7FFFCC0A2F","name":"灣仔會展巴士總站 (WC930)","lat":"22.284213","long":"114.174232"}],"routeId":"961","description":"正常班次"},{"company":"kmb","route":"961","routeType":"3","dir":"O","orig":"屯門(山景邨)","dest":"灣仔(會展)","stopList":[{"id":"2297CADDD7BC438D","name":"山景總站 (TM942)","lat":"22.401682","long":"113.965881"},{"id":"B3CCA98CC6CE7C8C","name":"鳴琴站 (TM585)","lat":"22.397121","long":"113.967538"},{"id":"490F1A302D8C32FC","name":"屯門消防局 (TM600)","lat":"22.395072","long":"113.970184"},{"id":"79D68EE7C6CBAB9D","name":"屯門站總站 (V6) (TM954)","lat":"22.395081","long":"113.973782"},{"id":"C1BF4509359B0895","name":"屯門市中心總站 (TM976)","lat":"22.391509","long":"113.975556"},{"id":"C425164651C7EF52","name":"安定邨 (TM611)","lat":"22.387784","long":"113.975339"},{"id":"ABDD74161F650B6E","name":"兆麟苑 (TM616)","lat":"22.384918","long":"113.975370"},{"id":"123A364D76B2CE5D","name":"豐景園 (TM620)","lat":"22.383796","long":"113.973641"},{"id":"376C4835851621D4","name":"屯門公路轉車站 (A15) (TM750)","lat":"22.362928","long":"114.015522"},{"id":"ACB5FEA2BF9FC5AD","name":"屯門公路轉車站 (A4) (TM755)","lat":"22.362444","long":"114.015978"},{"id":"72F743E4D464E498","name":"西隧轉車站 (YT313)","lat":"22.304288","long":"114.159875"},{"id":"25D811895B82ABCA","name":"港澳碼頭 (CW111)","lat":"22.287641","long":"114.151866"},{"id":"709C8604AFB90F27","name":"海港政府大樓 (CW135)","lat":"22.286969","long":"114.155364"},{"id":"8379C4B1265C27F7","name":"怡和大廈 (CW112)","lat":"22.282710","long":"114.159271"},{"id":"C804CCACB2781EEE","name":"力寶中心 (E1) (CW160)","lat":"22.279831","long":"114.163252"},{"id":"AD1B202B678A3B56","name":"軍器廠街 (WC210)","lat":"22.277878","long":"114.169050"},{"id":"B30799FB3732222B","name":"菲林明道 (WC214)","lat":"22.277831","long":"114.174009"},{"id":"4C333C4D4E80902B","name":"史釗域道 (WC217)","lat":"22.278228","long":"114.177304"},{"id":"F1A22B170518051B","name":"灣仔消防局 (WC220)","lat":"22.279647","long":"114.181855"},{"id":"3DB9E473F29FCDEE","name":"百德新街 (WC231)","lat":"22.280019","long":"114.185419"},{"id":"17B98BD1165A7B92","name":"維多利亞公園 (ED310)","lat":"22.280958","long":"114.189949"},{"id":"42E86F97FAC8F719","name":"興發街 (ED320)","lat":"22.283417","long":"114.191218"},{"id":"3B254E7FFFCC0A2F","name":"灣仔會展巴士總站 (WC930)","lat":"22.284213","long":"114.174232"}],"routeId":"961","description":"特別班次"},{"company":"kmb","route":"961","routeType":"1","dir":"I","orig":"灣仔(會展)","dest":"屯門(山景邨)","stopList":[{"id":"3B254E7FFFCC0A2F","name":"灣仔會展巴士總站 (WC930)","lat":"22.284213","long":"114.174232"},{"id":"0ECA7118ADB9577B","name":"會議道 (WC180)","lat":"22.282791","long":"114.174263"},{"id":"C3D2F84C0F0FF415","name":"菲林明道 (WC670)","lat":"22.277581","long":"114.174166"},{"id":"47A2AA98F8E20AE2","name":"盧押道 (WC674)","lat":"22.277431","long":"114.171323"},{"id":"6F9CEABEE36E8682","name":"太古廣場 (A3) (CW741)","lat":"22.278005","long":"114.165408"},{"id":"A63B90588F747496","name":"中銀大廈 (CW745)","lat":"22.279446","long":"114.162299"},{"id":"83B717529F9794BC","name":"利源東街 (CW763)","lat":"22.283008","long":"114.156894"},{"id":"1D8A902219897402","name":"永吉街 (CW767)","lat":"22.285430","long":"114.154473"},{"id":"A81B13297DB1C481","name":"文華里 (CW769)","lat":"22.286265","long":"114.152753"},{"id":"13E0A0449C73F4DE","name":"皇后街 (CW785)","lat":"22.288394","long":"114.147216"},{"id":"AD97EA183A25102C","name":"西隧轉車站 (YT603)","lat":"22.304471","long":"114.158659"},{"id":"DFE346B2C7332BC0","name":"屯門公路轉車站 (B6) (TM102)","lat":"22.358063","long":"114.019164"},{"id":"88229183EDC0B6E9","name":"屯門公路轉車站 (B2) (TM106)","lat":"22.358615","long":"114.018633"},{"id":"64312A5DFF11636C","name":"豐景園 (TM156)","lat":"22.384009","long":"113.972822"},{"id":"CB2A65E69B2B71BE","name":"翠寧花園 (TM157)","lat":"22.383922","long":"113.974412"},{"id":"5A592ED96E34B583","name":"友愛邨 (TM164)","lat":"22.387777","long":"113.975177"},{"id":"5D14B75687F60509","name":"屯門公園 (TM167)","lat":"22.392122","long":"113.975127"},{"id":"69EA07FBAB612E68","name":"屯門站總站 (V7) (TM952)","lat":"22.395081","long":"113.973782"},{"id":"7F4EB0203DF27B35","name":"屯門消防局 (TM177)","lat":"22.394590","long":"113.970556"},{"id":"F4D9335688592803","name":"鳴琴站 (TM185)","lat":"22.396654","long":"113.967361"},{"id":"44EE4F1DEB9ADD69","name":"山景邨景麗樓 (TM574)","lat":"22.400912","long":"113.966637"},{"id":"2297CADDD7BC438D","name":"山景總站 (TM942)","lat":"22.401682","long":"113.965881"}],"routeId":"961","description":"正常班次"},{"company":"kmb","route":"961","routeType":"3","dir":"I","orig":"灣仔(會展)","dest":"屯門(山景邨)","stopList":[{"id":"3B254E7FFFCC0A2F","name":"灣仔會展巴士總站 (WC930)","lat":"22.284213","long":"114.174232"},{"id":"0ECA7118ADB9577B","name":"會議道 (WC180)","lat":"22.282791","long":"114.174263"},{"id":"455C67DEE3D3E649","name":"摩頓台 (ED635)","lat":"22.279612","long":"114.188873"},{"id":"BBFDDE87E6A6DD13","name":"怡和街 (WC651)","lat":"22.279806","long":"114.185362"},{"id":"D073FFE1CF019F1F","name":"天樂里 (WC665)","lat":"22.278923","long":"114.180447"},{"id":"569100345CF1E324","name":"廣生行大廈 (WC667)","lat":"22.278032","long":"114.177487"},{"id":"C3D2F84C0F0FF415","name":"菲林明道 (WC670)","lat":"22.277581","long":"114.174166"},{"id":"47A2AA98F8E20AE2","name":"盧押道 (WC674)","lat":"22.277431","long":"114.171323"},{"id":"6F9CEABEE36E8682","name":"太古廣場 (A3) (CW741)","lat":"22.278005","long":"114.165408"},{"id":"A63B90588F747496","name":"中銀大廈 (CW745)","lat":"22.279446","long":"114.162299"},{"id":"83B717529F9794BC","name":"利源東街 (CW763)","lat":"22.283008","long":"114.156894"},{"id":"1D8A902219897402","name":"永吉街 (CW767)","lat":"22.285430","long":"114.154473"},{"id":"A81B13297DB1C481","name":"文華里 (CW769)","lat":"22.286265","long":"114.152753"},{"id":"13E0A0449C73F4DE","name":"皇后街 (CW785)","lat":"22.288394","long":"114.147216"},{"id":"AD97EA183A25102C","name":"西隧轉車站 (YT603)","lat":"22.304471","long":"114.158659"},{"id":"DFE346B2C7332BC0","name":"屯門公路轉車站 (B6) (TM102)","lat":"22.358063","long":"114.019164"},{"id":"88229183EDC0B6E9","name":"屯門公路轉車站 (B2) (TM106)","lat":"22.358615","long":"114.018633"},{"id":"64312A5DFF11636C","name":"豐景園 (TM156)","lat":"22.384009","long":"113.972822"},{"id":"CB2A65E69B2B71BE","name":"翠寧花園 (TM157)","lat":"22.383922","long":"113.974412"},{"id":"5A592ED96E34B583","name":"友愛邨 (TM164)","lat":"22.387777","long":"113.975177"},{"id":"5D14B75687F60509","name":"屯門公園 (TM167)","lat":"22.392122","long":"113.975127"},{"id":"69EA07FBAB612E68","name":"屯門站總站 (V7) (TM952)","lat":"22.395081","long":"113.973782"},{"id":"7F4EB0203DF27B35","name":"屯門消防局 (TM177)","lat":"22.394590","long":"113.970556"},{"id":"F4D9335688592803","name":"鳴琴站 (TM185)","lat":"22.396654","long":"113.967361"},{"id":"44EE4F1DEB9ADD69","name":"山景邨景麗樓 (TM574)","lat":"22.400912","long":"113.966637"},{"id":"2297CADDD7BC438D","name":"山景總站 (TM942)","lat":"22.401682","long":"113.965881"}],"routeId":"961","description":"特別班次"}]