[{"company":"ctb","route":"969C","routeType":null,"dir":"I","orig":"太古 (康怡廣場)","dest":"天水圍 (天瑞邨)","stopList":[{"id":"001365","name":"新威園, 英皇道","lat":"22.285529","long":"114.211081"},{"id":"003251","name":"北角官立小學, 英皇道","lat":"22.288852","long":"114.209668"},{"id":"001275","name":"模範邨, 英皇道","lat":"22.291544","long":"114.207667"},{"id":"001276","name":"健康村, 英皇道","lat":"22.291913","long":"114.206341"},{"id":"001277","name":"健威花園, 英皇道","lat":"22.291810","long":"114.203890"},{"id":"001279","name":"琴行街, 英皇道","lat":"22.291204","long":"114.200959"},{"id":"001034","name":"砵典乍街, 干諾道中","lat":"22.283588","long":"114.157304"},{"id":"001628","name":"西區海底隧道巴士轉乘站","lat":"22.305020","long":"114.159204"},{"id":"001972","name":"大欖隧道巴士轉乘站","lat":"22.420444","long":"114.063512"},{"id":"002061","name":"天耀邨耀豐樓, 天城路","lat":"22.453310","long":"114.005824"},{"id":"002036","name":"輕鐵銀座站, 天恩路","lat":"22.458187","long":"114.003789"},{"id":"002003","name":"天水圍市中心","lat":"22.458894","long":"114.001922"},{"id":"002620","name":"嘉湖山莊景湖居, 天龍路","lat":"22.458826","long":"114.005165"},{"id":"001988","name":"嘉湖山莊麗湖居, 天葵路","lat":"22.460359","long":"114.004620"},{"id":"002076","name":"天晴邨晴雲樓, 天葵路","lat":"22.463393","long":"114.003901"},{"id":"002650","name":"慧景軒, 天葵路","lat":"22.465647","long":"114.004774"},{"id":"002623","name":"香港濕地公園, 濕地公園路","lat":"22.469175","long":"114.002747"},{"id":"002077","name":"天逸邨逸潭樓, 天瑞路","lat":"22.468079","long":"113.999386"},{"id":"002072","name":"天富苑欣富閣, 天瑞路","lat":"22.464436","long":"113.997490"},{"id":"002063","name":"天頌苑頌恩閣, 天瑞路","lat":"22.460369","long":"113.997215"},{"id":"003479","name":"天瑞邨","lat":"22.455316","long":"113.999154"}],"routeId":"969C","description":"正常班次"},{"company":"ctb","route":"969C","routeType":null,"dir":"O","orig":"天水圍 (天瑞邨)","dest":"太古 (康怡廣場)","stopList":[{"id":"003577","name":"嘉湖山莊美湖居, 天華路","lat":"22.462068","long":"114.005582"},{"id":"001989","name":"嘉湖山莊美湖居, 天葵路","lat":"22.459617","long":"114.005421"},{"id":"002003","name":"天水圍市中心","lat":"22.458894","long":"114.001922"},{"id":"001996","name":"嘉湖山莊翠湖居, 天榮路","lat":"22.459509","long":"113.999843"},{"id":"002073","name":"天悅邨, 天華路","lat":"22.462030","long":"113.999465"},{"id":"002076","name":"天晴邨晴雲樓, 天葵路","lat":"22.463393","long":"114.003901"},{"id":"002074","name":"天富苑能富閣, 天秀路","lat":"22.465319","long":"114.000053"},{"id":"002075","name":"天澤邨, 天瑞路","lat":"22.468085","long":"113.999141"},{"id":"002622","name":"香港濕地公園, 濕地公園路","lat":"22.469698","long":"114.002765"},{"id":"003773","name":"慧景軒, 天葵路","lat":"22.465783","long":"114.005077"},{"id":"002015","name":"天慈邨, 天城路","lat":"22.453313","long":"114.006062"},{"id":"002062","name":"天頌苑頌棋閣, 天華路","lat":"22.461874","long":"113.999914"},{"id":"002063","name":"天頌苑頌恩閣, 天瑞路","lat":"22.460369","long":"113.997215"},{"id":"001991","name":"天瑞邨, 天瑞路","lat":"22.456389","long":"113.999430"},{"id":"001992","name":"天水圍公園, 天瑞路","lat":"22.454527","long":"114.002951"},{"id":"001998","name":"天耀邨耀盛樓, 天湖路","lat":"22.452289","long":"114.002210"},{"id":"002001","name":"天耀邨耀民樓, 天耀路","lat":"22.449809","long":"114.002968"},{"id":"001946","name":"天水圍站 - 天盛苑, 屏廈路","lat":"22.446796","long":"114.003009"},{"id":"001258","name":"北角消防局, 渣華道","lat":"22.292127","long":"114.207819"},{"id":"001267","name":"北角官立小學, 英皇道","lat":"22.288826","long":"114.209867"},{"id":"001268","name":"新威園, 英皇道","lat":"22.285544","long":"114.211338"},{"id":"001393","name":"船塢里, 英皇道","lat":"22.284774","long":"114.214208"},{"id":"001287","name":"康怡廣場, 康山道","lat":"22.284744","long":"114.216176"}],"routeId":"969C","description":"正常班次"}]