[{"company":"ctb","route":"969C","routeType":null,"dir":"I","orig":"太古 (康怡廣場)","dest":"天水圍 (天瑞邨)","stopList":[{"id":"001365","name":"新威園, 英皇道","lat":"22.285529212091","long":"114.21108139053"},{"id":"003251","name":"北角官立小學, 英皇道","lat":"22.288852392091","long":"114.20966772053"},{"id":"001275","name":"模範邨, 英皇道","lat":"22.291544482091","long":"114.20766679053"},{"id":"001276","name":"健康村, 英皇道","lat":"22.291912702091","long":"114.20634072053"},{"id":"001277","name":"健威花園, 英皇道","lat":"22.291810122091","long":"114.20389006053"},{"id":"001279","name":"琴行街, 英皇道","lat":"22.291204122091","long":"114.20095851053"},{"id":"001034","name":"砵典乍街, 干諾道中","lat":"22.283587582091","long":"114.15730419053"},{"id":"001628","name":"西區海底隧道巴士轉乘站","lat":"22.305020162091","long":"114.15920401053"},{"id":"001972","name":"大欖隧道收費廣場","lat":"22.420443732091","long":"114.06351173053"},{"id":"002061","name":"天耀邨耀豐樓, 天城路","lat":"22.453711282091","long":"114.00559400053"},{"id":"002036","name":"輕鐵銀座站, 天恩路","lat":"22.458186962091","long":"114.00378932053"},{"id":"002003","name":"天水圍市中心","lat":"22.458893972091","long":"114.00192243053"},{"id":"002620","name":"嘉湖山莊景湖居, 天龍路","lat":"22.458826432091","long":"114.00516511053"},{"id":"001988","name":"嘉湖山莊麗湖居, 天葵路","lat":"22.460359002091","long":"114.00461987053"},{"id":"002076","name":"天晴邨晴雲樓, 天葵路","lat":"22.463392772091","long":"114.00390133053"},{"id":"002650","name":"慧景軒, 天葵路","lat":"22.465646652091","long":"114.00477375053"},{"id":"002623","name":"香港濕地公園, 濕地公園路","lat":"22.469174682091","long":"114.00274688053"},{"id":"002077","name":"天逸邨逸潭樓, 天瑞路","lat":"22.468078952091","long":"113.99938571053"},{"id":"002072","name":"天富苑欣富閣, 天瑞路","lat":"22.464435982091","long":"113.99749037053"},{"id":"002063","name":"天頌苑, 天瑞路","lat":"22.460368862091","long":"113.99721464053"},{"id":"003479","name":"天瑞邨","lat":"22.455315942091","long":"113.99915414053"}],"routeId":"969C","description":"正常班次"},{"company":"ctb","route":"969C","routeType":null,"dir":"O","orig":"天水圍 (天瑞邨)","dest":"太古 (康怡廣場)","stopList":[{"id":"003577","name":"嘉湖山莊美湖居, 天華路","lat":"22.462067842091","long":"114.00558218053"},{"id":"001989","name":"嘉湖山莊美湖居, 天葵路","lat":"22.459617252091","long":"114.00542070053"},{"id":"002003","name":"天水圍市中心","lat":"22.458893972091","long":"114.00192243053"},{"id":"001996","name":"嘉湖山莊翠湖居, 天榮路","lat":"22.459509232091","long":"113.99984302053"},{"id":"002073","name":"天悅邨, 天華路","lat":"22.462029782091","long":"113.99946467053"},{"id":"002076","name":"天晴邨晴雲樓, 天葵路","lat":"22.463392772091","long":"114.00390133053"},{"id":"002074","name":"天富苑能富閣, 天秀路","lat":"22.465319142091","long":"114.00005304053"},{"id":"002075","name":"天澤邨, 天瑞路","lat":"22.468084792091","long":"113.99914061053"},{"id":"002622","name":"香港濕地公園, 濕地公園路","lat":"22.469698272091","long":"114.00276472053"},{"id":"003773","name":"慧景軒, 天葵路","lat":"22.465783282091","long":"114.00507718053"},{"id":"002015","name":"天慈邨, 天城路","lat":"22.453313172091","long":"114.00606169053"},{"id":"002062","name":"天頌苑, 天華路","lat":"22.461874322091","long":"113.99991377053"},{"id":"002063","name":"天頌苑, 天瑞路","lat":"22.460368862091","long":"113.99721464053"},{"id":"001991","name":"天瑞邨, 天瑞路","lat":"22.456389052091","long":"113.99942977053"},{"id":"001992","name":"天水圍公園, 天瑞路","lat":"22.454526502091","long":"114.00295133053"},{"id":"001998","name":"天耀邨耀盛樓, 天湖路","lat":"22.452288962091","long":"114.00221005053"},{"id":"002001","name":"天耀邨耀民樓, 天耀路","lat":"22.449808912091","long":"114.00296780053"},{"id":"001946","name":"天盛苑, 屏廈路","lat":"22.446795952091","long":"114.00300851053"},{"id":"001258","name":"北角消防局, 渣華道","lat":"22.292126752091","long":"114.20781923053"},{"id":"001267","name":"北角官立小學, 英皇道","lat":"22.288825782091","long":"114.20986716053"},{"id":"001268","name":"新威園, 英皇道","lat":"22.285544382091","long":"114.21133814053"},{"id":"001393","name":"船塢里, 英皇道","lat":"22.284773752091","long":"114.21420833053"},{"id":"001287","name":"康怡廣場, 康山道","lat":"22.284744092091","long":"114.21617625053"}],"routeId":"969C","description":"正常班次"}]