[{"company":"gmb","route":"96C","routeType":1,"orig":"荃灣站","dest":"碧堤半島","stopList":[{"id":20016007,"name":"荃灣站","lat":22.374171391129742,"long":114.11639973521233},{"id":20001877,"name":"青山公路荃灣段287號","lat":22.373382465175627,"long":114.11614987586186},{"id":20016003,"name":"青山公路-荃灣段413號外","lat":22.37483982665977,"long":114.11251723766328},{"id":20016012,"name":"青山公路-荃灣段491-501號外","lat":22.375391686598352,"long":114.10882115364076},{"id":20002606,"name":"碧堤半島","lat":22.367239052390506,"long":114.06146020610079}],"routeId":2008093,"description":"額外班次"},{"company":"gmb","route":"96C","routeType":2,"orig":"碧堤半島","dest":"荃灣站","stopList":[{"id":20002606,"name":"碧堤半島","lat":22.367239052390506,"long":114.06146020610079},{"id":20016078,"name":"青山公路-荃灣段近安育路交界","lat":22.375724041640467,"long":114.10653859376909},{"id":20016079,"name":"青山公路-荃灣段荃德花園外","lat":22.375748844223725,"long":114.1067397594452},{"id":20001872,"name":"青山公路-荃灣段中染大廈外","lat":22.374961543639547,"long":114.11286727464953},{"id":20016007,"name":"荃灣站","lat":22.374171391129742,"long":114.11639973521233}],"routeId":2008093,"description":"額外班次"}]