[{"company":"gmb","route":"96C","routeType":1,"orig":"荃灣站","dest":"碧堤半島","stopList":[{"id":20016007,"name":"荃灣站","lat":"22.374171","long":"114.116400"},{"id":20001877,"name":"青山公路荃灣段287號","lat":"22.373382","long":"114.116150"},{"id":20016003,"name":"青山公路-荃灣段413號外","lat":"22.374840","long":"114.112517"},{"id":20016012,"name":"青山公路-荃灣段491-501號外","lat":"22.375392","long":"114.108821"},{"id":20002606,"name":"碧堤半島","lat":"22.367239","long":"114.061460"}],"routeId":2008093,"description":"額外班次"},{"company":"gmb","route":"96C","routeType":2,"orig":"碧堤半島","dest":"荃灣站","stopList":[{"id":20002606,"name":"碧堤半島","lat":"22.367239","long":"114.061460"},{"id":20016078,"name":"青山公路-荃灣段近安育路交界","lat":"22.375724","long":"114.106539"},{"id":20016079,"name":"青山公路-荃灣段荃德花園外","lat":"22.375749","long":"114.106740"},{"id":20001872,"name":"青山公路-荃灣段中染大廈外","lat":"22.374962","long":"114.112867"},{"id":20016007,"name":"荃灣站","lat":"22.374171","long":"114.116400"}],"routeId":2008093,"description":"額外班次"}]