[{"company":"ctb","route":"976","routeType":null,"dir":"I","orig":"西灣河","dest":"落馬洲 (新田)","stopList":[{"id":"001315","name":"港島民生書院, 太安街","lat":"22.283046192091","long":"114.22329985053"},{"id":"001367","name":"太富街, 筲箕灣道","lat":"22.283156802091","long":"114.22094909053"},{"id":"001288","name":"康怡廣場, 康山道","lat":"22.284499762091","long":"114.21671745053"},{"id":"001365","name":"新威園, 英皇道","lat":"22.285529212091","long":"114.21108139053"},{"id":"003251","name":"北角官立小學, 英皇道","lat":"22.288852392091","long":"114.20966772053"},{"id":"001275","name":"模範邨, 英皇道","lat":"22.291544482091","long":"114.20766679053"},{"id":"001276","name":"健康村, 英皇道","lat":"22.291912702091","long":"114.20634072053"},{"id":"001277","name":"健威花園, 英皇道","lat":"22.291810122091","long":"114.20389006053"},{"id":"001279","name":"琴行街, 英皇道","lat":"22.291204122091","long":"114.20095851053"},{"id":"001033","name":"皇后像廣場, 干諾道中","lat":"22.281992192091","long":"114.16003822053"},{"id":"001034","name":"砵典乍街, 干諾道中","lat":"22.283587582091","long":"114.15730419053"},{"id":"001036","name":"租庇利街, 干諾道中","lat":"22.285203642091","long":"114.15604393053"},{"id":"001038","name":"永安中心, 干諾道中","lat":"22.286883032091","long":"114.15318275053"},{"id":"001628","name":"西區海底隧道巴士轉乘站","lat":"22.305020162091","long":"114.15920401053"},{"id":"001972","name":"大欖隧道收費廣場","lat":"22.420443732091","long":"114.06351173053"},{"id":"003614","name":"高埔村, 錦田公路","lat":"22.440106362091","long":"114.05630210053"},{"id":"003615","name":"下高埔村, 錦田公路","lat":"22.441820762091","long":"114.05261815053"},{"id":"003616","name":"凹頭, 錦田公路","lat":"22.443118492091","long":"114.05006839053"},{"id":"003617","name":"紅毛橋, 青山公路","lat":"22.447108182091","long":"114.04929821053"},{"id":"003618","name":"沙埔村, 青山公路","lat":"22.451613822091","long":"114.04972432053"},{"id":"003619","name":"逢吉鄉, 青山公路","lat":"22.458328982091","long":"114.05179036053"},{"id":"003620","name":"模範鄉, 青山公路","lat":"22.461315292091","long":"114.05271214053"},{"id":"003621","name":"壆圍, 青山公路","lat":"22.463415752091","long":"114.05319459053"},{"id":"003622","name":"大生圍, 青山公路","lat":"22.469268752091","long":"114.05444975053"},{"id":"003623","name":"新田","lat":"22.503013232091","long":"114.08237315053"}],"routeId":"976","description":"正常班次"},{"company":"ctb","route":"976","routeType":null,"dir":"O","orig":"落馬洲 (新田)","dest":"西灣河","stopList":[{"id":"003623","name":"新田","lat":"22.503013232091","long":"114.08237315053"},{"id":"003624","name":"朗廈, 新潭路","lat":"22.469465062091","long":"114.05547991053"},{"id":"003625","name":"壆圍, 新潭路","lat":"22.464765622091","long":"114.05402660053"},{"id":"003626","name":"模範鄉, 新潭路","lat":"22.461706202091","long":"114.05328358053"},{"id":"003627","name":"逢吉鄉, 新潭路","lat":"22.457339162091","long":"114.05239174053"},{"id":"003628","name":"沙埔村, 新潭路","lat":"22.452554762091","long":"114.05096145053"},{"id":"003629","name":"紅毛橋, 青山公路","lat":"22.447218132091","long":"114.04951484053"},{"id":"003630","name":"凹頭, 錦田公路","lat":"22.443663622091","long":"114.04941518053"},{"id":"003631","name":"下高埔村, 錦田公路","lat":"22.442359762091","long":"114.05194642053"},{"id":"003632","name":"高埔村, 錦田公路","lat":"22.440311502091","long":"114.05619475053"},{"id":"001973","name":"大欖隧道收費廣場","lat":"22.420811642091","long":"114.06438367053"},{"id":"001629","name":"西區海底隧道巴士轉乘站","lat":"22.304233652091","long":"114.15979682053"},{"id":"001027","name":"中環 (港澳碼頭)","lat":"22.288274152091","long":"114.15042248053"},{"id":"001029","name":"海港政府大樓, 統一碼頭道","lat":"22.286703242091","long":"114.15535823053"},{"id":"001176","name":"國際金融中心商場, 民祥街","lat":"22.285071342091","long":"114.15857719053"},{"id":"001256","name":"琴行街, 渣華道","lat":"22.292465872091","long":"114.20073702053"},{"id":"001257","name":"電照街, 渣華道","lat":"22.292829302091","long":"114.20250688053"},{"id":"001258","name":"北角消防局, 渣華道","lat":"22.292126752091","long":"114.20781923053"},{"id":"001267","name":"北角官立小學, 英皇道","lat":"22.288825782091","long":"114.20986716053"},{"id":"001268","name":"新威園, 英皇道","lat":"22.285544382091","long":"114.21133814053"},{"id":"001393","name":"船塢里, 英皇道","lat":"22.284773752091","long":"114.21420833053"},{"id":"001270","name":"太古城中心, 英皇道","lat":"22.285287892091","long":"114.21758355053"},{"id":"001313","name":"太康樓, 太康街","lat":"22.283340892091","long":"114.22177946053"},{"id":"001293","name":"鯉景灣, 鯉景道","lat":"22.284069312091","long":"114.22354484053"},{"id":"001315","name":"港島民生書院, 太安街","lat":"22.283046192091","long":"114.22329985053"}],"routeId":"976","description":"正常班次"}]