[{"company":"ctb","route":"976","routeType":null,"dir":"I","orig":"西灣河","dest":"落馬洲 (新田)","stopList":[{"id":"001315","name":"港島民生書院, 太安街","lat":"22.283046","long":"114.223300"},{"id":"001367","name":"太富街, 筲箕灣道","lat":"22.283157","long":"114.220949"},{"id":"001288","name":"康怡廣場, 康山道","lat":"22.284500","long":"114.216717"},{"id":"001365","name":"新威園, 英皇道","lat":"22.285529","long":"114.211081"},{"id":"003251","name":"北角官立小學, 英皇道","lat":"22.288852","long":"114.209668"},{"id":"001275","name":"模範邨, 英皇道","lat":"22.291544","long":"114.207667"},{"id":"001276","name":"健康村, 英皇道","lat":"22.291913","long":"114.206341"},{"id":"001277","name":"健威花園, 英皇道","lat":"22.291810","long":"114.203890"},{"id":"001279","name":"琴行街, 英皇道","lat":"22.291204","long":"114.200959"},{"id":"001033","name":"皇后像廣場, 干諾道中","lat":"22.281992","long":"114.160038"},{"id":"001034","name":"砵典乍街, 干諾道中","lat":"22.283588","long":"114.157304"},{"id":"001036","name":"租庇利街, 干諾道中","lat":"22.285204","long":"114.156044"},{"id":"001038","name":"永安中心, 干諾道中","lat":"22.286883","long":"114.153183"},{"id":"001628","name":"西區海底隧道巴士轉乘站","lat":"22.305020","long":"114.159204"},{"id":"001972","name":"大欖隧道巴士轉乘站","lat":"22.420444","long":"114.063512"},{"id":"003614","name":"高埔村, 錦田公路","lat":"22.440106","long":"114.056302"},{"id":"003615","name":"下高埔村, 錦田公路","lat":"22.441821","long":"114.052618"},{"id":"003616","name":"凹頭, 錦田公路","lat":"22.443118","long":"114.050068"},{"id":"003617","name":"紅毛橋, 青山公路","lat":"22.447108","long":"114.049298"},{"id":"003618","name":"沙埔村, 青山公路","lat":"22.451614","long":"114.049724"},{"id":"003619","name":"逢吉鄉, 青山公路","lat":"22.458329","long":"114.051790"},{"id":"003620","name":"模範鄉, 青山公路","lat":"22.460794","long":"114.052599"},{"id":"003621","name":"壆圍, 青山公路","lat":"22.463416","long":"114.053195"},{"id":"003622","name":"大生圍, 青山公路","lat":"22.469269","long":"114.054450"},{"id":"003623","name":"新田","lat":"22.503013","long":"114.082373"}],"routeId":"976","description":"正常班次"},{"company":"ctb","route":"976","routeType":null,"dir":"O","orig":"落馬洲 (新田)","dest":"西灣河","stopList":[{"id":"003623","name":"新田","lat":"22.503013","long":"114.082373"},{"id":"003624","name":"朗廈, 新潭路","lat":"22.469465","long":"114.055480"},{"id":"003625","name":"壆圍, 新潭路","lat":"22.464766","long":"114.054027"},{"id":"003626","name":"模範鄉, 新潭路","lat":"22.461706","long":"114.053284"},{"id":"003627","name":"逢吉鄉, 新潭路","lat":"22.457339","long":"114.052392"},{"id":"003628","name":"沙埔村, 新潭路","lat":"22.452555","long":"114.050961"},{"id":"003629","name":"紅毛橋, 青山公路","lat":"22.447218","long":"114.049515"},{"id":"003630","name":"凹頭, 錦田公路","lat":"22.443664","long":"114.049415"},{"id":"003631","name":"下高埔村, 錦田公路","lat":"22.442360","long":"114.051946"},{"id":"003632","name":"高埔村, 錦田公路","lat":"22.440312","long":"114.056195"},{"id":"001973","name":"大欖隧道巴士轉乘站","lat":"22.420812","long":"114.064384"},{"id":"001629","name":"西區海底隧道巴士轉乘站","lat":"22.304234","long":"114.159797"},{"id":"001027","name":"中環 (港澳碼頭)","lat":"22.288274","long":"114.150422"},{"id":"001029","name":"海港政府大樓, 統一碼頭道","lat":"22.286703","long":"114.155358"},{"id":"001176","name":"國際金融中心商場, 民祥街","lat":"22.285071","long":"114.158577"},{"id":"001256","name":"琴行街, 渣華道","lat":"22.292466","long":"114.200737"},{"id":"001257","name":"電照街, 渣華道","lat":"22.292829","long":"114.202507"},{"id":"001258","name":"北角消防局, 渣華道","lat":"22.292127","long":"114.207819"},{"id":"001267","name":"北角官立小學, 英皇道","lat":"22.288826","long":"114.209867"},{"id":"001268","name":"新威園, 英皇道","lat":"22.285544","long":"114.211338"},{"id":"001393","name":"船塢里, 英皇道","lat":"22.284774","long":"114.214208"},{"id":"001270","name":"太古城中心, 英皇道","lat":"22.285288","long":"114.217584"},{"id":"001313","name":"太康樓, 太康街","lat":"22.283341","long":"114.221779"},{"id":"001293","name":"鯉景灣, 鯉景道","lat":"22.284069","long":"114.223545"},{"id":"001315","name":"港島民生書院, 太安街","lat":"22.283046","long":"114.223300"}],"routeId":"976","description":"正常班次"}]