[{"company":"gmb","route":"97A","routeType":1,"orig":"華景山莊","dest":"長沙灣(長發街)","stopList":[{"id":20012769,"name":"華景山路, 近華景山莊華景商場","lat":"22.351827","long":"114.137282"},{"id":20012770,"name":"青山公路－葵涌段, 近鍾山臺曉峯居（第一期）","lat":"22.344167","long":"114.139221"},{"id":20012771,"name":"蝴蝶谷道, 近荔枝角收押所２座","lat":"22.337500","long":"114.144683"},{"id":20012772,"name":"長沙灣道, 近萬利中心","lat":"22.337558","long":"114.148309"},{"id":20012773,"name":"長沙灣道, 近香港紗廠工業大廈第五期","lat":"22.338356","long":"114.150637"},{"id":20012774,"name":"長發街, 近恒生青山道大廈","lat":"22.338275","long":"114.156102"}],"routeId":2005055,"description":"正常班次"},{"company":"gmb","route":"97A","routeType":2,"orig":"長沙灣(長發街)","dest":"華景山莊","stopList":[{"id":20012774,"name":"長發街, 近恒生青山道大廈","lat":"22.338275","long":"114.156102"},{"id":20012775,"name":"長沙灣道, 近億利工業中心","lat":"22.336904","long":"114.147428"},{"id":20012776,"name":"青山公路－葵涌段, 近鍾山臺","lat":"22.342264","long":"114.140322"},{"id":20012769,"name":"華景山路, 近華景山莊華景商場","lat":"22.351827","long":"114.137282"}],"routeId":2005055,"description":"正常班次"}]