[{"company":"kmb","route":"981P","routeType":"1","dir":"O","orig":"耀安","dest":"灣仔(菲林明道)","stopList":[{"id":"F1F906098E7C35E9","name":"耀安巴士總站 (MA932)","lat":"22.419454","long":"114.229812"},{"id":"857F6F958A96DCDB","name":"馬鞍山運動場 (MA126)","lat":"22.421785","long":"114.228481"},{"id":"03354DBC3AD86BAC","name":"頌安邨 (MA315)","lat":"22.420975","long":"114.227292"},{"id":"96B7D7C8DF39E707","name":"錦鞍苑 (MA319)","lat":"22.418390","long":"114.226313"},{"id":"6B46C7E695EF21CF","name":"欣安邨 (MA142)","lat":"22.415305","long":"114.226294"},{"id":"D9328F386A03DC36","name":"保泰街 (MA341)","lat":"22.414210","long":"114.223742"},{"id":"ECE98AAA81373891","name":"德信中學 (MA353)","lat":"22.410689","long":"114.221549"},{"id":"2CC81AE9D0A0E668","name":"錦泰苑 (MA356)","lat":"22.407939","long":"114.220010"},{"id":"46F034381CE08F9C","name":"富安花園巴士總站 (MA900)","lat":"22.405742","long":"114.224139"},{"id":"4A3D71FFAB41B756","name":"亞公角 (MA401)","lat":"22.402012","long":"114.215473"},{"id":"A78292AA77A277A7","name":"沙田醫院 (MA403)","lat":"22.398890","long":"114.212419"},{"id":"E18D73287340B634","name":"西隧轉車站 (YT311)","lat":"22.304356","long":"114.159916"},{"id":"C8811A27E4B64581","name":"港澳碼頭","lat":"22.287656","long":"114.151781"},{"id":"69263C9DB4729B7F","name":"中環街市","lat":"22.285191","long":"114.155277"},{"id":"AE6FE615893E8C89","name":"遮打道","lat":"22.281514","long":"114.160131"},{"id":"3007D34FB91FB27E","name":"金鐘站","lat":"22.278270","long":"114.165080"},{"id":"1AB934EFE0E1470A","name":"軍器廠街","lat":"22.277881","long":"114.169013"},{"id":"16CE9E8D17681839","name":"菲林明道","lat":"22.277778","long":"114.173601"}],"routeId":"981P","description":"正常班次"},{"company":"kmb","route":"981P","routeType":"1","dir":"I","orig":"金鐘站(東)","dest":"耀安","stopList":[{"id":"C357F03ABD5AC6AA","name":"金鐘(東)總站","lat":"22.278511","long":"114.165291"},{"id":"4395252CFDC7AB1F","name":"皇后像廣場","lat":"22.281928","long":"114.160194"},{"id":"52C01B7F122297BD","name":"砵典乍街","lat":"22.283712","long":"114.157197"},{"id":"B42222C6800A33A2","name":"租庇利街","lat":"22.285203","long":"114.156015"},{"id":"A8CD8C1198907526","name":"林士街","lat":"22.286471","long":"114.154022"},{"id":"6B7C2A21D95241A5","name":"皇后街","lat":"22.288394","long":"114.147159"},{"id":"DEBD2B9A856C0B1F","name":"西隧轉車站 (YT600)","lat":"22.304494","long":"114.158761"},{"id":"16A7F2C343AA6DE6","name":"沙田醫院 (MA100)","lat":"22.399870","long":"114.213035"},{"id":"4B0E21EDF07F9C83","name":"亞公角 (MA103)","lat":"22.402759","long":"114.216742"},{"id":"1CF4AE2F7045B848","name":"富安花園 (MA108)","lat":"22.406232","long":"114.221917"},{"id":"11A1533C3B63F3E4","name":"錦泰苑 (MA130)","lat":"22.408730","long":"114.220556"},{"id":"1BD5318E1C647F83","name":"德信中學 (MA133)","lat":"22.410914","long":"114.221406"},{"id":"651489E8C0A626A1","name":"海典灣 (MA136)","lat":"22.414325","long":"114.222335"},{"id":"6B46C7E695EF21CF","name":"欣安邨 (MA142)","lat":"22.415305","long":"114.226294"},{"id":"F489213E82621D3F","name":"聽濤雅苑 (MA151)","lat":"22.418966","long":"114.226061"},{"id":"31DA09E74ABD87CD","name":"頌安邨 (MA154)","lat":"22.420741","long":"114.226763"},{"id":"842DC076B16BE3A2","name":"馬鞍山運動場 (MA370)","lat":"22.422232","long":"114.228303"},{"id":"F1F906098E7C35E9","name":"耀安巴士總站 (MA932)","lat":"22.419454","long":"114.229812"}],"routeId":"981P","description":"正常班次"},{"company":"ctb","route":"981P","routeType":null,"dir":"I","orig":"灣仔","dest":"馬鞍山 (耀安邨)","stopList":[{"id":"001138","name":"金鐘 - 港鐵 D 出口","lat":"22.278641","long":"114.165635"},{"id":"001033","name":"皇后像廣場, 干諾道中","lat":"22.281992","long":"114.160038"},{"id":"001034","name":"砵典乍街, 干諾道中","lat":"22.283588","long":"114.157304"},{"id":"001036","name":"租庇利街, 干諾道中","lat":"22.285204","long":"114.156044"},{"id":"001037","name":"林士街, 干諾道中","lat":"22.286484","long":"114.154043"},{"id":"001193","name":"皇后街, 干諾道西","lat":"22.288404","long":"114.147345"},{"id":"001628","name":"西區海底隧道巴士轉乘站","lat":"22.305020","long":"114.159204"},{"id":"002064","name":"沙田醫院, 亞公角街","lat":"22.399761","long":"114.212936"},{"id":"002065","name":"亞公角, 亞公角街","lat":"22.402644","long":"114.216526"},{"id":"002066","name":"富安花園, 亞公角街","lat":"22.406139","long":"114.221857"},{"id":"002067","name":"錦泰苑, 寧泰路","lat":"22.408637","long":"114.220471"},{"id":"002068","name":"德信中學, 寧泰路","lat":"22.410573","long":"114.221393"},{"id":"002069","name":"海典灣, 寧泰路","lat":"22.414351","long":"114.222392"},{"id":"003348","name":"欣安邨, 恆輝街","lat":"22.414978","long":"114.226935"},{"id":"002070","name":"聽濤雅苑, 西沙路","lat":"22.418938","long":"114.226057"},{"id":"002071","name":"頌安邨, 西沙路","lat":"22.420831","long":"114.226771"},{"id":"001914","name":"馬鞍山運動場, 恆康街","lat":"22.421916","long":"114.228729"},{"id":"002026","name":"耀安邨","lat":"22.419196","long":"114.229689"}],"routeId":"981P","description":"正常班次"},{"company":"ctb","route":"981P","routeType":null,"dir":"O","orig":"馬鞍山 (耀安邨)","dest":"灣仔","stopList":[{"id":"002026","name":"耀安邨","lat":"22.419196","long":"114.229689"},{"id":"001917","name":"馬鞍山運動場, 恆康街","lat":"22.421804","long":"114.228505"},{"id":"002042","name":"頌安邨, 西沙路","lat":"22.420775","long":"114.227187"},{"id":"002043","name":"錦鞍苑, 西沙路","lat":"22.418933","long":"114.226460"},{"id":"003348","name":"欣安邨, 恆輝街","lat":"22.414978","long":"114.226935"},{"id":"002155","name":"保泰街","lat":"22.414234","long":"114.223657"},{"id":"002044","name":"德信中學, 寧泰路","lat":"22.410603","long":"114.221572"},{"id":"002045","name":"錦泰苑, 寧泰路","lat":"22.407991","long":"114.220192"},{"id":"002027","name":"富安花園","lat":"22.405527","long":"114.224027"},{"id":"002028","name":"亞公角, 亞公角街","lat":"22.402005","long":"114.215507"},{"id":"002029","name":"沙田醫院, 亞公角街","lat":"22.398613","long":"114.212160"},{"id":"001629","name":"西區海底隧道巴士轉乘站","lat":"22.304234","long":"114.159797"},{"id":"003409","name":"港澳碼頭, 干諾道中","lat":"22.288009","long":"114.150241"},{"id":"001046","name":"中環街市, 德輔道中","lat":"22.285208","long":"114.155173"},{"id":"001025","name":"皇后像廣場, 遮打道","lat":"22.281482","long":"114.160055"},{"id":"001137","name":"金鐘 - 統一中心, 金鐘道","lat":"22.278349","long":"114.164939"},{"id":"002427","name":"軍器廠街, 軒尼詩道","lat":"22.277849","long":"114.168945"},{"id":"002432","name":"菲林明道, 軒尼詩道","lat":"22.277753","long":"114.173695"}],"routeId":"981P","description":"正常班次"}]