[{"company":"ctb","route":"989","routeType":null,"dir":"O","orig":"火炭 (駿洋邨)","dest":"西灣河","stopList":[{"id":"003603","name":"駿洋邨","lat":"22.399313","long":"114.190262"},{"id":"003659","name":"麵房街, 火炭路","lat":"22.397301","long":"114.194499"},{"id":"003296","name":"火炭村, 火炭路","lat":"22.393960","long":"114.196840"},{"id":"003562","name":"禾輋邨, 源禾路","lat":"22.387268","long":"114.196097"},{"id":"003563","name":"瀝源邨, 源禾路","lat":"22.384016","long":"114.193034"},{"id":"003638","name":"沙田大會堂, 担杆莆街","lat":"22.382407","long":"114.189630"},{"id":"003639","name":"帝都酒店, 白鶴汀街","lat":"22.379798","long":"114.188074"},{"id":"003641","name":"美林邨, 大埔公路","lat":"22.377214","long":"114.178675"},{"id":"003771","name":"美輝街","lat":"22.376622","long":"114.174364"},{"id":"003106","name":"美松苑, 美田路","lat":"22.380121","long":"114.173798"},{"id":"003096","name":"美林邨美槐樓, 美田路","lat":"22.380036","long":"114.176058"},{"id":"003097","name":"美城苑, 美田路","lat":"22.379249","long":"114.173733"},{"id":"003095","name":"美林邨","lat":"22.377694","long":"114.174953"},{"id":"003098","name":"大圍街市, 美田路","lat":"22.373809","long":"114.177003"},{"id":"003099","name":"田心村, 車公廟路","lat":"22.370735","long":"114.177888"},{"id":"001629","name":"西區海底隧道巴士轉乘站","lat":"22.304234","long":"114.159797"},{"id":"001256","name":"琴行街, 渣華道","lat":"22.292466","long":"114.200737"},{"id":"001257","name":"電照街, 渣華道","lat":"22.292829","long":"114.202507"},{"id":"001258","name":"北角消防局, 渣華道","lat":"22.292127","long":"114.207819"},{"id":"001267","name":"北角官立小學, 英皇道","lat":"22.288826","long":"114.209867"},{"id":"001268","name":"新威園, 英皇道","lat":"22.285544","long":"114.211338"},{"id":"001393","name":"船塢里, 英皇道","lat":"22.284774","long":"114.214208"},{"id":"001270","name":"太古城中心, 英皇道","lat":"22.285288","long":"114.217584"},{"id":"001313","name":"太康樓, 太康街","lat":"22.283341","long":"114.221779"},{"id":"001293","name":"鯉景灣, 鯉景道","lat":"22.284069","long":"114.223545"},{"id":"001315","name":"港島民生書院, 太安街","lat":"22.283046","long":"114.223300"}],"routeId":"989","description":"正常班次"}]