[{"company":"kmb","route":"98P","routeType":"1","dir":"O","orig":"康盛花園","dest":"尖沙咀東","stopList":[{"id":"A5B328EAF882C44B","name":"康盛花園巴士總站","lat":"22.318619","long":"114.253883"},{"id":"ABC15E2110BF7A49","name":"康盛花園","lat":"22.319847","long":"114.254072"},{"id":"932D83E09BF6ADE6","name":"翠林邨","lat":"22.322967","long":"114.250222"},{"id":"848CA90EB0DB1146","name":"寶林消防局","lat":"22.326540","long":"114.252091"},{"id":"7486D53F341F1AAC","name":"英明苑","lat":"22.327247","long":"114.256144"},{"id":"C73A03D6C468B767","name":"將軍澳賽馬會診所","lat":"22.324922","long":"114.259363"},{"id":"FFFA7F14EBC1BB1E","name":"浩明苑","lat":"22.322103","long":"114.259467"},{"id":"E56EB484337A34CB","name":"寶林總站","lat":"22.323135","long":"114.257493"},{"id":"4D1A76F3B9785DFA","name":"新都城","lat":"22.324344","long":"114.257011"},{"id":"AC7D60B1E5251638","name":"梁潔華小學","lat":"22.323341","long":"114.255628"},{"id":"6AE5EC17DAE4E646","name":"茵怡花園","lat":"22.321857","long":"114.255396"},{"id":"883E42D32C6AD101","name":"寶康公園","lat":"22.319250","long":"114.256451"},{"id":"9762FC524B26C4A7","name":"將軍澳隧道轉車站 (G1)","lat":"22.315362","long":"114.240526"},{"id":"7A95C545D0393126","name":"啟隧轉車站-啟福道(L1)","lat":"22.322033","long":"114.204300"},{"id":"5CCBD9A6B58BF20D","name":"九龍佑寧堂","lat":"22.305649","long":"114.172574"},{"id":"A37F8CF766FCF9F3","name":"尖沙咀德成街 (S47)","lat":"22.304279","long":"114.171799"},{"id":"FE56DD70DEDE0395","name":"聖安德烈堂 (S48)","lat":"22.301952","long":"114.172017"},{"id":"1DEB855D55528B03","name":"金馬倫道 (S51)","lat":"22.298979","long":"114.172114"},{"id":"D2217D7746597D10","name":"尖沙咀轉車站 - 中間道 (S54)","lat":"22.295794","long":"114.172446"},{"id":"0840B3F75A7B00BD","name":"尖東站","lat":"22.295264","long":"114.174725"},{"id":"C175ACB534E8C15C","name":"尖沙咀麼地道","lat":"22.297822","long":"114.175434"},{"id":"4139F73177AF267D","name":"加連威老道","lat":"22.299774","long":"114.175855"},{"id":"E45CFAB2E6E4C8FE","name":"香港理工大學","lat":"22.302916","long":"114.177719"},{"id":"B390D5F9AC9CF57B","name":"尖沙咀東總站","lat":"22.301969","long":"114.178311"}],"routeId":"98P","description":"正常班次"},{"company":"kmb","route":"98P","routeType":"1","dir":"I","orig":"尖沙咀東","dest":"坑口(北)(將軍澳醫院)","stopList":[{"id":"B390D5F9AC9CF57B","name":"尖沙咀東總站","lat":"22.301969","long":"114.178311"},{"id":"BEEBDDB542A7E709","name":"香港科學館","lat":"22.301475","long":"114.176613"},{"id":"48184733EFE9D3E3","name":"尖沙咀麼地道","lat":"22.298487","long":"114.175834"},{"id":"89D32777124F4039","name":"尖東站","lat":"22.294828","long":"114.174540"},{"id":"DAE7B6CB56131B50","name":"尖沙咀轉車站 - 海防道 (N4)","lat":"22.297640","long":"114.172064"},{"id":"5419928D472EAD8D","name":"栢麗購物大道 (N13)","lat":"22.301864","long":"114.171726"},{"id":"53E802F94BDF5048","name":"柯士甸道 (N16)","lat":"22.303862","long":"114.171621"},{"id":"B0668BFF6178BA0B","name":"勞資審裁處","lat":"22.308049","long":"114.172768"},{"id":"060241561E537FB5","name":"衛理道","lat":"22.306781","long":"114.175981"},{"id":"33033960343A57A8","name":"紅磡山谷道","lat":"22.309321","long":"114.183816"},{"id":"BE27F066CF40DF7D","name":"啟隧轉車站-啟福道(K1)","lat":"22.322242","long":"114.204425"},{"id":"62F395D60229C8F5","name":"秀茂坪曉光街","lat":"22.315423","long":"114.237232"},{"id":"1FBAAE29AF1CA50E","name":"秀暉樓","lat":"22.316851","long":"114.235856"},{"id":"03C3F537C41E4986","name":"寶達邨轉車站 (N1)","lat":"22.318565","long":"114.236118"},{"id":"2FFC93C766E566B5","name":"安達臣道","lat":"22.320918","long":"114.243930"},{"id":"F5A61D37E2DDA9D8","name":"馬游塘村","lat":"22.319505","long":"114.245650"},{"id":"31079A9B244C679B","name":"茅湖仔","lat":"22.317495","long":"114.252038"},{"id":"ABC15E2110BF7A49","name":"康盛花園","lat":"22.319847","long":"114.254072"},{"id":"BC66863007C0592B","name":"翠林邨","lat":"22.323025","long":"114.250283"},{"id":"848CA90EB0DB1146","name":"寶林消防局","lat":"22.326540","long":"114.252091"},{"id":"7486D53F341F1AAC","name":"英明苑","lat":"22.327247","long":"114.256144"},{"id":"FC42DCBDC3AB0B6F","name":"欣景路","lat":"22.323790","long":"114.258615"},{"id":"22E2678081E88368","name":"景林邨","lat":"22.322301","long":"114.261306"},{"id":"7613538D58A9C452","name":"厚德邨","lat":"22.319436","long":"114.264290"},{"id":"336FF66D1F0AC4A0","name":"重華路","lat":"22.316993","long":"114.265883"},{"id":"D732B7AE560F7326","name":"培成路","lat":"22.315254","long":"114.263931"},{"id":"99A3DFDBDF41F0E9","name":"富寧花園","lat":"22.318567","long":"114.267833"},{"id":"75E1777F474658CA","name":"坑口(北)(將軍澳醫院)","lat":"22.317783","long":"114.269142"}],"routeId":"98P","description":"正常班次"}]