[{"company":"kmb","route":"98R","routeType":"1","dir":"O","orig":"紅磡香港體育館","dest":"坑口(北)(將軍澳醫院)","stopList":[{"id":"0A3466DCC6F4196C","name":"香港體育館","lat":"22.301962","long":"114.181147"},{"id":"1FBAAE29AF1CA50E","name":"秀暉樓","lat":"22.316851","long":"114.235856"},{"id":"03C3F537C41E4986","name":"寶達邨轉車站 (N1)","lat":"22.318565","long":"114.236118"},{"id":"2FFC93C766E566B5","name":"安達臣道","lat":"22.320918","long":"114.243930"},{"id":"F5A61D37E2DDA9D8","name":"馬游塘村","lat":"22.319505","long":"114.245650"},{"id":"31079A9B244C679B","name":"茅湖仔","lat":"22.317495","long":"114.252038"},{"id":"ABC15E2110BF7A49","name":"康盛花園","lat":"22.319847","long":"114.254072"},{"id":"BC66863007C0592B","name":"翠林邨","lat":"22.323025","long":"114.250283"},{"id":"848CA90EB0DB1146","name":"寶林消防局","lat":"22.326540","long":"114.252091"},{"id":"7486D53F341F1AAC","name":"英明苑","lat":"22.327247","long":"114.256144"},{"id":"FC42DCBDC3AB0B6F","name":"欣景路","lat":"22.323790","long":"114.258615"},{"id":"22E2678081E88368","name":"景林邨","lat":"22.322301","long":"114.261306"},{"id":"7613538D58A9C452","name":"厚德邨","lat":"22.319436","long":"114.264290"},{"id":"336FF66D1F0AC4A0","name":"重華路","lat":"22.316993","long":"114.265883"},{"id":"D732B7AE560F7326","name":"培成路","lat":"22.315254","long":"114.263931"},{"id":"75E1777F474658CA","name":"坑口(北)(將軍澳醫院)","lat":"22.317783","long":"114.269142"}],"routeId":"98R","description":"正常班次"}]