[{"company":"kmb","route":"98S","routeType":"1","dir":"O","orig":"康城站","dest":"美孚","stopList":[{"id":"FC56A42F8EF929FA","name":"康城站","lat":"22.296239","long":"114.268098"},{"id":"B3F2EC8E42FA3184","name":"峻瀅","lat":"22.297382","long":"114.272496"},{"id":"07142A6203E50A47","name":"日出康城領都","lat":"22.294281","long":"114.273380"},{"id":"E92E009DE3307F85","name":"日出康城首都","lat":"22.296677","long":"114.272726"},{"id":"0A1D83D50B49933D","name":"百勝角","lat":"22.303500","long":"114.271368"},{"id":"A9478A97C59FE581","name":"清水灣半島","lat":"22.308792","long":"114.266529"},{"id":"6C3F6AF77695CAE9","name":"銀澳路","lat":"22.314326","long":"114.266633"},{"id":"AF36CBF039B7CB03","name":"培成路","lat":"22.315229","long":"114.263958"},{"id":"44A2D3DCAB8DD9BE","name":"厚德邨","lat":"22.319124","long":"114.264454"},{"id":"1078119989C67B82","name":"景林邨","lat":"22.322301","long":"114.260993"},{"id":"9DC52818C41A2A1B","name":"欣明苑","lat":"22.324838","long":"114.259098"},{"id":"4D1A76F3B9785DFA","name":"新都城","lat":"22.324344","long":"114.257011"},{"id":"4D30DF225016CBB0","name":"茵怡花園","lat":"22.321978","long":"114.255330"},{"id":"883E42D32C6AD101","name":"寶康公園","lat":"22.319250","long":"114.256451"},{"id":"E0BAA3364D0CE860","name":"將軍澳隧道轉車站 (G2)","lat":"22.315426","long":"114.240619"},{"id":"4D9419874306D82F","name":"采頤花園","lat":"22.334909","long":"114.201967"},{"id":"D625B0997C3DBCFE","name":"譽．港灣","lat":"22.332000","long":"114.196917"},{"id":"D7EDDEA5A942843B","name":"九龍城警署","lat":"22.324574","long":"114.185031"},{"id":"A7F679945ED1DB31","name":"雅麗居","lat":"22.323148","long":"114.182050"},{"id":"88DF3B36087267EB","name":"九龍醫院","lat":"22.321766","long":"114.179182"},{"id":"8C44D48B9BAAB774","name":"怡安閣","lat":"22.320458","long":"114.176111"},{"id":"300D1812E3A085C3","name":"太平道","lat":"22.319953","long":"114.173591"},{"id":"A5C65B0A68257CF1","name":"旺角站","lat":"22.319436","long":"114.170734"},{"id":"99256D08CF861BA5","name":"旺角弼街 (N71)","lat":"22.321592","long":"114.168744"},{"id":"D0A763AFCDE36124","name":"太子站 (N75)","lat":"22.325490","long":"114.167954"},{"id":"E6ED785726AED4AE","name":"深水埗楓樹街","lat":"22.327562","long":"114.166148"},{"id":"15FCDE0753176016","name":"深水埗北河街","lat":"22.330543","long":"114.162338"},{"id":"098AF67CBBB9FBA9","name":"怡閣苑","lat":"22.333466","long":"114.158514"},{"id":"04FC6E130D4953F4","name":"長沙灣遊樂場","lat":"22.335618","long":"114.155787"},{"id":"EEBBD352B7F16E3F","name":"長沙灣徑","lat":"22.338147","long":"114.151104"},{"id":"6762DEA1B89E6354","name":"長沙灣長荔街","lat":"22.336786","long":"114.147023"},{"id":"CBB9FC4A0C13979B","name":"美孚巴士總站 (T1)","lat":"22.337284","long":"114.139940"}],"routeId":"98S","description":"正常班次"},{"company":"kmb","route":"98S","routeType":"1","dir":"I","orig":"美孚","dest":"康城站","stopList":[{"id":"CBB9FC4A0C13979B","name":"美孚巴士總站 (T1)","lat":"22.337284","long":"114.139940"},{"id":"F01F8CF411A34AA7","name":"荔枝角站","lat":"22.337559","long":"114.148620"},{"id":"A6013462EAC8AA50","name":"長沙灣光昌街","lat":"22.338442","long":"114.151193"},{"id":"2035C91B61C6DFC0","name":"長沙灣興華街","lat":"22.337928","long":"114.153199"},{"id":"AAB25066B96C6588","name":"元州邨","lat":"22.335706","long":"114.156039"},{"id":"789384E5DC5AF7A9","name":"深水埗九江街","lat":"22.332801","long":"114.159824"},{"id":"0F4D809AED62F6E9","name":"深水埗欽州街","lat":"22.331237","long":"114.161858"},{"id":"833DE523F16B97C3","name":"深水埗黃竹街","lat":"22.328895","long":"114.164877"},{"id":"A70DCB46EC98F43E","name":"太子站 (S4)","lat":"22.325459","long":"114.168234"},{"id":"7B98BAE3D93817AC","name":"旺角水渠道 (S9)","lat":"22.323419","long":"114.168639"},{"id":"F3540B3A1B36BBF5","name":"旺角道","lat":"22.321064","long":"114.169766"},{"id":"D01D18C6EB79F84B","name":"嘉道理道","lat":"22.320407","long":"114.174387"},{"id":"A72D15160CC3AF31","name":"亞皆老街中電","lat":"22.320532","long":"114.175816"},{"id":"83CAC07FF3CA1BDA","name":"九龍醫院","lat":"22.322695","long":"114.180355"},{"id":"B0DDF2CD704116C8","name":"醫院管理局","lat":"22.323790","long":"114.182797"},{"id":"6C1DEF32B8CB92C4","name":"香港眼科醫院","lat":"22.324908","long":"114.184866"},{"id":"20A7DAD5A8294964","name":"九龍城轉車站- 富豪東方酒店(A8)","lat":"22.329212","long":"114.192610"},{"id":"A0EFE3E68568F194","name":"譽．港灣","lat":"22.333136","long":"114.196760"},{"id":"97D1981DE7ECBCE7","name":"將軍澳隧道轉車站 (P2)","lat":"22.316056","long":"114.240427"},{"id":"3998A0C9E65D379B","name":"茵怡花園","lat":"22.321382","long":"114.255497"},{"id":"B64E0F355A9F4223","name":"寶儉樓","lat":"22.324533","long":"114.256904"},{"id":"FC42DCBDC3AB0B6F","name":"欣景路","lat":"22.323790","long":"114.258615"},{"id":"22E2678081E88368","name":"景林邨","lat":"22.322301","long":"114.261306"},{"id":"7613538D58A9C452","name":"厚德邨","lat":"22.319436","long":"114.264290"},{"id":"336FF66D1F0AC4A0","name":"重華路","lat":"22.316993","long":"114.265883"},{"id":"54FCA9F5D8F3587E","name":"煜明苑","lat":"22.314696","long":"114.266582"},{"id":"A9478A97C59FE581","name":"清水灣半島","lat":"22.308792","long":"114.266529"},{"id":"815BC43527FD9247","name":"百勝角","lat":"22.301733","long":"114.272574"},{"id":"B3F2EC8E42FA3184","name":"峻瀅","lat":"22.297382","long":"114.272496"},{"id":"2307DECBF51E9D7F","name":"MEGA Plus 數據中心","lat":"22.294404","long":"114.273728"},{"id":"B75CD6E70417E21B","name":"日出康城領都","lat":"22.294224","long":"114.273376"},{"id":"471442D7E30D26EB","name":"日出康城首都","lat":"22.296657","long":"114.272705"},{"id":"FC56A42F8EF929FA","name":"康城站","lat":"22.296239","long":"114.268098"}],"routeId":"98S","description":"正常班次"}]