[{"company":"ctb","route":"A17","routeType":null,"dir":"I","orig":"機場 (經港珠澳大橋香港口岸)","dest":"深灣 (經海洋公園)","stopList":[{"id":"001837","name":"機場 (地面運輸中心)","lat":"22.314155382091","long":"113.93690708053"},{"id":"003540","name":"港珠澳大橋香港口岸","lat":"22.316366922091","long":"113.95088219053"},{"id":"001854","name":"青嶼幹線巴士轉乘站","lat":"22.339339292091","long":"114.04211697053"},{"id":"001629","name":"西區海底隧道巴士轉乘站","lat":"22.304233652091","long":"114.15979682053"},{"id":"001136","name":"金鐘 - 金鐘花園, 金鐘道","lat":"22.278493752091","long":"114.16445856053"},{"id":"002479","name":"太古廣場三座, 皇后大道東","lat":"22.277614332091","long":"114.16784733053"},{"id":"002480","name":"聯發街, 皇后大道東","lat":"22.276092532091","long":"114.17017417053"},{"id":"002481","name":"廈門街, 皇后大道東","lat":"22.275205172091","long":"114.17158011053"},{"id":"002482","name":"尚翹峰, 皇后大道東","lat":"22.274470092091","long":"114.17386255053"},{"id":"002484","name":"聖若瑟小學, 皇后大道東","lat":"22.275165142091","long":"114.17692050053"},{"id":"002485","name":"伊利沙伯體育館, 皇后大道東","lat":"22.274920852091","long":"114.17867690053"},{"id":"002548","name":"樂活道, 黃泥涌道","lat":"22.274365592091","long":"114.18345343053"},{"id":"002549","name":"雅谷大廈, 黃泥涌道","lat":"22.272085332091","long":"114.18455363053"},{"id":"002550","name":"跑馬地 (下)","lat":"22.270337792091","long":"114.18483108053"},{"id":"002490","name":"奕蔭街, 成和道","lat":"22.269795072091","long":"114.18484684053"},{"id":"002491","name":"昇平樓, 成和道","lat":"22.267818852091","long":"114.18685370053"},{"id":"002957","name":"箕璉坊, 藍塘道","lat":"22.265161372091","long":"114.18879506053"},{"id":"002958","name":"金碧別墅, 藍塘道","lat":"22.264094382091","long":"114.19000349053"},{"id":"002959","name":"千葉居, 藍塘道","lat":"22.263235322091","long":"114.18948828053"},{"id":"002541","name":"大坑道, 黃泥涌峽道","lat":"22.263508692091","long":"114.18521560053"},{"id":"002543","name":"黃泥涌水塘公園, 黃泥涌峽道","lat":"22.257475342091","long":"114.19318927053"},{"id":"002219","name":"深水灣道, 南風道","lat":"22.253695262091","long":"114.18563568053"},{"id":"002217","name":"黃竹坑老人服務大樓, 南風道","lat":"22.250621152091","long":"114.17457698053"},{"id":"002354","name":"黃竹坑體育館, 黃竹坑道","lat":"22.249915342091","long":"114.17331087053"},{"id":"002225","name":"海洋公園","lat":"22.247576642091","long":"114.17391579053"},{"id":"002355","name":"黃竹坑遊樂場, 黃竹坑道","lat":"22.250122902091","long":"114.16985106053"},{"id":"002356","name":"業興街, 黃竹坑道","lat":"22.249175622091","long":"114.16779618053"},{"id":"002224","name":"南朗山道熟食市場, 南朗山道","lat":"22.247464142091","long":"114.16666866053"},{"id":"002222","name":"陳白沙紀念中學, 南朗山道","lat":"22.245721242091","long":"114.16673015053"},{"id":"002389","name":"深灣","lat":"22.243326112091","long":"114.16413796053"}],"routeId":"A17","description":"正常班次"},{"company":"ctb","route":"A17","routeType":null,"dir":"O","orig":"深灣 (經海洋公園)","dest":"機場 (經港珠澳大橋香港口岸)","stopList":[{"id":"002389","name":"深灣","lat":"22.243326112091","long":"114.16413796053"},{"id":"002390","name":"南朗山道熟食市場, 南朗山道","lat":"22.247128452091","long":"114.16638027053"},{"id":"002383","name":"業興街, 黃竹坑道","lat":"22.249540662091","long":"114.16811154053"},{"id":"002225","name":"海洋公園","lat":"22.247576642091","long":"114.17391579053"},{"id":"002221","name":"黃竹坑老人服務大樓, 南風道","lat":"22.250687422091","long":"114.17442024053"},{"id":"002218","name":"深水灣道, 南風道","lat":"22.254161622091","long":"114.18497755053"},{"id":"002544","name":"大潭水塘道, 黃泥涌峽道","lat":"22.257461242091","long":"114.19249610053"},{"id":"002546","name":"怡園, 黃泥涌峽道","lat":"22.263140312091","long":"114.18575988053"},{"id":"002960","name":"箕璉閣, 藍塘道","lat":"22.263250132091","long":"114.18936222053"},{"id":"002961","name":"安慧苑, 藍塘道","lat":"22.264590142091","long":"114.18874770053"},{"id":"002402","name":"箕璉坊, 藍塘道","lat":"22.265580672091","long":"114.18873205053"},{"id":"002492","name":"桂芳街, 成和道","lat":"22.266827182091","long":"114.18744416053"},{"id":"002493","name":"山村道, 成和道","lat":"22.268295142091","long":"114.18647527053"},{"id":"002453","name":"景光街","lat":"22.268939962091","long":"114.18483901053"},{"id":"002552","name":"養和醫院, 黃泥涌道","lat":"22.270151022091","long":"114.18267105053"},{"id":"002486","name":"錫克廟, 皇后大道東","lat":"22.274802192091","long":"114.17851714053"},{"id":"002487","name":"香港華仁書院, 皇后大道東","lat":"22.274833802091","long":"114.17623997053"},{"id":"002569","name":"胡忠大廈, 皇后大道東","lat":"22.274580512091","long":"114.17250642053"},{"id":"002488","name":"聯發街, 皇后大道東","lat":"22.276100292091","long":"114.17002156053"},{"id":"002489","name":"太古廣場三座, 皇后大道東","lat":"22.277274142091","long":"114.16820458053"},{"id":"001140","name":"金鐘 - 太古廣場, 金鐘道","lat":"22.278070732091","long":"114.16486695053"},{"id":"001034","name":"砵典乍街, 干諾道中","lat":"22.283587582091","long":"114.15730419053"},{"id":"001628","name":"西區海底隧道巴士轉乘站","lat":"22.305020162091","long":"114.15920401053"},{"id":"001853","name":"青嶼幹線巴士轉乘站","lat":"22.338232802091","long":"114.04196854053"},{"id":"003550","name":"港珠澳大橋旅檢大樓","lat":"22.317023822091","long":"113.95084021053"},{"id":"002714","name":"機場 (1 號客運大樓)","lat":"22.316169222091","long":"113.93594877053"},{"id":"001837","name":"機場 (地面運輸中心)","lat":"22.314155382091","long":"113.93690708053"}],"routeId":"A17","description":"正常班次"}]