[{"company":"ctb","route":"A17","routeType":null,"dir":"I","orig":"機場 (經港珠澳大橋香港口岸)","dest":"深灣 (經海洋公園)","stopList":[{"id":"001837","name":"機場 (地面運輸中心)","lat":"22.314155","long":"113.936907"},{"id":"003540","name":"港珠澳大橋香港口岸","lat":"22.316367","long":"113.950882"},{"id":"001854","name":"青嶼幹線巴士轉乘站","lat":"22.339339","long":"114.042117"},{"id":"001629","name":"西區海底隧道巴士轉乘站","lat":"22.304234","long":"114.159797"},{"id":"001136","name":"金鐘 - 金鐘花園, 金鐘道","lat":"22.278494","long":"114.164459"},{"id":"002479","name":"太古廣場三座, 皇后大道東","lat":"22.277614","long":"114.167847"},{"id":"002480","name":"聯發街, 皇后大道東","lat":"22.276093","long":"114.170174"},{"id":"002481","name":"廈門街, 皇后大道東","lat":"22.275205","long":"114.171580"},{"id":"002482","name":"尚翹峰, 皇后大道東","lat":"22.274470","long":"114.173863"},{"id":"002484","name":"聖若瑟小學, 皇后大道東","lat":"22.275165","long":"114.176921"},{"id":"002485","name":"伊利沙伯體育館, 皇后大道東","lat":"22.274921","long":"114.178677"},{"id":"002548","name":"樂活道, 黃泥涌道","lat":"22.274366","long":"114.183453"},{"id":"002549","name":"雅谷大廈, 黃泥涌道","lat":"22.272085","long":"114.184554"},{"id":"002550","name":"跑馬地 (下)","lat":"22.270338","long":"114.184831"},{"id":"002490","name":"奕蔭街, 成和道","lat":"22.269795","long":"114.184847"},{"id":"002491","name":"昇平樓, 成和道","lat":"22.267819","long":"114.186854"},{"id":"002957","name":"箕璉坊, 藍塘道","lat":"22.265161","long":"114.188795"},{"id":"002958","name":"金碧別墅, 藍塘道","lat":"22.264094","long":"114.190003"},{"id":"002959","name":"千葉居, 藍塘道","lat":"22.263176","long":"114.189197"},{"id":"002541","name":"大坑道, 黃泥涌峽道","lat":"22.263404","long":"114.185365"},{"id":"002543","name":"黃泥涌水塘公園, 黃泥涌峽道","lat":"22.257475","long":"114.193189"},{"id":"002219","name":"深水灣道, 南風道","lat":"22.253695","long":"114.185636"},{"id":"002217","name":"黃竹坑老人服務綜合大樓, 南風道","lat":"22.250621","long":"114.174577"},{"id":"002354","name":"黃竹坑體育館, 黃竹坑道","lat":"22.249915","long":"114.173311"},{"id":"002225","name":"海洋公園","lat":"22.247393","long":"114.173920"},{"id":"002355","name":"黃竹坑遊樂場, 黃竹坑道","lat":"22.250123","long":"114.169851"},{"id":"002356","name":"業興街, 黃竹坑道","lat":"22.249176","long":"114.167796"},{"id":"002224","name":"南朗山道熟食市場, 南朗山道","lat":"22.247464","long":"114.166669"},{"id":"002222","name":"陳白沙紀念中學, 南朗山道","lat":"22.245721","long":"114.166730"},{"id":"002389","name":"深灣","lat":"22.243326","long":"114.164138"}],"routeId":"A17","description":"正常班次"},{"company":"ctb","route":"A17","routeType":null,"dir":"O","orig":"深灣 (經海洋公園)","dest":"機場 (經港珠澳大橋香港口岸)","stopList":[{"id":"002389","name":"深灣","lat":"22.243326","long":"114.164138"},{"id":"002390","name":"南朗山道熟食市場, 南朗山道","lat":"22.247128","long":"114.166380"},{"id":"002383","name":"業興街, 黃竹坑道","lat":"22.249541","long":"114.168112"},{"id":"002225","name":"海洋公園","lat":"22.247393","long":"114.173920"},{"id":"002221","name":"港大同學會書院, 南風道","lat":"22.250687","long":"114.174420"},{"id":"002218","name":"深水灣道, 南風道","lat":"22.254162","long":"114.184978"},{"id":"002544","name":"大潭水塘道, 黃泥涌峽道","lat":"22.257461","long":"114.192496"},{"id":"002546","name":"怡園, 黃泥涌峽道","lat":"22.263140","long":"114.185760"},{"id":"002960","name":"箕璉閣, 藍塘道","lat":"22.263250","long":"114.189362"},{"id":"002961","name":"安慧苑, 藍塘道","lat":"22.264590","long":"114.188748"},{"id":"002402","name":"箕璉坊, 藍塘道","lat":"22.265581","long":"114.188732"},{"id":"002492","name":"桂芳街, 成和道","lat":"22.266827","long":"114.187444"},{"id":"002493","name":"山村道, 成和道","lat":"22.268295","long":"114.186475"},{"id":"002453","name":"景光街","lat":"22.268940","long":"114.184839"},{"id":"002552","name":"養和醫院, 黃泥涌道","lat":"22.270151","long":"114.182671"},{"id":"002486","name":"錫克廟, 皇后大道東","lat":"22.274802","long":"114.178517"},{"id":"002487","name":"香港華仁書院, 皇后大道東","lat":"22.274834","long":"114.176240"},{"id":"002569","name":"胡忠大廈, 皇后大道東","lat":"22.274581","long":"114.172506"},{"id":"002488","name":"聯發街, 皇后大道東","lat":"22.276100","long":"114.170022"},{"id":"002489","name":"太古廣場三座, 皇后大道東","lat":"22.277274","long":"114.168205"},{"id":"001140","name":"金鐘 - 太古廣場, 金鐘道","lat":"22.278071","long":"114.164867"},{"id":"001034","name":"砵典乍街, 干諾道中","lat":"22.283588","long":"114.157304"},{"id":"001628","name":"西區海底隧道巴士轉乘站","lat":"22.305020","long":"114.159204"},{"id":"001853","name":"青嶼幹線巴士轉乘站","lat":"22.338233","long":"114.041969"},{"id":"003550","name":"港珠澳大橋旅檢大樓","lat":"22.317024","long":"113.950840"},{"id":"002714","name":"機場 (1 號客運大樓)","lat":"22.316169","long":"113.935949"},{"id":"001837","name":"機場 (地面運輸中心)","lat":"22.314155","long":"113.936907"}],"routeId":"A17","description":"正常班次"}]