[{"company":"ctb","route":"A21","routeType":null,"dir":"I","orig":"機場 (經港珠澳大橋香港口岸)","dest":"紅磡站","stopList":[{"id":"001837","name":"機場 (地面運輸中心)","lat":"22.314155","long":"113.936907"},{"id":"003540","name":"港珠澳大橋香港口岸","lat":"22.316367","long":"113.950882"},{"id":"001854","name":"青嶼幹線巴士轉乘站","lat":"22.339339","long":"114.042117"},{"id":"002576","name":"碧海藍天, 深旺道","lat":"22.332235","long":"114.148067"},{"id":"001762","name":"凱德苑, 深旺道","lat":"22.330126","long":"114.151250"},{"id":"001515","name":"旺角維景酒店, 荔枝角道","lat":"22.323053","long":"114.167753"},{"id":"001775","name":"旺角中心, 彌敦道","lat":"22.319682","long":"114.169365"},{"id":"001559","name":"銀行中心, 彌敦道","lat":"22.318424","long":"114.169621"},{"id":"001561","name":"信和中心, 彌敦道","lat":"22.316006","long":"114.170118"},{"id":"001564","name":"文明里, 彌敦道","lat":"22.312210","long":"114.170885"},{"id":"001567","name":"彌敦酒店, 彌敦道","lat":"22.307183","long":"114.171524"},{"id":"001568","name":"恆豐中心, 彌敦道","lat":"22.304176","long":"114.171783"},{"id":"001569","name":"金巴利道, 彌敦道","lat":"22.301017","long":"114.172001"},{"id":"001570","name":"金馬倫道, 彌敦道","lat":"22.298998","long":"114.172139"},{"id":"001571","name":"中間道, 彌敦道","lat":"22.295783","long":"114.172368"},{"id":"001587","name":"尖東站, 梳士巴利道","lat":"22.295216","long":"114.174608"},{"id":"001416","name":"麼地道, 漆咸道南","lat":"22.298347","long":"114.175552"},{"id":"001418","name":"香港科學館, 漆咸道南","lat":"22.301323","long":"114.176315"},{"id":"001422","name":"紅磡站","lat":"22.303929","long":"114.182021"}],"routeId":"A21","description":"正常班次"},{"company":"ctb","route":"A21","routeType":null,"dir":"O","orig":"紅磡站","dest":"機場 (經港珠澳大橋香港口岸)","stopList":[{"id":"001422","name":"紅磡站","lat":"22.303929","long":"114.182021"},{"id":"001419","name":"香港科學館, 漆咸道南","lat":"22.301037","long":"114.176488"},{"id":"001420","name":"麼地道, 漆咸道南","lat":"22.298552","long":"114.175822"},{"id":"001589","name":"尖東站, 梳士巴利道","lat":"22.294752","long":"114.174029"},{"id":"001542","name":"海防道, 彌敦道","lat":"22.297540","long":"114.172079"},{"id":"001543","name":"金巴利道, 彌敦道","lat":"22.299964","long":"114.171894"},{"id":"001544","name":"尖沙咀警署, 彌敦道","lat":"22.302891","long":"114.171719"},{"id":"003334","name":"寧波街, 彌敦道","lat":"22.306844","long":"114.171381"},{"id":"001547","name":"眾坊街, 彌敦道","lat":"22.310732","long":"114.170989"},{"id":"001549","name":"碧街, 彌敦道","lat":"22.314107","long":"114.170330"},{"id":"001551","name":"長沙街, 彌敦道","lat":"22.315714","long":"114.170000"},{"id":"001553","name":"雅蘭中心, 彌敦道","lat":"22.317926","long":"114.169545"},{"id":"001396","name":"油尖旺地區康健中心, 亞皆老街","lat":"22.318800","long":"114.166937"},{"id":"001423","name":"銘基書院, 櫻桃街","lat":"22.318582","long":"114.164388"},{"id":"001707","name":"浪澄灣, 海輝道","lat":"22.318815","long":"114.156644"},{"id":"003408","name":"聚魚道, 深旺道","lat":"22.323765","long":"114.158813"},{"id":"002897","name":"南昌公園, 深旺道","lat":"22.325124","long":"114.156991"},{"id":"002593","name":"南昌站, 深旺道","lat":"22.327517","long":"114.154221"},{"id":"002882","name":"海達邨, 深旺道","lat":"22.329509","long":"114.151749"},{"id":"003222","name":"海麗邨, 深旺道","lat":"22.332369","long":"114.147581"},{"id":"001853","name":"青嶼幹線巴士轉乘站","lat":"22.338233","long":"114.041969"},{"id":"002714","name":"機場 (1 號客運大樓)","lat":"22.316169","long":"113.935949"},{"id":"003550","name":"港珠澳大橋旅檢大樓","lat":"22.317024","long":"113.950840"},{"id":"001837","name":"機場 (地面運輸中心)","lat":"22.314155","long":"113.936907"}],"routeId":"A21","description":"正常班次"}]