[{"company":"nlb","route":"A35","routeType":null,"dir":null,"orig":"梅窩碼頭","dest":"大橋香港口岸","stopList":[{"id":"1","name":"梅窩碼頭","lat":"22.264664","long":"114.001554","street":"梅窩碼頭","fare":"20.0","fareHoliday":"32.4"},{"id":"2","name":"梅窩熟食市場","lat":"22.266143","long":"114.000049","street":"銀礦灣道","fare":"20.0","fareHoliday":"32.4"},{"id":"3","name":"銀灣邨","lat":"22.265406","long":"113.997074","street":"銀礦灣道","fare":"20.0","fareHoliday":"32.4"},{"id":"4","name":"梅窩街市","lat":"22.266759","long":"113.996999","street":"銀石街","fare":"20.0","fareHoliday":"32.4"},{"id":"5","name":"銀景中心","lat":"22.265537","long":"113.996965","street":"銀礦灣道","fare":"20.0","fareHoliday":"32.4"},{"id":"6","name":"銀鑛灣濾水廠","lat":"22.262966","long":"113.997826","street":"嶼南道","fare":"20.0","fareHoliday":"32.4"},{"id":"7","name":"荔枝園","lat":"22.260758","long":"113.996477","street":"嶼南道","fare":"20.0","fareHoliday":"32.4"},{"id":"8","name":"南山三屋村","lat":"22.257072","long":"113.990108","street":"嶼南道","fare":"20.0","fareHoliday":"32.4"},{"id":"9","name":"南山營地","lat":"22.255451","long":"113.986811","street":"嶼南道","fare":"20.0","fareHoliday":"32.4"},{"id":"10","name":"太古職員宿舍","lat":"22.251918","long":"113.984887","street":"嶼南道","fare":"20.0","fareHoliday":"32.4"},{"id":"11","name":"貝澳油站","lat":"22.247311","long":"113.980985","street":"嶼南道","fare":"17.5","fareHoliday":"26.9"},{"id":"12","name":"老圍村","lat":"22.244252","long":"113.979236","street":"嶼南道","fare":"17.5","fareHoliday":"26.9"},{"id":"13","name":"新圍村","lat":"22.243476","long":"113.978178","street":"嶼南道","fare":"17.5","fareHoliday":"26.9"},{"id":"14","name":"羅屋村","lat":"22.243192","long":"113.974885","street":"嶼南道","fare":"17.5","fareHoliday":"26.9"},{"id":"15","name":"牛坳園","lat":"22.243041","long":"113.972545","street":"嶼南道","fare":"17.5","fareHoliday":"26.9"},{"id":"16","name":"散石灣中蘆","lat":"22.241244","long":"113.969105","street":"嶼南道","fare":"17.5","fareHoliday":"26.9"},{"id":"17","name":"散石灣村","lat":"22.238928","long":"113.966772","street":"嶼南道","fare":"17.5","fareHoliday":"26.9"},{"id":"18","name":"女青年會梁紹榮度假村","lat":"22.237484","long":"113.964001","street":"嶼南道","fare":"17.5","fareHoliday":"26.9"},{"id":"83","name":"散石灣迴旋處","lat":"22.236544","long":"113.962550","street":"嶼南道","fare":"17.5","fareHoliday":"26.9"},{"id":"19","name":"長沙上村","lat":"22.235238","long":"113.961739","street":"嶼南道","fare":"17.5","fareHoliday":"26.9"},{"id":"20","name":"長沙警署","lat":"22.233772","long":"113.960211","street":"嶼南道","fare":"17.5","fareHoliday":"26.9"},{"id":"21","name":"長沙下村","lat":"22.234787","long":"113.957232","street":"嶼南道","fare":"17.5","fareHoliday":"26.9"},{"id":"22","name":"長沙消防局","lat":"22.236632","long":"113.954349","street":"嶼南道","fare":"17.5","fareHoliday":"26.9"},{"id":"23","name":"麗濱別墅","lat":"22.236217","long":"113.951916","street":"嶼南道","fare":"17.5","fareHoliday":"26.9"},{"id":"24","name":"蝶崗","lat":"22.234540","long":"113.948841","street":"嶼南道","fare":"17.5","fareHoliday":"26.9"},{"id":"25","name":"長沙大橋","lat":"22.233389","long":"113.946977","street":"嶼南道","fare":"17.5","fareHoliday":"26.9"},{"id":"26","name":"上長沙泳灘","lat":"22.230877","long":"113.941525","street":"嶼南道","fare":"17.5","fareHoliday":"26.9"},{"id":"27","name":"塘福海灘","lat":"22.228509","long":"113.935339","street":"嶼南道","fare":"17.5","fareHoliday":"26.9"},{"id":"28","name":"塘福村","lat":"22.227565","long":"113.932706","street":"嶼南道","fare":"13.6","fareHoliday":"21.9"},{"id":"246","name":"塘福海灘","lat":"22.228941","long":"113.935944","street":"嶼南道","fare":"13.6","fareHoliday":"21.9"},{"id":"247","name":"上長沙泳灘","lat":"22.231329","long":"113.941766","street":"嶼南道","fare":"13.6","fareHoliday":"21.9"},{"id":"248","name":"長沙大橋","lat":"22.233979","long":"113.947366","street":"嶼南道","fare":"13.6","fareHoliday":"21.9"},{"id":"249","name":"蝶崗","lat":"22.235062","long":"113.949298","street":"嶼南道","fare":"13.6","fareHoliday":"21.9"},{"id":"250","name":"麗濱別墅","lat":"22.236472","long":"113.951424","street":"嶼南道","fare":"13.6","fareHoliday":"21.9"},{"id":"251","name":"長沙消防局","lat":"22.236803","long":"113.955434","street":"嶼南道","fare":"13.6","fareHoliday":"21.9"},{"id":"252","name":"長沙下村","lat":"22.234965","long":"113.957170","street":"嶼南道","fare":"13.6","fareHoliday":"21.9"},{"id":"253","name":"長沙警署","lat":"22.233964","long":"113.960174","street":"嶼南道","fare":"13.6","fareHoliday":"21.9"},{"id":"254","name":"長沙上村","lat":"22.235330","long":"113.961547","street":"嶼南道","fare":"13.6","fareHoliday":"21.9"},{"id":"255","name":"散石灣迴旋處","lat":"22.236727","long":"113.962424","street":"嶼南道","fare":"13.6","fareHoliday":"21.9"},{"id":"179","name":"東涌道","lat":"22.237918","long":"113.962920","street":"嶼南道","fare":"13.6","fareHoliday":"21.9"},{"id":"64","name":"長沙引水道","lat":"22.239814","long":"113.957216","street":"東涌道","fare":"13.6","fareHoliday":"21.9"},{"id":"65","name":"伯公坳","lat":"22.248054","long":"113.943139","street":"東涌道","fare":"13.6","fareHoliday":"21.9"},{"id":"66","name":"東涌坳管理站","lat":"22.264006","long":"113.937155","street":"東涌道","fare":"13.6","fareHoliday":"21.9"},{"id":"67","name":"十八區墳場","lat":"22.265466","long":"113.936463","street":"東涌道","fare":"13.6","fareHoliday":"21.9"},{"id":"68","name":"石門甲道","lat":"22.269918","long":"113.934243","street":"東涌道","fare":"9.7","fareHoliday":"14.2"},{"id":"69","name":"龍井頭","lat":"22.275975","long":"113.933377","street":"東涌道","fare":"9.7","fareHoliday":"14.2"},{"id":"70","name":"黃家圍","lat":"22.277162","long":"113.933812","street":"東涌道","fare":"9.7","fareHoliday":"14.2"},{"id":"71","name":"下嶺皮","lat":"22.278731","long":"113.935475","street":"東涌道","fare":"9.7","fareHoliday":"14.2"},{"id":"72","name":"上嶺皮","lat":"22.278912","long":"113.936856","street":"東涌道","fare":"9.7","fareHoliday":"14.2"},{"id":"73","name":"東涌鄉事委員會","lat":"22.279138","long":"113.939299","street":"東涌道","fare":"9.7","fareHoliday":"14.2"},{"id":"74","name":"馬灣新村","lat":"22.279865","long":"113.940243","street":"松仁路","fare":"9.7","fareHoliday":"14.2"},{"id":"77","name":"東涌消防局","lat":"22.286030","long":"113.941057","street":"順東路","fare":"6.5","fareHoliday":"10.2"},{"id":"78","name":"東涌纜車站","lat":"22.289301","long":"113.938733","street":"達東路","fare":"6.5","fareHoliday":"10.2"},{"id":"79","name":"東涌站巴士總站","lat":"22.289862","long":"113.939616","street":"達東路","fare":"6.5","fareHoliday":"10.2"},{"id":"114","name":"飛機燃料庫","lat":"22.293584","long":"113.932129","street":"觀景路","fare":"6.5","fareHoliday":"10.2"},{"id":"115","name":"國泰城","lat":"22.297546","long":"113.932814","street":"觀景路","fare":"6.5","fareHoliday":"10.2"},{"id":"116","name":"二號檢查閘","lat":"22.310535","long":"113.937107","street":"暢連路","fare":"6.5","fareHoliday":"10.2"},{"id":"117","name":"機場(客運大樓)","lat":"22.314569","long":"113.936610","street":"暢達路","fare":"6.5","fareHoliday":"10.2"},{"id":"335","name":"航天城交通總匯","lat":"22.316811","long":"113.941627","street":"航天城","fare":"6.5","fareHoliday":"10.2"},{"id":"308","name":"大橋香港口岸旅檢大樓","lat":"22.317211","long":"113.950531","street":"大橋香港口岸","fare":"6.5","fareHoliday":"10.2"},{"id":"313","name":"大橋香港口岸","lat":"22.316400","long":"113.950856","street":"大橋香港口岸 (抵港層)","fare":"0.0","fareHoliday":"0.0"}],"routeId":"90","description":"正常班次"},{"company":"nlb","route":"A35","routeType":null,"dir":null,"orig":"大橋香港口岸","dest":"梅窩碼頭","stopList":[{"id":"307","name":"大橋香港口岸","lat":"22.316400","long":"113.950856","street":"大橋香港口岸 (抵港層)","fare":"20.0","fareHoliday":"32.4"},{"id":"117","name":"機場(客運大樓)","lat":"22.314569","long":"113.936610","street":"暢達路","fare":"17.8","fareHoliday":"30.0"},{"id":"118","name":"暢達路","lat":"22.316236","long":"113.935948","street":"暢達路","fare":"17.8","fareHoliday":"30.0"},{"id":"120","name":"富豪機場酒店","lat":"22.319430","long":"113.933942","street":"暢達路","fare":"17.8","fareHoliday":"30.0"},{"id":"335","name":"航天城交通總匯","lat":"22.316811","long":"113.941627","street":"航天城","fare":"17.8","fareHoliday":"30.0"},{"id":"274","name":"國泰城","lat":"22.297555","long":"113.933360","street":"觀景路","fare":"17.8","fareHoliday":"30.0"},{"id":"277","name":"飛機燃料庫","lat":"22.293075","long":"113.932229","street":"觀景路","fare":"17.8","fareHoliday":"30.0"},{"id":"78","name":"東涌纜車站","lat":"22.289301","long":"113.938733","street":"達東路","fare":"13.4","fareHoliday":"22.1"},{"id":"79","name":"東涌站巴士總站","lat":"22.289862","long":"113.939616","street":"達東路","fare":"13.4","fareHoliday":"22.1"},{"id":"80","name":"富東廣場","lat":"22.288870","long":"113.942105","street":"達東路","fare":"13.4","fareHoliday":"22.1"},{"id":"81","name":"裕東苑","lat":"22.286077","long":"113.941603","street":"順東路","fare":"13.4","fareHoliday":"22.1"},{"id":"90","name":"裕泰苑","lat":"22.280565","long":"113.941064","street":"東涌道","fare":"13.4","fareHoliday":"22.1"},{"id":"94","name":"東涌鄉事委員會","lat":"22.278936","long":"113.938795","street":"東涌道","fare":"13.4","fareHoliday":"22.1"},{"id":"279","name":"上嶺皮","lat":"22.278792","long":"113.937148","street":"東涌道","fare":"13.4","fareHoliday":"22.1"},{"id":"280","name":"下嶺皮","lat":"22.278512","long":"113.935423","street":"東涌道","fare":"13.4","fareHoliday":"22.1"},{"id":"282","name":"黃家圍","lat":"22.277038","long":"113.933975","street":"東涌道","fare":"13.4","fareHoliday":"22.1"},{"id":"283","name":"龍井頭","lat":"22.275707","long":"113.933707","street":"東涌道","fare":"13.4","fareHoliday":"22.1"},{"id":"284","name":"石門甲道","lat":"22.270470","long":"113.934465","street":"東涌道","fare":"13.4","fareHoliday":"22.1"},{"id":"286","name":"十八區墳場","lat":"22.265678","long":"113.936740","street":"東涌道","fare":"13.4","fareHoliday":"22.1"},{"id":"287","name":"東涌坳管理站","lat":"22.264104","long":"113.937552","street":"東涌道","fare":"13.4","fareHoliday":"22.1"},{"id":"288","name":"伯公坳","lat":"22.248939","long":"113.942597","street":"東涌道","fare":"13.4","fareHoliday":"22.1"},{"id":"273","name":"長沙引水道","lat":"22.240007","long":"113.957339","street":"東涌道","fare":"13.4","fareHoliday":"22.1"},{"id":"83","name":"散石灣迴旋處","lat":"22.236544","long":"113.962550","street":"嶼南道","fare":"13.4","fareHoliday":"22.1"},{"id":"19","name":"長沙上村","lat":"22.235238","long":"113.961739","street":"嶼南道","fare":"13.4","fareHoliday":"22.1"},{"id":"20","name":"長沙警署","lat":"22.233772","long":"113.960211","street":"嶼南道","fare":"13.4","fareHoliday":"22.1"},{"id":"21","name":"長沙下村","lat":"22.234787","long":"113.957232","street":"嶼南道","fare":"13.4","fareHoliday":"22.1"},{"id":"22","name":"長沙消防局","lat":"22.236632","long":"113.954349","street":"嶼南道","fare":"13.4","fareHoliday":"22.1"},{"id":"23","name":"麗濱別墅","lat":"22.236217","long":"113.951916","street":"嶼南道","fare":"13.4","fareHoliday":"22.1"},{"id":"24","name":"蝶崗","lat":"22.234540","long":"113.948841","street":"嶼南道","fare":"13.4","fareHoliday":"22.1"},{"id":"25","name":"長沙大橋","lat":"22.233389","long":"113.946977","street":"嶼南道","fare":"13.4","fareHoliday":"22.1"},{"id":"26","name":"上長沙泳灘","lat":"22.230877","long":"113.941525","street":"嶼南道","fare":"13.4","fareHoliday":"22.1"},{"id":"27","name":"塘福海灘","lat":"22.228509","long":"113.935339","street":"嶼南道","fare":"13.4","fareHoliday":"22.1"},{"id":"28","name":"塘福村","lat":"22.227565","long":"113.932706","street":"嶼南道","fare":"7.3","fareHoliday":"15.0"},{"id":"246","name":"塘福海灘","lat":"22.228941","long":"113.935944","street":"嶼南道","fare":"7.3","fareHoliday":"15.0"},{"id":"247","name":"上長沙泳灘","lat":"22.231329","long":"113.941766","street":"嶼南道","fare":"7.3","fareHoliday":"15.0"},{"id":"248","name":"長沙大橋","lat":"22.233979","long":"113.947366","street":"嶼南道","fare":"7.3","fareHoliday":"15.0"},{"id":"249","name":"蝶崗","lat":"22.235062","long":"113.949298","street":"嶼南道","fare":"5.6","fareHoliday":"8.1"},{"id":"250","name":"麗濱別墅","lat":"22.236472","long":"113.951424","street":"嶼南道","fare":"5.6","fareHoliday":"8.1"},{"id":"251","name":"長沙消防局","lat":"22.236803","long":"113.955434","street":"嶼南道","fare":"5.6","fareHoliday":"8.1"},{"id":"252","name":"長沙下村","lat":"22.234965","long":"113.957170","street":"嶼南道","fare":"5.6","fareHoliday":"8.1"},{"id":"253","name":"長沙警署","lat":"22.233964","long":"113.960174","street":"嶼南道","fare":"5.6","fareHoliday":"8.1"},{"id":"254","name":"長沙上村","lat":"22.235330","long":"113.961547","street":"嶼南道","fare":"5.6","fareHoliday":"8.1"},{"id":"255","name":"散石灣迴旋處","lat":"22.236727","long":"113.962424","street":"嶼南道","fare":"5.6","fareHoliday":"8.1"},{"id":"256","name":"女青年會梁紹榮度假村","lat":"22.237768","long":"113.963973","street":"嶼南道","fare":"5.6","fareHoliday":"8.1"},{"id":"257","name":"散石灣村","lat":"22.239024","long":"113.966526","street":"嶼南道","fare":"5.6","fareHoliday":"8.1"},{"id":"258","name":"散石灣中蘆","lat":"22.241255","long":"113.968666","street":"嶼南道","fare":"5.6","fareHoliday":"8.1"},{"id":"259","name":"羅屋村","lat":"22.243375","long":"113.974832","street":"嶼南道","fare":"4.4","fareHoliday":"6.7"},{"id":"260","name":"新圍村","lat":"22.243476","long":"113.977322","street":"嶼南道","fare":"4.4","fareHoliday":"6.7"},{"id":"261","name":"老圍村","lat":"22.244440","long":"113.979000","street":"嶼南道","fare":"4.4","fareHoliday":"6.7"},{"id":"262","name":"貝澳油站","lat":"22.247501","long":"113.980770","street":"嶼南道","fare":"4.4","fareHoliday":"6.7"},{"id":"263","name":"太古職員宿舍","lat":"22.252120","long":"113.984745","street":"嶼南道","fare":"4.4","fareHoliday":"6.7"},{"id":"264","name":"南山營地","lat":"22.256067","long":"113.987470","street":"嶼南道","fare":"4.4","fareHoliday":"6.7"},{"id":"265","name":"南山三屋村","lat":"22.257327","long":"113.989901","street":"嶼南道","fare":"4.4","fareHoliday":"6.7"},{"id":"56","name":"禮智園墳場","lat":"22.259327","long":"113.993993","street":"嶼南道","fare":"4.4","fareHoliday":"6.7"},{"id":"266","name":"荔枝園","lat":"22.260667","long":"113.996268","street":"嶼南道","fare":"4.4","fareHoliday":"6.7"},{"id":"57","name":"梅窩警署","lat":"22.264093","long":"113.998906","street":"嶼南道","fare":"4.4","fareHoliday":"6.7"},{"id":"2","name":"梅窩熟食市場","lat":"22.266143","long":"114.000049","street":"銀礦灣道","fare":"4.4","fareHoliday":"6.7"},{"id":"3","name":"銀灣邨","lat":"22.265406","long":"113.997074","street":"銀礦灣道","fare":"4.4","fareHoliday":"6.7"},{"id":"4","name":"梅窩街市","lat":"22.266759","long":"113.996999","street":"銀石街","fare":"4.4","fareHoliday":"6.7"},{"id":"5","name":"銀景中心","lat":"22.265537","long":"113.996965","street":"銀礦灣道","fare":"4.4","fareHoliday":"6.7"},{"id":"305","name":"梅窩碼頭","lat":"22.264664","long":"114.001554","street":"梅窩碼頭","fare":"0.0","fareHoliday":"0.0"}],"routeId":"91","description":"正常班次"}]