[{"company":"kmb","route":"A38","routeType":"1","dir":"O","orig":"荃灣(荃威花園)","dest":"機場(地面運輸中心)","stopList":[{"id":"6D12ACD9163EDD99","name":"荃威花園總站","lat":"22.377318","long":"114.103988"},{"id":"2C9BABEC2D1F04A3","name":"荃景圍街市","lat":"22.378249","long":"114.104608"},{"id":"5834E2A330B9C3F4","name":"荃灣中心","lat":"22.378619","long":"114.107064"},{"id":"4970D7BEAE2A7422","name":"荃景花園第二期","lat":"22.377698","long":"114.110250"},{"id":"1D7A47D38CE1E6D7","name":"荃景圍天橋","lat":"22.375396","long":"114.108571"},{"id":"D388EAE9181708D7","name":"柴灣角街","lat":"22.374766","long":"114.105738"},{"id":"09141DBE74259A87","name":"麗城花園第三期","lat":"22.372105","long":"114.103000"},{"id":"6D6DCAA9E6584422","name":"灣景花園","lat":"22.369482","long":"114.100274"},{"id":"9FFB27C9E799FDC9","name":"翠景臺","lat":"22.368271","long":"114.097510"},{"id":"0932BC34DBEAA8CD","name":"油柑頭","lat":"22.368158","long":"114.093487"},{"id":"B0F54576BC1B2CF2","name":"近水灣","lat":"22.367554","long":"114.088408"},{"id":"513616D2281F7EBD","name":"南山游泳會","lat":"22.368146","long":"114.084788"},{"id":"2BDB4CC59A344CA3","name":"汀九","lat":"22.370222","long":"114.079601"},{"id":"48F4A12FBE9186E3","name":"麗都灣","lat":"22.368283","long":"114.075610"},{"id":"47E8177BC55580BC","name":"海美灣","lat":"22.364430","long":"114.069942"},{"id":"5A2A66038B409879","name":"深井深慈街","lat":"22.366847","long":"114.063327"},{"id":"040BF3E98E34C65C","name":"青龍頭村","lat":"22.361500","long":"114.046195"},{"id":"5D54365755195601","name":"浪翠園第四期","lat":"22.362370","long":"114.050728"},{"id":"2BBF7E74B792F4D9","name":"浪翠園第三期","lat":"22.364022","long":"114.054374"},{"id":"B70D89DFA52011DB","name":"馬灣碼頭","lat":"22.365504","long":"114.056578"},{"id":"A68800ABF9DC075B","name":"深井村","lat":"22.367137","long":"114.059220"},{"id":"1684F750FEB1342E","name":"海韻花園","lat":"22.367790","long":"114.061396"},{"id":"412DEEF534E127AF","name":"青嶼幹線轉車站 (A1)","lat":"22.338302","long":"114.042190"},{"id":"C552CE565E1F0C85","name":"一號客運大樓 (落客站)","lat":"22.315047","long":"113.936362"},{"id":"0D5759F7A4B185FE","name":"港珠澳大橋旅檢大樓 (落客站)","lat":"22.317083","long":"113.950041"},{"id":"21466046C6868AA7","name":"機場(地面運輸中心)巴士總站","lat":"22.312604","long":"113.937526"}],"routeId":"A38","description":"正常班次"},{"company":"kmb","route":"A38","routeType":"1","dir":"I","orig":"機場(地面運輸中心)","dest":"荃灣(荃威花園)","stopList":[{"id":"5E1FA939586B3FD1","name":"機場(地面運輸中心)巴士總站","lat":"22.313370","long":"113.937786"},{"id":"28E722A4FDD9ABB9","name":"青嶼幹線轉車站 (N5)","lat":"22.339065","long":"114.041670"},{"id":"5476E155980E85F9","name":"碧堤半島","lat":"22.367546","long":"114.061441"},{"id":"03DF3BB7102FE4A4","name":"深井村","lat":"22.366953","long":"114.059303"},{"id":"64046AF19443F736","name":"馬灣碼頭","lat":"22.365339","long":"114.056712"},{"id":"EEE72EA029EB8438","name":"浪翠園第三期","lat":"22.363686","long":"114.054381"},{"id":"D85C3A15814F927B","name":"浪翠園第四期","lat":"22.362704","long":"114.051520"},{"id":"040BF3E98E34C65C","name":"青龍頭村","lat":"22.361500","long":"114.046195"},{"id":"DDEF448B9FD8E0A5","name":"深井深慈街","lat":"22.367276","long":"114.062922"},{"id":"A494158699C58BFF","name":"海美灣","lat":"22.364475","long":"114.069412"},{"id":"9B876C4A7054DCF5","name":"麗都灣","lat":"22.367866","long":"114.074360"},{"id":"E2385520ADCFC607","name":"汀九","lat":"22.370444","long":"114.079344"},{"id":"6F36400A6E1FBE49","name":"南山游泳會","lat":"22.368788","long":"114.083875"},{"id":"B78CDC6E85060BE4","name":"金麗苑","lat":"22.367866","long":"114.091415"},{"id":"BF876DC97B6395D2","name":"油柑頭","lat":"22.368222","long":"114.092191"},{"id":"177F8A8A3716DBE0","name":"翠景臺","lat":"22.368511","long":"114.096612"},{"id":"66EA5E4B2C7CAE82","name":"灣景花園","lat":"22.369262","long":"114.099514"},{"id":"98A787294A2089F6","name":"麗城花園第三期","lat":"22.371767","long":"114.101011"},{"id":"9FE135F7D7D377E6","name":"麗城花園第一期","lat":"22.373295","long":"114.103022"},{"id":"B7F443B0BB14A4EC","name":"荃景圍天橋","lat":"22.375778","long":"114.107100"},{"id":"BD67BA334834CACB","name":"美環街","lat":"22.376345","long":"114.110501"},{"id":"6FF0624000B3D53D","name":"荃景花園","lat":"22.378110","long":"114.109520"},{"id":"982E419BB26ED8AA","name":"荃灣中心","lat":"22.378635","long":"114.108257"},{"id":"8F60B176234176D8","name":"聖母領報堂","lat":"22.377067","long":"114.105443"},{"id":"431CFBCADDFF352C","name":"荃灣港安醫院","lat":"22.376212","long":"114.104470"}],"routeId":"A38","description":"正常班次"}]