[{"company":"kmb","route":"A41P","routeType":"1","dir":"O","orig":"烏溪沙站","dest":"機場(地面運輸中心)","stopList":[{"id":"BA72214DFE48AA86","name":"烏溪沙站 (MA982)","lat":"22.428334","long":"114.244021"},{"id":"6E42FB38EBBE1C42","name":"利安邨 (MA164)","lat":"22.427450","long":"114.240590"},{"id":"118212ABD14E1580","name":"錦龍苑 (MA330)","lat":"22.425883","long":"114.239790"},{"id":"EEF73B5695D2AB0F","name":"錦英苑 (MA334)","lat":"22.423795","long":"114.238721"},{"id":"0AA7219BB2418438","name":"新港城 (MA114)","lat":"22.422699","long":"114.232890"},{"id":"844648D1EDB4A4CD","name":"馬鞍山市中心 (MA306)","lat":"22.424520","long":"114.231475"},{"id":"3DD89EF20A237A4C","name":"福安花園 (MA313)","lat":"22.423372","long":"114.228570"},{"id":"24CD3B0F3389F822","name":"耀安邨總站 (MA933)","lat":"22.419327","long":"114.229671"},{"id":"5EDA0C1BE5CE95CF","name":"頌安邨 (MA316)","lat":"22.420657","long":"114.227166"},{"id":"424003F7939E9F01","name":"錦鞍苑 (MA322)","lat":"22.418719","long":"114.226396"},{"id":"4EFF1135BD93EE9E","name":"保泰街 (MA343)","lat":"22.413953","long":"114.223658"},{"id":"F88D7720B4F389B0","name":"德信中學 (MA351)","lat":"22.410689","long":"114.221549"},{"id":"FA141FB0FF048F32","name":"錦泰苑 (MA357)","lat":"22.407972","long":"114.220132"},{"id":"FBE33E1EA7BA6051","name":"富安巴士總站 (MA905)","lat":"22.405335","long":"114.223935"},{"id":"DCDF76EA791EDED7","name":"亞公角 (MA400)","lat":"22.402195","long":"114.215962"},{"id":"6E2A182F0DD98D48","name":"沙田醫院 (MA405)","lat":"22.398865","long":"114.212380"},{"id":"51E6C8BD0176D660","name":"石門轉車站-新界鄉議局大樓","lat":"22.391300","long":"114.206304"},{"id":"E757600B79B0B2AC","name":"沙田第一城 (ST506)","lat":"22.388434","long":"114.201784"},{"id":"673B33867260EBB7","name":"青沙公路轉車站 (A4) (TA752)","lat":"22.358523","long":"114.163314"},{"id":"412DEEF534E127AF","name":"青嶼幹線轉車站 (A1) (TW606)","lat":"22.338302","long":"114.042190"},{"id":"C552CE565E1F0C85","name":"一號客運大樓 (落客站)","lat":"22.315047","long":"113.936362"},{"id":"0D5759F7A4B185FE","name":"港珠澳大橋旅檢大樓 (落客站)","lat":"22.317083","long":"113.950041"},{"id":"21466046C6868AA7","name":"機場(地面運輸中心)巴士總站","lat":"22.312604","long":"113.937526"}],"routeId":"A41P","description":"正常班次"},{"company":"kmb","route":"A41P","routeType":"2","dir":"O","orig":"烏溪沙站","dest":"機場(地面運輸中心)","stopList":[{"id":"BA72214DFE48AA86","name":"烏溪沙站 (MA982)","lat":"22.428334","long":"114.244021"},{"id":"6E42FB38EBBE1C42","name":"利安邨 (MA164)","lat":"22.427450","long":"114.240590"},{"id":"118212ABD14E1580","name":"錦龍苑 (MA330)","lat":"22.425883","long":"114.239790"},{"id":"EEF73B5695D2AB0F","name":"錦英苑 (MA334)","lat":"22.423795","long":"114.238721"},{"id":"0AA7219BB2418438","name":"新港城 (MA114)","lat":"22.422699","long":"114.232890"},{"id":"844648D1EDB4A4CD","name":"馬鞍山市中心 (MA306)","lat":"22.424520","long":"114.231475"},{"id":"3DD89EF20A237A4C","name":"福安花園 (MA313)","lat":"22.423372","long":"114.228570"},{"id":"24CD3B0F3389F822","name":"耀安邨總站 (MA933)","lat":"22.419327","long":"114.229671"},{"id":"5EDA0C1BE5CE95CF","name":"頌安邨 (MA316)","lat":"22.420657","long":"114.227166"},{"id":"424003F7939E9F01","name":"錦鞍苑 (MA322)","lat":"22.418719","long":"114.226396"},{"id":"4EFF1135BD93EE9E","name":"保泰街 (MA343)","lat":"22.413953","long":"114.223658"},{"id":"F88D7720B4F389B0","name":"德信中學 (MA351)","lat":"22.410689","long":"114.221549"},{"id":"FA141FB0FF048F32","name":"錦泰苑 (MA357)","lat":"22.407972","long":"114.220132"},{"id":"FBE33E1EA7BA6051","name":"富安巴士總站 (MA905)","lat":"22.405335","long":"114.223935"},{"id":"DCDF76EA791EDED7","name":"亞公角 (MA400)","lat":"22.402195","long":"114.215962"},{"id":"6E2A182F0DD98D48","name":"沙田醫院 (MA405)","lat":"22.398865","long":"114.212380"},{"id":"51E6C8BD0176D660","name":"石門轉車站-新界鄉議局大樓","lat":"22.391300","long":"114.206304"},{"id":"E757600B79B0B2AC","name":"沙田第一城 (ST506)","lat":"22.388434","long":"114.201784"},{"id":"673B33867260EBB7","name":"青沙公路轉車站 (A4) (TA752)","lat":"22.358523","long":"114.163314"},{"id":"412DEEF534E127AF","name":"青嶼幹線轉車站 (A1) (TW606)","lat":"22.338302","long":"114.042190"},{"id":"C552CE565E1F0C85","name":"一號客運大樓 (落客站)","lat":"22.315047","long":"113.936362"},{"id":"9C9F817064169CE7","name":"機場博覽館 (CL320)","lat":"22.319407","long":"113.940447"},{"id":"E48E4C46F64FFB0E","name":"航天城交匯處 (CL326)","lat":"22.317172","long":"113.943407"},{"id":"0D5759F7A4B185FE","name":"港珠澳大橋旅檢大樓 (落客站)","lat":"22.317083","long":"113.950041"},{"id":"21466046C6868AA7","name":"機場(地面運輸中心)巴士總站","lat":"22.312604","long":"113.937526"}],"routeId":"A41P","description":"特別班次"},{"company":"kmb","route":"A41P","routeType":"3","dir":"O","orig":"西沙灣交通交匯處","dest":"機場(地面運輸中心)","stopList":[{"id":"74775F172FABD878","name":"西沙灣交通交匯處 (SK981)","lat":"22.426392","long":"114.267035"},{"id":"7E289B9FFDF77CAE","name":"田寮 (SK217a)","lat":"22.425600","long":"114.262500"},{"id":"6F03615DDC0F7502","name":"輋下 (SK218a)","lat":"22.427976","long":"114.261308"},{"id":"DB78ADF2386771E5","name":"西澳 (SK219a)","lat":"22.430732","long":"114.254147"},{"id":"A39754C80FFB1590","name":"樟木頭帝琴灣 (SK221a)","lat":"22.430095","long":"114.251168"},{"id":"BA72214DFE48AA86","name":"烏溪沙站 (MA982)","lat":"22.428334","long":"114.244021"},{"id":"6E42FB38EBBE1C42","name":"利安邨 (MA164)","lat":"22.427450","long":"114.240590"},{"id":"118212ABD14E1580","name":"錦龍苑 (MA330)","lat":"22.425883","long":"114.239790"},{"id":"EEF73B5695D2AB0F","name":"錦英苑 (MA334)","lat":"22.423795","long":"114.238721"},{"id":"0AA7219BB2418438","name":"新港城 (MA114)","lat":"22.422699","long":"114.232890"},{"id":"844648D1EDB4A4CD","name":"馬鞍山市中心 (MA306)","lat":"22.424520","long":"114.231475"},{"id":"3DD89EF20A237A4C","name":"福安花園 (MA313)","lat":"22.423372","long":"114.228570"},{"id":"24CD3B0F3389F822","name":"耀安邨總站 (MA933)","lat":"22.419327","long":"114.229671"},{"id":"5EDA0C1BE5CE95CF","name":"頌安邨 (MA316)","lat":"22.420657","long":"114.227166"},{"id":"424003F7939E9F01","name":"錦鞍苑 (MA322)","lat":"22.418719","long":"114.226396"},{"id":"4EFF1135BD93EE9E","name":"保泰街 (MA343)","lat":"22.413953","long":"114.223658"},{"id":"F88D7720B4F389B0","name":"德信中學 (MA351)","lat":"22.410689","long":"114.221549"},{"id":"FA141FB0FF048F32","name":"錦泰苑 (MA357)","lat":"22.407972","long":"114.220132"},{"id":"FBE33E1EA7BA6051","name":"富安巴士總站 (MA905)","lat":"22.405335","long":"114.223935"},{"id":"DCDF76EA791EDED7","name":"亞公角 (MA400)","lat":"22.402195","long":"114.215962"},{"id":"6E2A182F0DD98D48","name":"沙田醫院 (MA405)","lat":"22.398865","long":"114.212380"},{"id":"51E6C8BD0176D660","name":"石門轉車站-新界鄉議局大樓","lat":"22.391300","long":"114.206304"},{"id":"E757600B79B0B2AC","name":"沙田第一城 (ST506)","lat":"22.388434","long":"114.201784"},{"id":"673B33867260EBB7","name":"青沙公路轉車站 (A4) (TA752)","lat":"22.358523","long":"114.163314"},{"id":"412DEEF534E127AF","name":"青嶼幹線轉車站 (A1) (TW606)","lat":"22.338302","long":"114.042190"},{"id":"C552CE565E1F0C85","name":"一號客運大樓 (落客站)","lat":"22.315047","long":"113.936362"},{"id":"0D5759F7A4B185FE","name":"港珠澳大橋旅檢大樓 (落客站)","lat":"22.317083","long":"113.950041"},{"id":"21466046C6868AA7","name":"機場(地面運輸中心)巴士總站","lat":"22.312604","long":"113.937526"}],"routeId":"A41P","description":"特別班次"},{"company":"kmb","route":"A41P","routeType":"1","dir":"I","orig":"機場(地面運輸中心)","dest":"烏溪沙站","stopList":[{"id":"CFDE62B6C9EDE114","name":"機場(地面運輸中心)巴士總站","lat":"22.314039","long":"113.937235"},{"id":"A7378EEEBFA0C76C","name":"港珠澳大橋香港口岸 (E7)","lat":"22.315761","long":"113.950402"},{"id":"0879D399E5B5FE0C","name":"青嶼幹線轉車站 (N2) (TW705)","lat":"22.339065","long":"114.041670"},{"id":"897B26110ECE76B3","name":"青沙公路轉車站 (B5) (TA292)","lat":"22.360430","long":"114.162826"},{"id":"727AA8B21AB74300","name":"沙田第一城 (ST145)","lat":"22.389541","long":"114.203506"},{"id":"582EA09A77D20CC3","name":"石門轉車站 - 濱景花園 (ST149)","lat":"22.391533","long":"114.206093"},{"id":"04543155BFC77A1B","name":"沙田醫院 (MA102)","lat":"22.399853","long":"114.213088"},{"id":"6F03E19C5E800893","name":"亞公角 (MA105)","lat":"22.402759","long":"114.216742"},{"id":"7FDBE1ABD7231657","name":"富安巴士總站 (MA901)","lat":"22.405528","long":"114.224213"},{"id":"B86B05AB0F82C94E","name":"錦泰苑 (MA132)","lat":"22.408812","long":"114.220636"},{"id":"1BD5318E1C647F83","name":"德信中學 (MA133)","lat":"22.410914","long":"114.221406"},{"id":"CE813C1E1A72C7B0","name":"海典灣 (MA135)","lat":"22.414386","long":"114.222345"},{"id":"297B262BF8D00544","name":"聽濤雅苑 (MA152)","lat":"22.419070","long":"114.226093"},{"id":"A6424D59E135C4EC","name":"頌安邨 (MA153)","lat":"22.420741","long":"114.226763"},{"id":"24CD3B0F3389F822","name":"耀安邨總站 (MA933)","lat":"22.419327","long":"114.229671"},{"id":"040478A068F3E0EB","name":"福安花園 (MA156)","lat":"22.423857","long":"114.228573"},{"id":"8EB192ED041A8459","name":"海栢花園 (MA158)","lat":"22.425049","long":"114.231666"},{"id":"1E04D9D97DE148C2","name":"馬鞍山警署 (MA181)","lat":"22.422348","long":"114.232940"},{"id":"507E8F5167002BC5","name":"錦英苑 (MA191)","lat":"22.423979","long":"114.238460"},{"id":"362D0188DD0985FF","name":"錦龍苑 (MA194)","lat":"22.426019","long":"114.239450"},{"id":"A90443FD0C19C4B1","name":"利安邨 (MA163)","lat":"22.427627","long":"114.240415"},{"id":"BA72214DFE48AA86","name":"烏溪沙站 (MA982)","lat":"22.428334","long":"114.244021"}],"routeId":"A41P","description":"正常班次"},{"company":"kmb","route":"A41P","routeType":"2","dir":"I","orig":"機場(地面運輸中心)","dest":"烏溪沙站","stopList":[{"id":"CFDE62B6C9EDE114","name":"機場(地面運輸中心)巴士總站","lat":"22.314039","long":"113.937235"},{"id":"9C9F817064169CE7","name":"機場博覽館 (CL320)","lat":"22.319407","long":"113.940447"},{"id":"E48E4C46F64FFB0E","name":"航天城交匯處 (CL326)","lat":"22.317172","long":"113.943407"},{"id":"A7378EEEBFA0C76C","name":"港珠澳大橋香港口岸 (E7)","lat":"22.315761","long":"113.950402"},{"id":"0879D399E5B5FE0C","name":"青嶼幹線轉車站 (N2) (TW705)","lat":"22.339065","long":"114.041670"},{"id":"897B26110ECE76B3","name":"青沙公路轉車站 (B5) (TA292)","lat":"22.360430","long":"114.162826"},{"id":"727AA8B21AB74300","name":"沙田第一城 (ST145)","lat":"22.389541","long":"114.203506"},{"id":"582EA09A77D20CC3","name":"石門轉車站 - 濱景花園 (ST149)","lat":"22.391533","long":"114.206093"},{"id":"04543155BFC77A1B","name":"沙田醫院 (MA102)","lat":"22.399853","long":"114.213088"},{"id":"6F03E19C5E800893","name":"亞公角 (MA105)","lat":"22.402759","long":"114.216742"},{"id":"7FDBE1ABD7231657","name":"富安巴士總站 (MA901)","lat":"22.405528","long":"114.224213"},{"id":"B86B05AB0F82C94E","name":"錦泰苑 (MA132)","lat":"22.408812","long":"114.220636"},{"id":"1BD5318E1C647F83","name":"德信中學 (MA133)","lat":"22.410914","long":"114.221406"},{"id":"CE813C1E1A72C7B0","name":"海典灣 (MA135)","lat":"22.414386","long":"114.222345"},{"id":"297B262BF8D00544","name":"聽濤雅苑 (MA152)","lat":"22.419070","long":"114.226093"},{"id":"A6424D59E135C4EC","name":"頌安邨 (MA153)","lat":"22.420741","long":"114.226763"},{"id":"24CD3B0F3389F822","name":"耀安邨總站 (MA933)","lat":"22.419327","long":"114.229671"},{"id":"040478A068F3E0EB","name":"福安花園 (MA156)","lat":"22.423857","long":"114.228573"},{"id":"8EB192ED041A8459","name":"海栢花園 (MA158)","lat":"22.425049","long":"114.231666"},{"id":"1E04D9D97DE148C2","name":"馬鞍山警署 (MA181)","lat":"22.422348","long":"114.232940"},{"id":"507E8F5167002BC5","name":"錦英苑 (MA191)","lat":"22.423979","long":"114.238460"},{"id":"362D0188DD0985FF","name":"錦龍苑 (MA194)","lat":"22.426019","long":"114.239450"},{"id":"A90443FD0C19C4B1","name":"利安邨 (MA163)","lat":"22.427627","long":"114.240415"},{"id":"BA72214DFE48AA86","name":"烏溪沙站 (MA982)","lat":"22.428334","long":"114.244021"}],"routeId":"A41P","description":"特別班次"},{"company":"kmb","route":"A41P","routeType":"3","dir":"I","orig":"機場(地面運輸中心)","dest":"西沙灣交通交匯處","stopList":[{"id":"CFDE62B6C9EDE114","name":"機場(地面運輸中心)巴士總站","lat":"22.314039","long":"113.937235"},{"id":"9C9F817064169CE7","name":"機場博覽館 (CL320)","lat":"22.319407","long":"113.940447"},{"id":"E48E4C46F64FFB0E","name":"航天城交匯處 (CL326)","lat":"22.317172","long":"113.943407"},{"id":"A7378EEEBFA0C76C","name":"港珠澳大橋香港口岸 (E7)","lat":"22.315761","long":"113.950402"},{"id":"0879D399E5B5FE0C","name":"青嶼幹線轉車站 (N2) (TW705)","lat":"22.339065","long":"114.041670"},{"id":"897B26110ECE76B3","name":"青沙公路轉車站 (B5) (TA292)","lat":"22.360430","long":"114.162826"},{"id":"727AA8B21AB74300","name":"沙田第一城 (ST145)","lat":"22.389541","long":"114.203506"},{"id":"582EA09A77D20CC3","name":"石門轉車站 - 濱景花園 (ST149)","lat":"22.391533","long":"114.206093"},{"id":"04543155BFC77A1B","name":"沙田醫院 (MA102)","lat":"22.399853","long":"114.213088"},{"id":"6F03E19C5E800893","name":"亞公角 (MA105)","lat":"22.402759","long":"114.216742"},{"id":"7FDBE1ABD7231657","name":"富安巴士總站 (MA901)","lat":"22.405528","long":"114.224213"},{"id":"B86B05AB0F82C94E","name":"錦泰苑 (MA132)","lat":"22.408812","long":"114.220636"},{"id":"1BD5318E1C647F83","name":"德信中學 (MA133)","lat":"22.410914","long":"114.221406"},{"id":"CE813C1E1A72C7B0","name":"海典灣 (MA135)","lat":"22.414386","long":"114.222345"},{"id":"297B262BF8D00544","name":"聽濤雅苑 (MA152)","lat":"22.419070","long":"114.226093"},{"id":"A6424D59E135C4EC","name":"頌安邨 (MA153)","lat":"22.420741","long":"114.226763"},{"id":"24CD3B0F3389F822","name":"耀安邨總站 (MA933)","lat":"22.419327","long":"114.229671"},{"id":"040478A068F3E0EB","name":"福安花園 (MA156)","lat":"22.423857","long":"114.228573"},{"id":"8EB192ED041A8459","name":"海栢花園 (MA158)","lat":"22.425049","long":"114.231666"},{"id":"1E04D9D97DE148C2","name":"馬鞍山警署 (MA181)","lat":"22.422348","long":"114.232940"},{"id":"507E8F5167002BC5","name":"錦英苑 (MA191)","lat":"22.423979","long":"114.238460"},{"id":"362D0188DD0985FF","name":"錦龍苑 (MA194)","lat":"22.426019","long":"114.239450"},{"id":"A90443FD0C19C4B1","name":"利安邨 (MA163)","lat":"22.427627","long":"114.240415"},{"id":"BA72214DFE48AA86","name":"烏溪沙站 (MA982)","lat":"22.428334","long":"114.244021"},{"id":"2C5CA5F47FB6EB3F","name":"樟木頭帝琴灣 (SK300)","lat":"22.430218","long":"114.250966"},{"id":"6B775855F6FB16D9","name":"泥涌 (SK301)","lat":"22.430622","long":"114.256823"},{"id":"40C9465E380F04C5","name":"輋下 (SK302)","lat":"22.428921","long":"114.260874"},{"id":"C67E139743E66D71","name":"馬牯纜 (SK303)","lat":"22.425726","long":"114.262745"},{"id":"8AD4B244D6A50BDB","name":"西沙 GO PARK (SK205)","lat":"22.427029","long":"114.265792"},{"id":"74775F172FABD878","name":"西沙灣交通交匯處 (SK981)","lat":"22.426392","long":"114.267035"}],"routeId":"A41P","description":"特別班次"}]