[{"company":"kmb","route":"A41P","routeType":"1","dir":"O","orig":"烏溪沙站","dest":"機場(地面運輸中心)","stopList":[{"id":"BA72214DFE48AA86","name":"烏溪沙站","lat":"22.428334","long":"114.244021"},{"id":"6E42FB38EBBE1C42","name":"利安邨","lat":"22.427450","long":"114.240590"},{"id":"118212ABD14E1580","name":"錦龍苑","lat":"22.425883","long":"114.239790"},{"id":"EEF73B5695D2AB0F","name":"錦英苑","lat":"22.423795","long":"114.238721"},{"id":"0AA7219BB2418438","name":"新港城","lat":"22.422699","long":"114.232890"},{"id":"844648D1EDB4A4CD","name":"馬鞍山市中心","lat":"22.424520","long":"114.231475"},{"id":"3DD89EF20A237A4C","name":"福安花園","lat":"22.423372","long":"114.228570"},{"id":"8FA84681B967B3E2","name":"耀安邨","lat":"22.419327","long":"114.229671"},{"id":"5EDA0C1BE5CE95CF","name":"頌安邨","lat":"22.420657","long":"114.227166"},{"id":"424003F7939E9F01","name":"錦鞍苑","lat":"22.418719","long":"114.226396"},{"id":"4EFF1135BD93EE9E","name":"保泰街","lat":"22.413953","long":"114.223658"},{"id":"F88D7720B4F389B0","name":"德信中學","lat":"22.410689","long":"114.221549"},{"id":"FA141FB0FF048F32","name":"錦泰苑","lat":"22.407972","long":"114.220132"},{"id":"FBE33E1EA7BA6051","name":"富安巴士總站","lat":"22.405335","long":"114.223935"},{"id":"DCDF76EA791EDED7","name":"亞公角","lat":"22.402195","long":"114.215962"},{"id":"6E2A182F0DD98D48","name":"沙田醫院","lat":"22.398865","long":"114.212380"},{"id":"51E6C8BD0176D660","name":"新界鄉議局大樓","lat":"22.391300","long":"114.206304"},{"id":"E757600B79B0B2AC","name":"沙田第一城","lat":"22.388434","long":"114.201784"},{"id":"412DEEF534E127AF","name":"青嶼幹線轉車站 (A1)","lat":"22.338302","long":"114.042190"},{"id":"C552CE565E1F0C85","name":"一號客運大樓 (落客站)","lat":"22.315047","long":"113.936362"},{"id":"0D5759F7A4B185FE","name":"港珠澳大橋旅檢大樓 (落客站)","lat":"22.317083","long":"113.950041"},{"id":"21466046C6868AA7","name":"機場(地面運輸中心)巴士總站","lat":"22.312604","long":"113.937526"}],"routeId":"A41P","description":"正常班次"},{"company":"kmb","route":"A41P","routeType":"2","dir":"O","orig":"烏溪沙站","dest":"機場(地面運輸中心)","stopList":[{"id":"BA72214DFE48AA86","name":"烏溪沙站","lat":"22.428334","long":"114.244021"},{"id":"6E42FB38EBBE1C42","name":"利安邨","lat":"22.427450","long":"114.240590"},{"id":"118212ABD14E1580","name":"錦龍苑","lat":"22.425883","long":"114.239790"},{"id":"EEF73B5695D2AB0F","name":"錦英苑","lat":"22.423795","long":"114.238721"},{"id":"0AA7219BB2418438","name":"新港城","lat":"22.422699","long":"114.232890"},{"id":"844648D1EDB4A4CD","name":"馬鞍山市中心","lat":"22.424520","long":"114.231475"},{"id":"3DD89EF20A237A4C","name":"福安花園","lat":"22.423372","long":"114.228570"},{"id":"8FA84681B967B3E2","name":"耀安邨","lat":"22.419327","long":"114.229671"},{"id":"5EDA0C1BE5CE95CF","name":"頌安邨","lat":"22.420657","long":"114.227166"},{"id":"424003F7939E9F01","name":"錦鞍苑","lat":"22.418719","long":"114.226396"},{"id":"4EFF1135BD93EE9E","name":"保泰街","lat":"22.413953","long":"114.223658"},{"id":"F88D7720B4F389B0","name":"德信中學","lat":"22.410689","long":"114.221549"},{"id":"FA141FB0FF048F32","name":"錦泰苑","lat":"22.407972","long":"114.220132"},{"id":"FBE33E1EA7BA6051","name":"富安巴士總站","lat":"22.405335","long":"114.223935"},{"id":"DCDF76EA791EDED7","name":"亞公角","lat":"22.402195","long":"114.215962"},{"id":"6E2A182F0DD98D48","name":"沙田醫院","lat":"22.398865","long":"114.212380"},{"id":"51E6C8BD0176D660","name":"新界鄉議局大樓","lat":"22.391300","long":"114.206304"},{"id":"E757600B79B0B2AC","name":"沙田第一城","lat":"22.388434","long":"114.201784"},{"id":"412DEEF534E127AF","name":"青嶼幹線轉車站 (A1)","lat":"22.338302","long":"114.042190"},{"id":"C552CE565E1F0C85","name":"一號客運大樓 (落客站)","lat":"22.315047","long":"113.936362"},{"id":"9C9F817064169CE7","name":"機場博覽館","lat":"22.319407","long":"113.940447"},{"id":"61C957321A4DE4A9","name":"香港天際萬豪酒店","lat":"22.317785","long":"113.943287"},{"id":"E48E4C46F64FFB0E","name":"航天城交匯處","lat":"22.317172","long":"113.943407"},{"id":"0D5759F7A4B185FE","name":"港珠澳大橋旅檢大樓 (落客站)","lat":"22.317083","long":"113.950041"},{"id":"21466046C6868AA7","name":"機場(地面運輸中心)巴士總站","lat":"22.312604","long":"113.937526"}],"routeId":"A41P","description":"特別班次"},{"company":"kmb","route":"A41P","routeType":"1","dir":"I","orig":"機場(地面運輸中心)","dest":"烏溪沙站","stopList":[{"id":"CFDE62B6C9EDE114","name":"機場(地面運輸中心)巴士總站","lat":"22.314039","long":"113.937235"},{"id":"B0851FD6C20D738D","name":"港珠澳大橋香港口岸","lat":"22.315761","long":"113.950402"},{"id":"0879D399E5B5FE0C","name":"青嶼幹線轉車站 (N2)","lat":"22.339065","long":"114.041670"},{"id":"727AA8B21AB74300","name":"沙田第一城","lat":"22.389541","long":"114.203506"},{"id":"582EA09A77D20CC3","name":"濱景花園","lat":"22.391533","long":"114.206093"},{"id":"04543155BFC77A1B","name":"沙田醫院","lat":"22.399853","long":"114.213088"},{"id":"6F03E19C5E800893","name":"亞公角","lat":"22.402759","long":"114.216742"},{"id":"7FDBE1ABD7231657","name":"富安巴士總站","lat":"22.405528","long":"114.224213"},{"id":"B86B05AB0F82C94E","name":"錦泰苑","lat":"22.408812","long":"114.220636"},{"id":"AC515BE42D6D6CBC","name":"德信中學","lat":"22.410657","long":"114.221375"},{"id":"CE813C1E1A72C7B0","name":"海典灣","lat":"22.414386","long":"114.222345"},{"id":"297B262BF8D00544","name":"聽濤雅苑","lat":"22.419070","long":"114.226093"},{"id":"A6424D59E135C4EC","name":"頌安邨","lat":"22.420741","long":"114.226763"},{"id":"8FA84681B967B3E2","name":"耀安邨","lat":"22.419327","long":"114.229671"},{"id":"040478A068F3E0EB","name":"福安花園","lat":"22.423857","long":"114.228573"},{"id":"8EB192ED041A8459","name":"海栢花園","lat":"22.425049","long":"114.231666"},{"id":"14F7E124D3972753","name":"馬鞍山警署","lat":"22.422284","long":"114.232896"},{"id":"473AF4463A49DA24","name":"錦英苑","lat":"22.423941","long":"114.238588"},{"id":"362D0188DD0985FF","name":"錦龍苑","lat":"22.426019","long":"114.239450"},{"id":"4DC840CF3B4B2427","name":"利安邨","lat":"22.427591","long":"114.240211"},{"id":"BA72214DFE48AA86","name":"烏溪沙站","lat":"22.428334","long":"114.244021"}],"routeId":"A41P","description":"正常班次"},{"company":"kmb","route":"A41P","routeType":"2","dir":"I","orig":"機場(地面運輸中心)","dest":"烏溪沙站","stopList":[{"id":"CFDE62B6C9EDE114","name":"機場(地面運輸中心)巴士總站","lat":"22.314039","long":"113.937235"},{"id":"9C9F817064169CE7","name":"機場博覽館","lat":"22.319407","long":"113.940447"},{"id":"61C957321A4DE4A9","name":"香港天際萬豪酒店","lat":"22.317785","long":"113.943287"},{"id":"E48E4C46F64FFB0E","name":"航天城交匯處","lat":"22.317172","long":"113.943407"},{"id":"B0851FD6C20D738D","name":"港珠澳大橋香港口岸","lat":"22.315761","long":"113.950402"},{"id":"0879D399E5B5FE0C","name":"青嶼幹線轉車站 (N2)","lat":"22.339065","long":"114.041670"},{"id":"727AA8B21AB74300","name":"沙田第一城","lat":"22.389541","long":"114.203506"},{"id":"582EA09A77D20CC3","name":"濱景花園","lat":"22.391533","long":"114.206093"},{"id":"04543155BFC77A1B","name":"沙田醫院","lat":"22.399853","long":"114.213088"},{"id":"6F03E19C5E800893","name":"亞公角","lat":"22.402759","long":"114.216742"},{"id":"7FDBE1ABD7231657","name":"富安巴士總站","lat":"22.405528","long":"114.224213"},{"id":"B86B05AB0F82C94E","name":"錦泰苑","lat":"22.408812","long":"114.220636"},{"id":"AC515BE42D6D6CBC","name":"德信中學","lat":"22.410657","long":"114.221375"},{"id":"CE813C1E1A72C7B0","name":"海典灣","lat":"22.414386","long":"114.222345"},{"id":"297B262BF8D00544","name":"聽濤雅苑","lat":"22.419070","long":"114.226093"},{"id":"A6424D59E135C4EC","name":"頌安邨","lat":"22.420741","long":"114.226763"},{"id":"8FA84681B967B3E2","name":"耀安邨","lat":"22.419327","long":"114.229671"},{"id":"040478A068F3E0EB","name":"福安花園","lat":"22.423857","long":"114.228573"},{"id":"8EB192ED041A8459","name":"海栢花園","lat":"22.425049","long":"114.231666"},{"id":"14F7E124D3972753","name":"馬鞍山警署","lat":"22.422284","long":"114.232896"},{"id":"473AF4463A49DA24","name":"錦英苑","lat":"22.423941","long":"114.238588"},{"id":"362D0188DD0985FF","name":"錦龍苑","lat":"22.426019","long":"114.239450"},{"id":"4DC840CF3B4B2427","name":"利安邨","lat":"22.427591","long":"114.240211"},{"id":"BA72214DFE48AA86","name":"烏溪沙站","lat":"22.428334","long":"114.244021"}],"routeId":"A41P","description":"特別班次"}]