[{"company":"nlb","route":"B2","routeType":null,"dir":null,"orig":"元朗港鐵站","dest":"深圳灣口岸","stopList":[{"id":"161","name":"元朗港鐵站","lat":"22.446189","long":"114.034816","street":"青山公路","fare":"15.8","fareHoliday":"15.8"},{"id":"135","name":"又新街","lat":"22.444308","long":"114.031252","street":"青山公路","fare":"15.8","fareHoliday":"15.8"},{"id":"136","name":"大棠路","lat":"22.444355","long":"114.028255","street":"青山公路","fare":"15.8","fareHoliday":"15.8"},{"id":"137","name":"元朗警署","lat":"22.444383","long":"114.024085","street":"青山公路","fare":"15.8","fareHoliday":"15.8"},{"id":"138","name":"水邊村","lat":"22.444407","long":"114.020781","street":"青山公路","fare":"15.8","fareHoliday":"15.8"},{"id":"139","name":"元朗公園","lat":"22.444117","long":"114.019013","street":"青山公路","fare":"15.8","fareHoliday":"15.8"},{"id":"140","name":"朗邊","lat":"22.443386","long":"114.014799","street":"青山公路","fare":"15.8","fareHoliday":"15.8"},{"id":"141","name":"屏山","lat":"22.441674","long":"114.010378","street":"青山公路","fare":"15.8","fareHoliday":"15.8"},{"id":"142","name":"新起村","lat":"22.440019","long":"114.007636","street":"青山公路","fare":"15.8","fareHoliday":"15.8"},{"id":"197","name":"灰沙圍","lat":"22.438669","long":"114.005404","street":"青山公路","fare":"15.8","fareHoliday":"15.8"},{"id":"199","name":"大道村","lat":"22.436533","long":"114.002115","street":"青山公路","fare":"15.8","fareHoliday":"15.8"},{"id":"302","name":"尚城","lat":"22.435300","long":"114.000314","street":"青山公路","fare":"15.8","fareHoliday":"15.8"},{"id":"200","name":"洪水橋輕鐵站","lat":"22.433518","long":"113.997815","street":"青山公路","fare":"11.3","fareHoliday":"11.3"},{"id":"201","name":"鍾屋村輕鐵站","lat":"22.429587","long":"113.992587","street":"青山公路","fare":"11.3","fareHoliday":"11.3"},{"id":"195","name":"亦園村","lat":"22.427396","long":"113.990366","street":"青山公路","fare":"11.3","fareHoliday":"11.3"},{"id":"148","name":"泥圍","lat":"22.423623","long":"113.986796","street":"青山公路","fare":"11.3","fareHoliday":"11.3"},{"id":"149","name":"福亨村","lat":"22.422360","long":"113.985640","street":"青山公路","fare":"11.3","fareHoliday":"11.3"},{"id":"150","name":"妙法寺","lat":"22.420439","long":"113.983878","street":"青山公路","fare":"11.3","fareHoliday":"11.3"},{"id":"151","name":"藍地輕鐵站","lat":"22.418328","long":"113.982385","street":"青山公路","fare":"11.3","fareHoliday":"11.3"},{"id":"152","name":"深圳灣口岸","lat":"22.497433","long":"113.950509","street":"深圳灣口岸","fare":"0.0","fareHoliday":"0.0"}],"routeId":"37","description":"正常班次"},{"company":"nlb","route":"B2","routeType":null,"dir":null,"orig":"深圳灣口岸","dest":"元朗港鐵站","stopList":[{"id":"152","name":"深圳灣口岸","lat":"22.497433","long":"113.950509","street":"深圳灣口岸","fare":"15.8","fareHoliday":"15.8"},{"id":"196","name":"藍地輕鐵站","lat":"22.418444","long":"113.982146","street":"青山公路","fare":"15.8","fareHoliday":"15.8"},{"id":"153","name":"青磚圍","lat":"22.422452","long":"113.985305","street":"青山公路","fare":"15.8","fareHoliday":"15.8"},{"id":"154","name":"泥圍輕鐵站","lat":"22.423648","long":"113.986313","street":"青山公路","fare":"15.8","fareHoliday":"15.8"},{"id":"147","name":"亦園村","lat":"22.427168","long":"113.989728","street":"青山公路","fare":"15.8","fareHoliday":"15.8"},{"id":"146","name":"鍾屋村輕鐵站","lat":"22.429673","long":"113.992235","street":"青山公路","fare":"15.8","fareHoliday":"15.8"},{"id":"145","name":"洪水橋輕鐵站","lat":"22.433858","long":"113.997750","street":"青山公路","fare":"4.6","fareHoliday":"4.6"},{"id":"144","name":"大道村","lat":"22.436451","long":"114.001459","street":"青山公路","fare":"4.6","fareHoliday":"4.6"},{"id":"143","name":"灰沙圍","lat":"22.438514","long":"114.004654","street":"青山公路","fare":"4.6","fareHoliday":"4.6"},{"id":"155","name":"塘坊村輕鐵站","lat":"22.440210","long":"114.007312","street":"青山公路","fare":"4.6","fareHoliday":"4.6"},{"id":"156","name":"屏山輕鐵站","lat":"22.443216","long":"114.012930","street":"青山公路","fare":"4.6","fareHoliday":"4.6"},{"id":"157","name":"朗庭園","lat":"22.444259","long":"114.018189","street":"青山公路","fare":"4.6","fareHoliday":"4.6"},{"id":"158","name":"喜利徑","lat":"22.444654","long":"114.025802","street":"青山公路","fare":"4.6","fareHoliday":"4.6"},{"id":"159","name":"同樂街","lat":"22.444629","long":"114.028225","street":"青山公路","fare":"4.6","fareHoliday":"4.6"},{"id":"160","name":"谷亭街","lat":"22.444578","long":"114.030230","street":"青山公路","fare":"4.6","fareHoliday":"4.6"},{"id":"134","name":"元朗港鐵站","lat":"22.446153","long":"114.033888","street":"朗日路","fare":"0.0","fareHoliday":"0.0"}],"routeId":"38","description":"正常班次"}]