[{"company":"ctb","route":"B3A","routeType":null,"dir":"I","orig":"深圳灣口岸","dest":"山景邨","stopList":[{"id":"003208","name":"深圳灣口岸","lat":"22.501662","long":"113.945188"},{"id":"003262","name":"富泰商場, 青山公路","lat":"22.412486","long":"113.982379"},{"id":"003262","name":"富泰商場, 青山公路","lat":"22.412486","long":"113.982379"},{"id":"003351","name":"五柳路, 藍地交匯處","lat":"22.415445","long":"113.979676"},{"id":"003209","name":"欣田邨, 青麟路","lat":"22.414753","long":"113.977394"},{"id":"003760","name":"菁田邨","lat":"22.412946","long":"113.972226"},{"id":"003767","name":"NOVO LAND, 欣寶路","lat":"22.411996","long":"113.970350"},{"id":"003752","name":"和田邨","lat":"22.412840","long":"113.968639"},{"id":"003264","name":"盈豐園, 鳴琴路","lat":"22.408008","long":"113.967272"},{"id":"003265","name":"良景邨, 田景路","lat":"22.406512","long":"113.963800"},{"id":"003266","name":"田景邨田裕樓, 田景路","lat":"22.405399","long":"113.964712"},{"id":"003267","name":"建生邨樂生樓, 青田路","lat":"22.405113","long":"113.968850"},{"id":"003213","name":"大興體育館, 震寰路","lat":"22.403734","long":"113.972801"},{"id":"003214","name":"翠林花園, 石排頭路","lat":"22.401076","long":"113.971962"},{"id":"003201","name":"山景邨景麗樓, 石排頭路","lat":"22.400959","long":"113.966457"}],"routeId":"B3A","description":"正常班次"},{"company":"ctb","route":"B3A","routeType":null,"dir":"O","orig":"山景邨","dest":"深圳灣口岸","stopList":[{"id":"003201","name":"山景邨景麗樓, 石排頭路","lat":"22.400959","long":"113.966457"},{"id":"003202","name":"大興變電站, 石排頭路","lat":"22.400915","long":"113.968843"},{"id":"003203","name":"台山商會小學, 石排頭路","lat":"22.401240","long":"113.971924"},{"id":"003204","name":"大興體育館, 震寰路","lat":"22.403548","long":"113.972634"},{"id":"003256","name":"保良局莊啟程第二小學, 青田路","lat":"22.404896","long":"113.968862"},{"id":"003257","name":"新圍苑, 田景路","lat":"22.405392","long":"113.964038"},{"id":"003258","name":"兆邦苑, 田景路","lat":"22.407657","long":"113.966036"},{"id":"003259","name":"寶田邨, 鳴琴路","lat":"22.408834","long":"113.967091"},{"id":"003752","name":"和田邨","lat":"22.412840","long":"113.968639"},{"id":"003753","name":"NOVO LAND, 欣寶路","lat":"22.412258","long":"113.970551"},{"id":"003754","name":"紫田村, 欣寶路","lat":"22.414425","long":"113.973893"},{"id":"003207","name":"欣田邨, 青麟路","lat":"22.414225","long":"113.977135"},{"id":"003350","name":"五柳路, 藍地交匯處","lat":"22.415551","long":"113.979758"},{"id":"003261","name":"富泰邨, 青山公路","lat":"22.412949","long":"113.982170"},{"id":"003208","name":"深圳灣口岸","lat":"22.501662","long":"113.945188"}],"routeId":"B3A","description":"正常班次"}]