[{"company":"nlb","route":"B4","routeType":null,"dir":null,"orig":"大橋香港口岸","dest":"機場 (客運大樓) (循環線)","stopList":[{"id":"307","name":"大橋香港口岸","lat":"22.316400","long":"113.950856","street":"大橋香港口岸 (抵港層)","fare":"9.8","fareHoliday":"9.8"},{"id":"117","name":"機場(客運大樓)","lat":"22.314569","long":"113.936610","street":"暢達路","fare":"9.8","fareHoliday":"9.8"},{"id":"118","name":"暢達路","lat":"22.316236","long":"113.935948","street":"暢達路","fare":"9.8","fareHoliday":"9.8"},{"id":"120","name":"富豪機場酒店","lat":"22.319430","long":"113.933942","street":"暢達路","fare":"9.8","fareHoliday":"9.8"},{"id":"335","name":"航天城交通總匯","lat":"22.316811","long":"113.941627","street":"航天城","fare":"9.8","fareHoliday":"9.8"},{"id":"308","name":"大橋香港口岸旅檢大樓","lat":"22.317211","long":"113.950531","street":"大橋香港口岸","fare":"9.8","fareHoliday":"9.8"},{"id":"313","name":"大橋香港口岸","lat":"22.316400","long":"113.950856","street":"大橋香港口岸 (抵港層)","fare":"0.0","fareHoliday":"0.0"}],"routeId":"87","description":"正常班次"}]