[{"company":"nlb","route":"B6S","routeType":null,"dir":null,"orig":"滿東邨","dest":"大橋香港口岸","stopList":[{"id":"309","name":"滿東邨","lat":"22.27865300","long":"113.93320300","street":"裕東路","fare":"9.1","fareHoliday":"0.0"},{"id":"103","name":"逸東邨福逸樓","lat":"22.27921600","long":"113.93465100","street":"裕東路","fare":"9.1","fareHoliday":"0.0"},{"id":"306","name":"逸東邨雍逸樓","lat":"22.27974400","long":"113.93699500","street":"裕東路","fare":"9.1","fareHoliday":"0.0"},{"id":"77","name":"東涌消防局","lat":"22.28603000","long":"113.94105700","street":"順東路","fare":"9.1","fareHoliday":"0.0"},{"id":"316","name":"東涌港鐵站","lat":"22.28961300","long":"113.94021000","street":"達東路","fare":"9.1","fareHoliday":"0.0"},{"id":"308","name":"大橋香港口岸旅檢大樓","lat":"22.31721100","long":"113.95053100","street":"大橋香港口岸","fare":"9.1","fareHoliday":"0.0"},{"id":"313","name":"大橋香港口岸","lat":"22.31640000","long":"113.95085600","street":"大橋香港口岸 (抵港層)","fare":"0.0","fareHoliday":"0.0"}],"routeId":"111","description":"正常班次"}]