[{"company":"nlb","route":"B6S","routeType":null,"dir":null,"orig":"滿東邨","dest":"大橋香港口岸","stopList":[{"id":"309","name":"滿東邨","lat":"22.278653","long":"113.933203","street":"裕東路","fare":"9.8","fareHoliday":"0.0"},{"id":"103","name":"逸東邨福逸樓","lat":"22.279216","long":"113.934651","street":"裕東路","fare":"9.8","fareHoliday":"0.0"},{"id":"306","name":"逸東邨雍逸樓","lat":"22.279744","long":"113.936995","street":"裕東路","fare":"9.8","fareHoliday":"0.0"},{"id":"77","name":"東涌消防局","lat":"22.286030","long":"113.941057","street":"順東路","fare":"9.8","fareHoliday":"0.0"},{"id":"316","name":"東涌港鐵站","lat":"22.289613","long":"113.940210","street":"達東路","fare":"9.8","fareHoliday":"0.0"},{"id":"308","name":"大橋香港口岸旅檢大樓","lat":"22.317211","long":"113.950531","street":"大橋香港口岸","fare":"9.8","fareHoliday":"0.0"},{"id":"313","name":"大橋香港口岸","lat":"22.316400","long":"113.950856","street":"大橋香港口岸 (抵港層)","fare":"0.0","fareHoliday":"0.0"}],"routeId":"111","description":"正常班次"}]