[{"company":"ctb","route":"E21","routeType":null,"dir":"I","orig":"航天城","dest":"大角咀 (維港灣)","stopList":[{"id":"003816","name":"航天城","lat":"22.316601","long":"113.940679"},{"id":"001837","name":"機場 (地面運輸中心)","lat":"22.314155","long":"113.936907"},{"id":"001845","name":"國泰城, 駿明路","lat":"22.297630","long":"113.932869"},{"id":"001831","name":"機場警署, 航膳西路","lat":"22.301332","long":"113.931508"},{"id":"001872","name":"駿運南路, 駿運路","lat":"22.296308","long":"113.928282"},{"id":"001838","name":"機場空運中心, 駿運路","lat":"22.295103","long":"113.924538"},{"id":"001842","name":"亞洲空運中心, 駿坪路","lat":"22.295849","long":"113.920821"},{"id":"001862","name":"赤鱲角南路","lat":"22.291866","long":"113.928707"},{"id":"001858","name":"東涌纜車站, 達東路","lat":"22.289058","long":"113.938641"},{"id":"001859","name":"富東廣場, 達東路","lat":"22.288890","long":"113.942021"},{"id":"001857","name":"裕東苑, 順東路","lat":"22.286237","long":"113.941271"},{"id":"001854","name":"青嶼幹線巴士轉乘站","lat":"22.339339","long":"114.042117"},{"id":"002004","name":"青華苑, 青衣西路","lat":"22.348650","long":"114.096891"},{"id":"002005","name":"長亨邨, 青衣西路","lat":"22.353983","long":"114.099012"},{"id":"002032","name":"葵涌交匯處, 葵涌道","lat":"22.339583","long":"114.132642"},{"id":"001435","name":"美孚, 長沙灣道","lat":"22.337475","long":"114.140389"},{"id":"001436","name":"荔枝角站, 長沙灣道","lat":"22.337483","long":"114.148374"},{"id":"001437","name":"昌華街, 長沙灣道","lat":"22.338601","long":"114.151986"},{"id":"001438","name":"長沙灣站, 長沙灣道","lat":"22.335872","long":"114.155807"},{"id":"001442","name":"怡閣苑, 長沙灣道","lat":"22.332845","long":"114.159699"},{"id":"001802","name":"欽州街, 長沙灣道","lat":"22.331233","long":"114.161778"},{"id":"001445","name":"深水埗站, 長沙灣道","lat":"22.330131","long":"114.163196"},{"id":"001446","name":"黃竹街, 長沙灣道","lat":"22.328881","long":"114.164816"},{"id":"001770","name":"旺角警署, 彌敦道","lat":"22.324568","long":"114.168364"},{"id":"002849","name":"西洋菜南街","lat":"22.320572","long":"114.169757"},{"id":"001396","name":"油尖旺地區康健中心, 亞皆老街","lat":"22.318800","long":"114.166937"},{"id":"001423","name":"銘基書院, 櫻桃街","lat":"22.318582","long":"114.164388"},{"id":"002878","name":"帝柏海灣, 櫻桃街","lat":"22.317851","long":"114.161899"},{"id":"003511","name":"奧運站, 深旺道","lat":"22.318441","long":"114.160369"},{"id":"003512","name":"君匯港, 深旺道","lat":"22.321903","long":"114.159702"},{"id":"001603","name":"維港灣","lat":"22.318871","long":"114.158827"}],"routeId":"E21","description":"正常班次"},{"company":"ctb","route":"E21","routeType":null,"dir":"O","orig":"大角咀 (維港灣)","dest":"航天城","stopList":[{"id":"001603","name":"維港灣","lat":"22.318871","long":"114.158827"},{"id":"001777","name":"中匯街, 深旺道","lat":"22.322569","long":"114.159825"},{"id":"001692","name":"奧運站, 深旺道","lat":"22.318588","long":"114.160496"},{"id":"001595","name":"富貴街, 大角咀道","lat":"22.318698","long":"114.161940"},{"id":"001424","name":"銘基書院, 櫻桃街","lat":"22.318763","long":"114.164351"},{"id":"001585","name":"快富街, 新填地街","lat":"22.319757","long":"114.167471"},{"id":"001554","name":"弼街, 彌敦道","lat":"22.321742","long":"114.168757"},{"id":"001555","name":"太子站, 彌敦道","lat":"22.325582","long":"114.167966"},{"id":"001425","name":"楓樹街, 長沙灣道","lat":"22.327543","long":"114.166188"},{"id":"001427","name":"黃竹街, 長沙灣道","lat":"22.328596","long":"114.164831"},{"id":"001428","name":"北河街, 長沙灣道","lat":"22.329949","long":"114.163106"},{"id":"003303","name":"欽州街, 長沙灣道","lat":"22.331306","long":"114.161361"},{"id":"001430","name":"怡閣苑, 長沙灣道","lat":"22.333565","long":"114.158435"},{"id":"001431","name":"長沙灣遊樂場, 長沙灣道","lat":"22.335586","long":"114.155821"},{"id":"001432","name":"興華街, 長沙灣道","lat":"22.338282","long":"114.152264"},{"id":"001433","name":"長沙灣廣場, 長沙灣道","lat":"22.337287","long":"114.148460"},{"id":"001517","name":"美孚, 荔枝角道","lat":"22.336504","long":"114.141143"},{"id":"002033","name":"葵涌交匯處, 葵涌道","lat":"22.340815","long":"114.131559"},{"id":"002006","name":"長亨邨亨翠樓, 青衣西路","lat":"22.353273","long":"114.098853"},{"id":"002007","name":"青華苑, 青衣西路","lat":"22.347893","long":"114.096960"},{"id":"001853","name":"青嶼幹線巴士轉乘站","lat":"22.338233","long":"114.041969"},{"id":"001856","name":"東涌消防局, 順東路","lat":"22.286160","long":"113.941029"},{"id":"001855","name":"東堤灣畔, 順東路","lat":"22.287018","long":"113.939759"},{"id":"001864","name":"赤鱲角南路","lat":"22.291892","long":"113.928404"},{"id":"001839","name":"機場空運中心, 駿運路","lat":"22.294955","long":"113.923314"},{"id":"001863","name":"香港空運貨站, 駿運路","lat":"22.297087","long":"113.929846"},{"id":"001830","name":"空郵中心, 航膳西路","lat":"22.301900","long":"113.931058"},{"id":"001844","name":"國泰城, 觀景路","lat":"22.297636","long":"113.933319"},{"id":"002657","name":"國泰城 (東), 東岸路","lat":"22.298727","long":"113.934687"},{"id":"001832","name":"二號檢查閘, 暢連路","lat":"22.310769","long":"113.936454"},{"id":"001833","name":"一號停車場, 暢達路","lat":"22.312719","long":"113.937168"},{"id":"001834","name":"一號客運大樓(北), 暢達路","lat":"22.316528","long":"113.935815"},{"id":"001836","name":"富豪機場酒店,  暢達路","lat":"22.319353","long":"113.933968"},{"id":"003816","name":"航天城","lat":"22.316601","long":"113.940679"}],"routeId":"E21","description":"正常班次"}]