[{"company":"ctb","route":"E21X","routeType":null,"dir":"O","orig":"東涌 (滿東邨)","dest":"紅磡站","stopList":[{"id":"003566","name":"滿東邨滿和樓, 裕東路","lat":"22.278489682091","long":"113.93261685053"},{"id":"003568","name":"逸東邨雍逸樓, 裕東路","lat":"22.279666752091","long":"113.93695914053"},{"id":"001870","name":"逸東邨","lat":"22.282151552091","long":"113.93563099053"},{"id":"001873","name":"北大嶼山醫院, 松仁路","lat":"22.281766192091","long":"113.93885738053"},{"id":"001856","name":"東涌消防局, 順東路","lat":"22.286159532091","long":"113.94102948053"},{"id":"001855","name":"東堤灣畔, 順東路","lat":"22.287329312091","long":"113.93922233053"},{"id":"001876","name":"海堤灣畔, 惠東路","lat":"22.292666082091","long":"113.94342698053"},{"id":"001878","name":"藍天海岸, 文東路","lat":"22.290875862091","long":"113.94592407053"},{"id":"001880","name":"映灣園二期, 文東路","lat":"22.291896912091","long":"113.95009960053"},{"id":"001882","name":"映灣園一期, 文東路","lat":"22.293375402091","long":"113.95181383053"},{"id":"003452","name":"昇薈, 迎東路","lat":"22.295825692091","long":"113.95194844053"},{"id":"003453","name":"迎東邨","lat":"22.297133612091","long":"113.95301881053"},{"id":"003443","name":"迎禧路","lat":"22.294402432091","long":"113.95045893053"},{"id":"003814","name":"裕雅苑, 怡東路","lat":"22.296473572091","long":"113.94835544053"},{"id":"003815","name":"裕雅商場, 怡東路","lat":"22.295347082091","long":"113.94677959053"},{"id":"001854","name":"青嶼幹線巴士轉乘站","lat":"22.339339292091","long":"114.04211697053"},{"id":"003133","name":"弼街, 上海街","lat":"22.322239802091","long":"114.16751251053"},{"id":"002898","name":"亞皆老街, 上海街","lat":"22.319652762091","long":"114.16804316053"},{"id":"002888","name":"朗豪坊, 上海街","lat":"22.317627242091","long":"114.16845162053"},{"id":"002899","name":"長沙街, 上海街","lat":"22.316013012091","long":"114.16878727053"},{"id":"002900","name":"碧街, 上海街","lat":"22.313489202091","long":"114.16931554053"},{"id":"002901","name":"永星里, 上海街","lat":"22.310828842091","long":"114.16982928053"},{"id":"002902","name":"西貢街, 上海街","lat":"22.307246052091","long":"114.16974559053"},{"id":"001482","name":"炮台街, 佐敦道","lat":"22.305531742091","long":"114.16858691053"},{"id":"001400","name":"匯翔道, 廣東道","lat":"22.304374172091","long":"114.16780688053"},{"id":"001403","name":"戲曲中心, 廣東道","lat":"22.301518502091","long":"114.16811772053"},{"id":"001401","name":"新港中心, 廣東道","lat":"22.297466402091","long":"114.16897955053"},{"id":"001402","name":"北京道, 廣東道","lat":"22.295743602091","long":"114.16936782053"},{"id":"001587","name":"尖東站, 梳士巴利道","lat":"22.295215502091","long":"114.17460773053"},{"id":"001416","name":"麼地道, 漆咸道南","lat":"22.298347052091","long":"114.17555202053"},{"id":"001417","name":"加連威老道, 漆咸道南","lat":"22.299906172091","long":"114.17586667053"},{"id":"001418","name":"香港科學館, 漆咸道南","lat":"22.301322912091","long":"114.17631538053"},{"id":"001422","name":"紅磡站","lat":"22.303929492091","long":"114.18202110053"}],"routeId":"E21X","description":"正常班次"}]