[{"company":"ctb","route":"E21X","routeType":null,"dir":"O","orig":"東涌 (滿東邨)","dest":"紅磡站","stopList":[{"id":"003566","name":"滿東邨滿和樓, 裕東路","lat":"22.278490","long":"113.932617"},{"id":"003568","name":"逸東邨雍逸樓, 裕東路","lat":"22.279667","long":"113.936959"},{"id":"001870","name":"逸東邨","lat":"22.282152","long":"113.935631"},{"id":"001873","name":"北大嶼山醫院, 松仁路","lat":"22.281766","long":"113.938857"},{"id":"001856","name":"東涌消防局, 順東路","lat":"22.286160","long":"113.941029"},{"id":"001855","name":"東堤灣畔, 順東路","lat":"22.287018","long":"113.939759"},{"id":"001876","name":"海堤灣畔, 惠東路","lat":"22.292406","long":"113.943470"},{"id":"001878","name":"藍天海岸, 文東路","lat":"22.290876","long":"113.945924"},{"id":"001880","name":"映灣園二期, 文東路","lat":"22.291897","long":"113.950100"},{"id":"001882","name":"映灣園一期, 文東路","lat":"22.293375","long":"113.951814"},{"id":"003452","name":"昇薈, 迎東路","lat":"22.295826","long":"113.951948"},{"id":"003453","name":"迎東邨","lat":"22.297211","long":"113.953337"},{"id":"003443","name":"迎禧路","lat":"22.294402","long":"113.950459"},{"id":"003814","name":"裕雅苑, 怡東路","lat":"22.296474","long":"113.948355"},{"id":"003815","name":"裕雅商場, 怡東路","lat":"22.295347","long":"113.946780"},{"id":"001854","name":"青嶼幹線巴士轉乘站","lat":"22.339339","long":"114.042117"},{"id":"003133","name":"弼街, 上海街","lat":"22.322240","long":"114.167513"},{"id":"002898","name":"亞皆老街, 上海街","lat":"22.319653","long":"114.168043"},{"id":"002888","name":"朗豪坊, 上海街","lat":"22.317627","long":"114.168452"},{"id":"002899","name":"長沙街, 上海街","lat":"22.316013","long":"114.168787"},{"id":"002900","name":"碧街, 上海街","lat":"22.313489","long":"114.169316"},{"id":"002901","name":"永星里, 上海街","lat":"22.310829","long":"114.169829"},{"id":"002902","name":"西貢街, 上海街","lat":"22.307246","long":"114.169746"},{"id":"001482","name":"炮台街, 佐敦道","lat":"22.305532","long":"114.168587"},{"id":"001400","name":"匯翔道, 廣東道","lat":"22.304374","long":"114.167807"},{"id":"001403","name":"戲曲中心, 廣東道","lat":"22.301519","long":"114.168118"},{"id":"001401","name":"新港中心, 廣東道","lat":"22.297466","long":"114.168980"},{"id":"001402","name":"北京道, 廣東道","lat":"22.295744","long":"114.169368"},{"id":"001587","name":"尖東站, 梳士巴利道","lat":"22.295216","long":"114.174608"},{"id":"001416","name":"麼地道, 漆咸道南","lat":"22.298347","long":"114.175552"},{"id":"001418","name":"香港科學館, 漆咸道南","lat":"22.301323","long":"114.176315"},{"id":"001422","name":"紅磡站","lat":"22.303929","long":"114.182021"}],"routeId":"E21X","description":"正常班次"}]