[{"company":"ctb","route":"E22C","routeType":null,"dir":"I","orig":"飛機維修區","dest":"調景嶺站","stopList":[{"id":"001850","name":"飛機維修區","lat":"22.304293","long":"113.899292"},{"id":"001851","name":"政府飛行服務隊, 南環路","lat":"22.295493","long":"113.911188"},{"id":"001848","name":"DHL 中亞區樞紐中心, 南環路","lat":"22.295177","long":"113.917624"},{"id":"001842","name":"亞洲空運中心, 駿坪路","lat":"22.295849","long":"113.920821"},{"id":"001839","name":"機場空運中心, 駿運路","lat":"22.294955","long":"113.923314"},{"id":"001863","name":"香港空運貨站, 駿運路","lat":"22.297087","long":"113.929846"},{"id":"001845","name":"國泰城, 駿明路","lat":"22.297630","long":"113.932869"},{"id":"001854","name":"青嶼幹線巴士轉乘站","lat":"22.339339","long":"114.042117"},{"id":"001766","name":"畢架山花園, 龍翔道","lat":"22.341561","long":"114.167324"},{"id":"001734","name":"天馬苑, 龍翔道","lat":"22.342635","long":"114.186417"},{"id":"001523","name":"黃大仙站, 龍翔道","lat":"22.341816","long":"114.192179"},{"id":"001688","name":"沙田坳道, 龍翔道","lat":"22.341787","long":"114.195499"},{"id":"001696","name":"鑽石山站, 大磡道","lat":"22.339482","long":"114.202825"},{"id":"001697","name":"牛池灣村, 龍翔道","lat":"22.336769","long":"114.207016"},{"id":"001505","name":"九龍灣站, 觀塘道","lat":"22.325498","long":"114.214295"},{"id":"001506","name":"牛頭角下邨, 觀塘道","lat":"22.321455","long":"114.214632"},{"id":"001507","name":"定富街, 觀塘道","lat":"22.316605","long":"114.216083"},{"id":"001508","name":"牛頭角站, 觀塘道","lat":"22.315131","long":"114.219546"},{"id":"001509","name":"觀塘市中心, 觀塘道","lat":"22.313441","long":"114.223974"},{"id":"001670","name":"觀塘警署, 將軍澳道","lat":"22.310776","long":"114.231295"},{"id":"002903","name":"茵怡花園, 寶康路","lat":"22.321175","long":"114.255539"},{"id":"001755","name":"寶林邨寶儉樓, 寶豐路","lat":"22.324376","long":"114.256704"},{"id":"002908","name":"欣明苑, 欣景路","lat":"22.323728","long":"114.258643"},{"id":"001672","name":"景林邨, 寶琳北路","lat":"22.322124","long":"114.261443"},{"id":"001726","name":"厚德邨, 寶寧路","lat":"22.319362","long":"114.264209"},{"id":"001727","name":"重華路","lat":"22.316936","long":"114.265864"},{"id":"001818","name":"寶盈花園, 寶邑路","lat":"22.307711","long":"114.262179"},{"id":"002917","name":"調景嶺站","lat":"22.304895","long":"114.251619"}],"routeId":"E22C","description":"正常班次"},{"company":"ctb","route":"E22C","routeType":null,"dir":"O","orig":"調景嶺站","dest":"飛機維修區","stopList":[{"id":"002917","name":"調景嶺站","lat":"22.304895","long":"114.251619"},{"id":"001778","name":"唐明苑, 唐明街","lat":"22.310250","long":"114.257728"},{"id":"001826","name":"將軍澳廣場, 寶邑路","lat":"22.307989","long":"114.262438"},{"id":"001752","name":"新寶城, 銀澳路","lat":"22.314561","long":"114.266431"},{"id":"001736","name":"南豐廣場, 培成路","lat":"22.315096","long":"114.264112"},{"id":"001737","name":"厚德邨, 寶寧路","lat":"22.319202","long":"114.264063"},{"id":"001753","name":"景林邨, 寶琳北路","lat":"22.322157","long":"114.261100"},{"id":"001785","name":"欣景路","lat":"22.323410","long":"114.258768"},{"id":"001683","name":"梁潔華小學, 寶豐路","lat":"22.323418","long":"114.255669"},{"id":"001760","name":"茵怡花園, 寶康路","lat":"22.321848","long":"114.255381"},{"id":"001759","name":"寶康公園, 寶康路","lat":"22.318972","long":"114.256486"},{"id":"001695","name":"鑽石山站, 龍翔道","lat":"22.339272","long":"114.202287"},{"id":"001690","name":"沙田坳道, 龍翔道","lat":"22.341587","long":"114.195461"},{"id":"001524","name":"摩士公園游泳池, 龍翔道","lat":"22.341541","long":"114.191518"},{"id":"001761","name":"天馬苑, 龍翔道","lat":"22.342511","long":"114.185789"},{"id":"001725","name":"畢架山花園, 龍翔道","lat":"22.341582","long":"114.166795"},{"id":"001853","name":"青嶼幹線巴士轉乘站","lat":"22.338233","long":"114.041969"},{"id":"001844","name":"國泰城, 觀景路","lat":"22.297636","long":"113.933319"},{"id":"001872","name":"駿運南路, 駿運路","lat":"22.296308","long":"113.928282"},{"id":"001838","name":"機場空運中心, 駿運路","lat":"22.295103","long":"113.924538"},{"id":"001842","name":"亞洲空運中心, 駿坪路","lat":"22.295849","long":"113.920821"},{"id":"001852","name":"DHL 中亞區樞紐中心, 南環路","lat":"22.295218","long":"113.917298"},{"id":"001849","name":"政府飛行服務隊, 南環路","lat":"22.295433","long":"113.910583"},{"id":"001850","name":"飛機維修區","lat":"22.304293","long":"113.899292"}],"routeId":"E22C","description":"正常班次"}]