[{"company":"ctb","route":"E22C","routeType":null,"dir":"I","orig":"飛機維修區","dest":"調景嶺站","stopList":[{"id":"001850","name":"飛機維修區","lat":"22.304293352091","long":"113.89929240053"},{"id":"001851","name":"政府飛行服務隊, 南環路","lat":"22.295493452091","long":"113.91118842053"},{"id":"001848","name":"DHL 中亞區樞紐中心, 南環路","lat":"22.295176702091","long":"113.91762416053"},{"id":"001842","name":"亞洲空運中心, 駿坪路","lat":"22.295849412091","long":"113.92082136053"},{"id":"001839","name":"機場空運中心, 駿運路","lat":"22.294954752091","long":"113.92331355053"},{"id":"001863","name":"香港空運貨站, 駿運路","lat":"22.297087112091","long":"113.92984635053"},{"id":"001845","name":"國泰城, 駿明路","lat":"22.297630222091","long":"113.93286939053"},{"id":"001854","name":"青嶼幹線巴士轉乘站","lat":"22.339339292091","long":"114.04211697053"},{"id":"001766","name":"畢架山花園, 龍翔道","lat":"22.341561202091","long":"114.16732372053"},{"id":"001734","name":"天馬苑, 龍翔道","lat":"22.342635352091","long":"114.18641726053"},{"id":"001523","name":"黃大仙站, 龍翔道","lat":"22.341815742091","long":"114.19217929053"},{"id":"001688","name":"沙田坳道, 龍翔道","lat":"22.341786682091","long":"114.19549949053"},{"id":"001696","name":"鑽石山站, 大磡道","lat":"22.339299962091","long":"114.20302525053"},{"id":"001697","name":"牛池灣村, 龍翔道","lat":"22.336768802091","long":"114.20701576053"},{"id":"001505","name":"九龍灣站, 觀塘道","lat":"22.325498272091","long":"114.21429538053"},{"id":"001506","name":"牛頭角下邨, 觀塘道","lat":"22.321454812091","long":"114.21463179053"},{"id":"001507","name":"定富街, 觀塘道","lat":"22.316605442091","long":"114.21608286053"},{"id":"001508","name":"牛頭角站, 觀塘道","lat":"22.315130552091","long":"114.21954638053"},{"id":"001509","name":"觀塘市中心, 觀塘道","lat":"22.313441392091","long":"114.22397362053"},{"id":"001670","name":"觀塘警署, 將軍澳道","lat":"22.310776012091","long":"114.23129530053"},{"id":"002903","name":"茵怡花園, 寶康路","lat":"22.321175102091","long":"114.25553902053"},{"id":"001755","name":"寶林邨寶儉樓, 寶豐路","lat":"22.324376342091","long":"114.25670434053"},{"id":"002908","name":"欣明苑, 欣景路","lat":"22.323728202091","long":"114.25864294053"},{"id":"001672","name":"景林邨, 寶琳北路","lat":"22.322123952091","long":"114.26144316053"},{"id":"001726","name":"厚德邨, 寶寧路","lat":"22.319361992091","long":"114.26420930053"},{"id":"001727","name":"重華路","lat":"22.316936322091","long":"114.26586361053"},{"id":"001818","name":"寶盈花園, 寶邑路","lat":"22.307711102091","long":"114.26217901053"},{"id":"002917","name":"調景嶺站","lat":"22.304894682091","long":"114.25161911053"}],"routeId":"E22C","description":"正常班次"},{"company":"ctb","route":"E22C","routeType":null,"dir":"O","orig":"調景嶺站","dest":"飛機維修區","stopList":[{"id":"002917","name":"調景嶺站","lat":"22.304894682091","long":"114.25161911053"},{"id":"001778","name":"唐明苑, 唐明街","lat":"22.310249752091","long":"114.25772815053"},{"id":"001826","name":"將軍澳廣場, 寶邑路","lat":"22.307988842091","long":"114.26243839053"},{"id":"001752","name":"新寶城, 銀澳路","lat":"22.314560952091","long":"114.26643102053"},{"id":"001736","name":"南豐廣場, 培成路","lat":"22.315095992091","long":"114.26411167053"},{"id":"001737","name":"厚德邨, 寶寧路","lat":"22.319202182091","long":"114.26406339053"},{"id":"001753","name":"景林邨, 寶琳北路","lat":"22.322157142091","long":"114.26110043053"},{"id":"001785","name":"欣景路","lat":"22.323409582091","long":"114.25876793053"},{"id":"001683","name":"梁潔華小學, 寶豐路","lat":"22.323417872091","long":"114.25566861053"},{"id":"001760","name":"茵怡花園, 寶康路","lat":"22.321848032091","long":"114.25538107053"},{"id":"001759","name":"寶康公園, 寶康路","lat":"22.318971602091","long":"114.25648629053"},{"id":"001695","name":"鑽石山站, 龍翔道","lat":"22.339272392091","long":"114.20228739053"},{"id":"001690","name":"沙田坳道, 龍翔道","lat":"22.341586742091","long":"114.19546107053"},{"id":"001524","name":"摩士公園游泳池, 龍翔道","lat":"22.341541322091","long":"114.19151762053"},{"id":"001761","name":"天馬苑, 龍翔道","lat":"22.342510512091","long":"114.18578915053"},{"id":"001725","name":"畢架山花園, 龍翔道","lat":"22.341581972091","long":"114.16679537053"},{"id":"001853","name":"青嶼幹線巴士轉乘站","lat":"22.338232802091","long":"114.04196854053"},{"id":"001844","name":"國泰城, 觀景路","lat":"22.297636222091","long":"113.93331853053"},{"id":"001872","name":"駿運南路, 駿運路","lat":"22.296307722091","long":"113.92828152053"},{"id":"001838","name":"機場空運中心, 駿運路","lat":"22.295103112091","long":"113.92453797053"},{"id":"001842","name":"亞洲空運中心, 駿坪路","lat":"22.295849412091","long":"113.92082136053"},{"id":"001852","name":"DHL 中亞區樞紐中心, 南環路","lat":"22.295218092091","long":"113.91729784053"},{"id":"001849","name":"政府飛行服務隊, 南環路","lat":"22.295433112091","long":"113.91058324053"},{"id":"001850","name":"飛機維修區","lat":"22.304293352091","long":"113.89929240053"}],"routeId":"E22C","description":"正常班次"}]