[{"company":"ctb","route":"E22X","routeType":null,"dir":"I","orig":"航天城","dest":"油塘","stopList":[{"id":"003816","name":"航天城","lat":"22.316600562091","long":"113.94067946053"},{"id":"001837","name":"機場 (地面運輸中心)","lat":"22.314155382091","long":"113.93690708053"},{"id":"001868","name":"民航處總部, 東輝路","lat":"22.303667692091","long":"113.93862329053"},{"id":"001845","name":"國泰城, 駿明路","lat":"22.297630222091","long":"113.93286939053"},{"id":"001854","name":"青嶼幹線巴士轉乘站","lat":"22.339339292091","long":"114.04211697053"},{"id":"001766","name":"畢架山花園, 龍翔道","lat":"22.341561202091","long":"114.16732372053"},{"id":"001767","name":"豐力樓, 龍翔道","lat":"22.343045712091","long":"114.17286134053"},{"id":"001734","name":"天馬苑, 龍翔道","lat":"22.342635352091","long":"114.18641726053"},{"id":"001523","name":"黃大仙站, 龍翔道","lat":"22.341815742091","long":"114.19217929053"},{"id":"001688","name":"沙田坳道, 龍翔道","lat":"22.341786682091","long":"114.19549949053"},{"id":"001696","name":"鑽石山站, 大磡道","lat":"22.339299962091","long":"114.20302525053"},{"id":"001697","name":"牛池灣村, 龍翔道","lat":"22.336768802091","long":"114.20701576053"},{"id":"001505","name":"九龍灣站, 觀塘道","lat":"22.325498272091","long":"114.21429538053"},{"id":"001506","name":"牛頭角下邨, 觀塘道","lat":"22.321454812091","long":"114.21463179053"},{"id":"001507","name":"定富街, 觀塘道","lat":"22.316605442091","long":"114.21608286053"},{"id":"001508","name":"牛頭角站, 觀塘道","lat":"22.315130552091","long":"114.21954638053"},{"id":"001509","name":"觀塘市中心, 觀塘道","lat":"22.313441392091","long":"114.22397362053"},{"id":"001605","name":"容鳳書紀念中心, 偉發道","lat":"22.308845832091","long":"114.22968249053"},{"id":"001406","name":"麗港城商場, 茶果嶺道","lat":"22.306692812091","long":"114.22854828053"},{"id":"001407","name":"麗港中心, 茶果嶺道","lat":"22.305324082091","long":"114.22760389053"},{"id":"001489","name":"聖公會基孝中學, 啟田道","lat":"22.306171062091","long":"114.23531604053"},{"id":"001490","name":"康田苑, 啟田道","lat":"22.307092582091","long":"114.23511609053"},{"id":"001640","name":"啟田邨啟仁樓, 啟田道","lat":"22.309385422091","long":"114.23368006053"},{"id":"001641","name":"啟田邨啟旺樓, 德田街","lat":"22.309999602091","long":"114.23486253053"},{"id":"001748","name":"德田邨德敬樓, 碧雲道","lat":"22.311189452091","long":"114.23823194053"},{"id":"001815","name":"德田邨德樂樓, 碧雲道","lat":"22.309306852091","long":"114.23903345053"},{"id":"001798","name":"德田邨德隆樓, 碧雲道","lat":"22.306971142091","long":"114.23926172053"},{"id":"001749","name":"廣田邨廣靖樓, 碧雲道","lat":"22.304783122091","long":"114.23831197053"},{"id":"001750","name":"廣田商場, 碧雲道","lat":"22.302688872091","long":"114.23946591053"},{"id":"001789","name":"高俊苑, 高超道","lat":"22.298020502091","long":"114.24105674053"},{"id":"001790","name":"高怡邨, 高超道","lat":"22.296512312091","long":"114.24184989053"},{"id":"001791","name":"油塘中心, 欣榮街","lat":"22.294496092091","long":"114.23922780053"},{"id":"001792","name":"油塘","lat":"22.295703062091","long":"114.23850195053"}],"routeId":"E22X","description":"正常班次"},{"company":"ctb","route":"E22X","routeType":null,"dir":"O","orig":"油塘","dest":"航天城","stopList":[{"id":"001792","name":"油塘","lat":"22.295703062091","long":"114.23850195053"},{"id":"001793","name":"高怡邨, 高超道","lat":"22.296734012091","long":"114.24191426053"},{"id":"001794","name":"高俊苑, 高超道","lat":"22.297873692091","long":"114.24090098053"},{"id":"001795","name":"康柏苑金柏閣, 碧雲道","lat":"22.302228162091","long":"114.24072053053"},{"id":"001713","name":"康柏苑龍柏閣, 碧雲道","lat":"22.303338762091","long":"114.23855204053"},{"id":"001714","name":"康雅苑, 碧雲道","lat":"22.304925952091","long":"114.23827672053"},{"id":"001717","name":"德田邨德康樓, 碧雲道","lat":"22.308291792091","long":"114.23926786053"},{"id":"001715","name":"德田邨德敬樓, 碧雲道","lat":"22.310986102091","long":"114.23825612053"},{"id":"001599","name":"啟田邨啟旺樓, 德田街","lat":"22.309850072091","long":"114.23479138053"},{"id":"001491","name":"啟田商場, 啟田道","lat":"22.308503542091","long":"114.23445297053"},{"id":"001492","name":"聖公會基孝中學, 啟田道","lat":"22.305971352091","long":"114.23544646053"},{"id":"001522","name":"藍田站, 鯉魚門道","lat":"22.305529462091","long":"114.23413329053"},{"id":"001605","name":"容鳳書紀念中心, 偉發道","lat":"22.308845832091","long":"114.22968249053"},{"id":"001406","name":"麗港城商場, 茶果嶺道","lat":"22.306692812091","long":"114.22854828053"},{"id":"001407","name":"麗港中心, 茶果嶺道","lat":"22.305324082091","long":"114.22760389053"},{"id":"001494","name":"駿業里, 觀塘道","lat":"22.313346232091","long":"114.22351063053"},{"id":"001495","name":"創紀之城, 觀塘道","lat":"22.314321422091","long":"114.22087864053"},{"id":"001496","name":"定富街, 觀塘道","lat":"22.316092622091","long":"114.21629897053"},{"id":"001498","name":"牛頭角下邨, 觀塘道","lat":"22.320182512091","long":"114.21448890053"},{"id":"001499","name":"德福花園, 觀塘道","lat":"22.322004582091","long":"114.21431732053"},{"id":"001500","name":"九龍灣站, 觀塘道","lat":"22.325551032091","long":"114.21393835053"},{"id":"001501","name":"啟泰苑, 觀塘道","lat":"22.328831762091","long":"114.21175486053"},{"id":"001525","name":"彩虹邨丹鳳樓, 龍翔道","lat":"22.335290892091","long":"114.20761701053"},{"id":"001695","name":"鑽石山站, 龍翔道","lat":"22.339272392091","long":"114.20228739053"},{"id":"001690","name":"沙田坳道, 龍翔道","lat":"22.341586742091","long":"114.19546107053"},{"id":"001524","name":"摩士公園游泳池, 龍翔道","lat":"22.341541322091","long":"114.19151762053"},{"id":"001761","name":"天馬苑, 龍翔道","lat":"22.342510512091","long":"114.18578915053"},{"id":"001765","name":"豐力樓, 龍翔道","lat":"22.342559752091","long":"114.17294742053"},{"id":"001725","name":"畢架山花園, 龍翔道","lat":"22.341581972091","long":"114.16679537053"},{"id":"001853","name":"青嶼幹線巴士轉乘站","lat":"22.338232802091","long":"114.04196854053"},{"id":"001844","name":"國泰城, 觀景路","lat":"22.297636222091","long":"113.93331853053"},{"id":"003588","name":"民航處總部, 東耀路","lat":"22.304047462091","long":"113.93958139053"},{"id":"001833","name":"一號停車場, 暢達路","lat":"22.312719322091","long":"113.93716755053"},{"id":"001834","name":"一號客運大樓(北), 暢達路","lat":"22.316527602091","long":"113.93581499053"},{"id":"001836","name":"富豪機場酒店,  暢達路","lat":"22.319353342091","long":"113.93396777053"},{"id":"003816","name":"航天城","lat":"22.316600562091","long":"113.94067946053"}],"routeId":"E22X","description":"正常班次"}]