[{"company":"ctb","route":"E22X","routeType":null,"dir":"I","orig":"航天城","dest":"油塘","stopList":[{"id":"003816","name":"航天城","lat":"22.316601","long":"113.940679"},{"id":"001837","name":"機場 (地面運輸中心)","lat":"22.314155","long":"113.936907"},{"id":"001868","name":"民航處總部, 東輝路","lat":"22.303668","long":"113.938623"},{"id":"001845","name":"國泰城, 駿明路","lat":"22.297630","long":"113.932869"},{"id":"001854","name":"青嶼幹線巴士轉乘站","lat":"22.339339","long":"114.042117"},{"id":"001766","name":"畢架山花園, 龍翔道","lat":"22.341561","long":"114.167324"},{"id":"001767","name":"豐力樓, 龍翔道","lat":"22.343046","long":"114.172861"},{"id":"001734","name":"天馬苑, 龍翔道","lat":"22.342635","long":"114.186417"},{"id":"001523","name":"黃大仙站, 龍翔道","lat":"22.341816","long":"114.192179"},{"id":"001688","name":"沙田坳道, 龍翔道","lat":"22.341787","long":"114.195499"},{"id":"001696","name":"鑽石山站, 大磡道","lat":"22.339482","long":"114.202825"},{"id":"001697","name":"牛池灣村, 龍翔道","lat":"22.336769","long":"114.207016"},{"id":"001505","name":"九龍灣站, 觀塘道","lat":"22.325498","long":"114.214295"},{"id":"001506","name":"牛頭角下邨, 觀塘道","lat":"22.321455","long":"114.214632"},{"id":"001507","name":"定富街, 觀塘道","lat":"22.316605","long":"114.216083"},{"id":"001508","name":"牛頭角站, 觀塘道","lat":"22.315131","long":"114.219546"},{"id":"001509","name":"觀塘市中心, 觀塘道","lat":"22.313441","long":"114.223974"},{"id":"001605","name":"容鳳書紀念中心, 偉發道","lat":"22.308846","long":"114.229682"},{"id":"001406","name":"麗港城商場, 茶果嶺道","lat":"22.306693","long":"114.228548"},{"id":"001407","name":"麗港中心, 茶果嶺道","lat":"22.305324","long":"114.227604"},{"id":"001489","name":"聖公會基孝中學, 啟田道","lat":"22.306171","long":"114.235316"},{"id":"001490","name":"康田苑, 啟田道","lat":"22.307093","long":"114.235116"},{"id":"001640","name":"啟田邨啟仁樓, 啟田道","lat":"22.309385","long":"114.233680"},{"id":"001641","name":"啟田邨啟旺樓, 德田街","lat":"22.310000","long":"114.234863"},{"id":"001748","name":"德田邨德敬樓, 碧雲道","lat":"22.311189","long":"114.238232"},{"id":"001815","name":"德田邨德樂樓, 碧雲道","lat":"22.309307","long":"114.239033"},{"id":"001798","name":"德田邨德隆樓, 碧雲道","lat":"22.306666","long":"114.239181"},{"id":"001749","name":"廣田邨廣靖樓, 碧雲道","lat":"22.304783","long":"114.238312"},{"id":"001750","name":"廣田商場, 碧雲道","lat":"22.302689","long":"114.239466"},{"id":"001789","name":"高俊苑, 高超道","lat":"22.298021","long":"114.241057"},{"id":"001790","name":"高怡邨, 高超道","lat":"22.296512","long":"114.241850"},{"id":"001791","name":"油塘中心, 欣榮街","lat":"22.294496","long":"114.239228"},{"id":"001792","name":"油塘","lat":"22.295703","long":"114.238502"}],"routeId":"E22X","description":"正常班次"},{"company":"ctb","route":"E22X","routeType":null,"dir":"O","orig":"油塘","dest":"航天城","stopList":[{"id":"001792","name":"油塘","lat":"22.295703","long":"114.238502"},{"id":"001793","name":"高怡邨, 高超道","lat":"22.296734","long":"114.241914"},{"id":"001794","name":"高俊苑, 高超道","lat":"22.297874","long":"114.240901"},{"id":"001795","name":"康柏苑金柏閣, 碧雲道","lat":"22.302228","long":"114.240721"},{"id":"001713","name":"康柏苑龍柏閣, 碧雲道","lat":"22.303339","long":"114.238552"},{"id":"001714","name":"康雅苑, 碧雲道","lat":"22.304926","long":"114.238277"},{"id":"001717","name":"德田邨德康樓, 碧雲道","lat":"22.307966","long":"114.239288"},{"id":"001715","name":"德田邨德敬樓, 碧雲道","lat":"22.310986","long":"114.238256"},{"id":"001599","name":"啟田邨啟旺樓, 德田街","lat":"22.309850","long":"114.234791"},{"id":"001491","name":"啟田商場, 啟田道","lat":"22.308504","long":"114.234453"},{"id":"001492","name":"聖公會基孝中學, 啟田道","lat":"22.305971","long":"114.235446"},{"id":"001522","name":"藍田站, 鯉魚門道","lat":"22.305529","long":"114.234133"},{"id":"001605","name":"容鳳書紀念中心, 偉發道","lat":"22.308846","long":"114.229682"},{"id":"001406","name":"麗港城商場, 茶果嶺道","lat":"22.306693","long":"114.228548"},{"id":"001407","name":"麗港中心, 茶果嶺道","lat":"22.305324","long":"114.227604"},{"id":"001494","name":"駿業里, 觀塘道","lat":"22.313346","long":"114.223511"},{"id":"001495","name":"創紀之城, 觀塘道","lat":"22.314321","long":"114.220879"},{"id":"001496","name":"定富街, 觀塘道","lat":"22.316093","long":"114.216299"},{"id":"001498","name":"牛頭角下邨, 觀塘道","lat":"22.320183","long":"114.214489"},{"id":"001499","name":"德福花園, 觀塘道","lat":"22.322005","long":"114.214317"},{"id":"001500","name":"九龍灣站, 觀塘道","lat":"22.325551","long":"114.213938"},{"id":"001501","name":"啟泰苑, 觀塘道","lat":"22.328832","long":"114.211755"},{"id":"001525","name":"彩虹邨丹鳳樓, 龍翔道","lat":"22.335291","long":"114.207617"},{"id":"001695","name":"鑽石山站, 龍翔道","lat":"22.339272","long":"114.202287"},{"id":"001690","name":"沙田坳道, 龍翔道","lat":"22.341587","long":"114.195461"},{"id":"001524","name":"摩士公園游泳池, 龍翔道","lat":"22.341541","long":"114.191518"},{"id":"001761","name":"天馬苑, 龍翔道","lat":"22.342511","long":"114.185789"},{"id":"001765","name":"豐力樓, 龍翔道","lat":"22.342560","long":"114.172947"},{"id":"001725","name":"畢架山花園, 龍翔道","lat":"22.341582","long":"114.166795"},{"id":"001853","name":"青嶼幹線巴士轉乘站","lat":"22.338233","long":"114.041969"},{"id":"001844","name":"國泰城, 觀景路","lat":"22.297636","long":"113.933319"},{"id":"003588","name":"民航處總部, 東耀路","lat":"22.304047","long":"113.939581"},{"id":"001833","name":"一號停車場, 暢達路","lat":"22.312719","long":"113.937168"},{"id":"001834","name":"一號客運大樓(北), 暢達路","lat":"22.316528","long":"113.935815"},{"id":"001836","name":"富豪機場酒店,  暢達路","lat":"22.319353","long":"113.933968"},{"id":"003816","name":"航天城","lat":"22.316601","long":"113.940679"}],"routeId":"E22X","description":"正常班次"}]