[{"company":"ctb","route":"E28","routeType":null,"dir":"O","orig":"東涌 (翔東邨)","dest":"將軍澳工業邨","stopList":[{"id":"003943","name":"翔東邨","lat":"22.297483","long":"113.952192"},{"id":"003453","name":"迎東邨, 迎東路","lat":"22.297211","long":"113.953337"},{"id":"003944","name":"裕豐苑, 匯東街","lat":"22.298947","long":"113.951549"},{"id":"003814","name":"裕雅苑, 怡東路","lat":"22.296474","long":"113.948355"},{"id":"003815","name":"裕雅商場, 怡東路","lat":"22.295347","long":"113.946780"},{"id":"001854","name":"青嶼幹線巴士轉乘站","lat":"22.339339","long":"114.042117"},{"id":"001766","name":"畢架山花園, 龍翔道","lat":"22.341561","long":"114.167324"},{"id":"001767","name":"豐力樓, 龍翔道","lat":"22.343046","long":"114.172861"},{"id":"001734","name":"天馬苑, 龍翔道","lat":"22.342635","long":"114.186417"},{"id":"001523","name":"黃大仙站, 龍翔道","lat":"22.341816","long":"114.192179"},{"id":"001688","name":"沙田坳道, 龍翔道","lat":"22.341787","long":"114.195499"},{"id":"003711","name":"啟鑽苑啟湖閣, 彩虹道","lat":"22.338659","long":"114.200636"},{"id":"001448","name":"彩虹邨金碧樓, 彩虹邨通道","lat":"22.335158","long":"114.204981"},{"id":"001503","name":"坪石邨, 太子道東","lat":"22.333081","long":"114.207235"},{"id":"001504","name":"啟業邨, 觀塘道","lat":"22.330616","long":"114.210343"},{"id":"001505","name":"九龍灣站, 觀塘道","lat":"22.325498","long":"114.214295"},{"id":"001506","name":"牛頭角下邨, 觀塘道","lat":"22.321455","long":"114.214632"},{"id":"001507","name":"定富街, 觀塘道","lat":"22.316605","long":"114.216083"},{"id":"001508","name":"牛頭角站, 觀塘道","lat":"22.315131","long":"114.219546"},{"id":"001509","name":"觀塘市中心, 觀塘道","lat":"22.313441","long":"114.223974"},{"id":"001670","name":"觀塘警署, 將軍澳道","lat":"22.310776","long":"114.231295"},{"id":"003595","name":"將軍澳隧道巴士轉乘站","lat":"22.315689","long":"114.240218"},{"id":"001763","name":"彩明苑彩富閣, 景嶺路","lat":"22.308146","long":"114.253176"},{"id":"001764","name":"調景嶺站, 景嶺路","lat":"22.305292","long":"114.252927"},{"id":"001824","name":"將軍澳中心, 寶邑路","lat":"22.306219","long":"114.257130"},{"id":"001825","name":"將軍澳站, 寶邑路","lat":"22.307220","long":"114.260057"},{"id":"003477","name":"寶盈花園, 唐俊街","lat":"22.306174","long":"114.261571"},{"id":"003473","name":"播道書院, 至善街","lat":"22.304919","long":"114.263032"},{"id":"003160","name":"蓬萊路, 環保大道","lat":"22.308324","long":"114.267945"},{"id":"003225","name":"邵氏影城, 環保大道","lat":"22.301639","long":"114.272413"},{"id":"002919","name":"峻瀅, 環保大道","lat":"22.297406","long":"114.272521"},{"id":"002920","name":"MEGA Plus 數據中心, 環保大道","lat":"22.295046","long":"114.273573"},{"id":"002921","name":"數據技術中心, 駿日街","lat":"22.289450","long":"114.273143"},{"id":"002922","name":"先進製造業中心, 駿日街","lat":"22.286971","long":"114.271492"},{"id":"002923","name":"將軍澳工業邨","lat":"22.283150","long":"114.270190"},{"id":"003478","name":"TVB, 駿才街","lat":"22.280913","long":"114.272675"},{"id":"002923","name":"將軍澳工業邨","lat":"22.283150","long":"114.270190"}],"routeId":"E28","description":"正常班次"}]