[{"company":"kmb","route":"E32","routeType":"1","dir":"O","orig":"葵芳(南)","dest":"航天城","stopList":[{"id":"32477B342BF2DC22","name":"葵芳(南)總站","lat":"22.354641","long":"114.126501"},{"id":"C9BF57C6B2F9BB92","name":"葵芳站總站","lat":"22.356831","long":"114.128406"},{"id":"4432CAFB004FF754","name":"葵芳廣場","lat":"22.358115","long":"114.130300"},{"id":"C0E90AAAA204D927","name":"光輝圍","lat":"22.367730","long":"114.133599"},{"id":"AF837BAF1DA794EF","name":"葵涌健全街","lat":"22.370294","long":"114.131279"},{"id":"395175EBEEC636B7","name":"大窩口轉車站 -大窩口站","lat":"22.370371","long":"114.125072"},{"id":"59955B3352400BA7","name":"荃灣荃富街","lat":"22.367617","long":"114.121892"},{"id":"A2908CBEAA7D4C73","name":"青衣轉車站 - 長安總站 (A7)","lat":"22.361383","long":"114.102782"},{"id":"60D5F0433813AA06","name":"長亨邨","lat":"22.353264","long":"114.098798"},{"id":"A78ABC54E2286C0D","name":"青華苑","lat":"22.347611","long":"114.096999"},{"id":"8394FFF35F9D2EFB","name":"青嶼幹線轉車站 (A4)","lat":"22.338264","long":"114.042097"},{"id":"AC0BDA78C106FF7A","name":"東涌消防局","lat":"22.286195","long":"113.941061"},{"id":"277DD90A63454F48","name":"東堤灣畔","lat":"22.287341","long":"113.939308"},{"id":"40AC79F25124280A","name":"赤鱲角南路","lat":"22.291872","long":"113.928410"},{"id":"86F4FDCF2F5D13ED","name":"駿運北路","lat":"22.295006","long":"113.923374"},{"id":"52C7FFE6629F5972","name":"香港空運貨站","lat":"22.297184","long":"113.929972"},{"id":"7211E63DE150A10E","name":"空郵中心","lat":"22.302014","long":"113.931068"},{"id":"AAC64BCDD5B55A86","name":"國泰城","lat":"22.297687","long":"113.933356"},{"id":"A99B6BB7F1628A08","name":"暢連路","lat":"22.310702","long":"113.936563"},{"id":"CB1F6E0BE13D469D","name":"暢達路(一號停車場)","lat":"22.312875","long":"113.937116"},{"id":"08E7E3FD65881EE2","name":"暢達路(一號客運大樓)(北)","lat":"22.316598","long":"113.935828"},{"id":"9DCBD34740D95B23","name":"富豪機場酒店","lat":"22.319405","long":"113.934091"},{"id":"F32C8A98A5D64A72","name":"航天城巴士總站","lat":"22.316508","long":"113.940934"}],"routeId":"E32","description":"正常班次"},{"company":"kmb","route":"E32","routeType":"2","dir":"O","orig":"葵芳(南)","dest":"航天城","stopList":[{"id":"32477B342BF2DC22","name":"葵芳(南)總站","lat":"22.354641","long":"114.126501"},{"id":"C9BF57C6B2F9BB92","name":"葵芳站總站","lat":"22.356831","long":"114.128406"},{"id":"4432CAFB004FF754","name":"葵芳廣場","lat":"22.358115","long":"114.130300"},{"id":"C0E90AAAA204D927","name":"光輝圍","lat":"22.367730","long":"114.133599"},{"id":"AF837BAF1DA794EF","name":"葵涌健全街","lat":"22.370294","long":"114.131279"},{"id":"395175EBEEC636B7","name":"大窩口轉車站 -大窩口站","lat":"22.370371","long":"114.125072"},{"id":"59955B3352400BA7","name":"荃灣荃富街","lat":"22.367617","long":"114.121892"},{"id":"A2908CBEAA7D4C73","name":"青衣轉車站 - 長安總站 (A7)","lat":"22.361383","long":"114.102782"},{"id":"2B34B9412B6349A3","name":"楓樹窩體育館","lat":"22.355753","long":"114.102332"},{"id":"FE54B520D17733F7","name":"青衣邨宜業樓","lat":"22.354241","long":"114.102442"},{"id":"946516353F8828E9","name":"綠悠雅苑","lat":"22.352647","long":"114.105274"},{"id":"A1456D9E78A4CBE9","name":"翠怡花園","lat":"22.351825","long":"114.107736"},{"id":"CA484EE3E2B7C053","name":"青衣工業中心","lat":"22.349491","long":"114.109669"},{"id":"3D42EBD6AC55A845","name":"長青邨青桃樓","lat":"22.344795","long":"114.109801"},{"id":"4D6B528AC01DB68C","name":"美景花園","lat":"22.344837","long":"114.107741"},{"id":"51BA040BCD88D8B7","name":"長青","lat":"22.348231","long":"114.105615"},{"id":"B726654FC497E9C5","name":"青盛苑","lat":"22.348884","long":"114.103309"},{"id":"48098952EF90D27D","name":"長康邨","lat":"22.349389","long":"114.099922"},{"id":"A78ABC54E2286C0D","name":"青華苑","lat":"22.347611","long":"114.096999"},{"id":"8394FFF35F9D2EFB","name":"青嶼幹線轉車站 (A4)","lat":"22.338264","long":"114.042097"},{"id":"AC0BDA78C106FF7A","name":"東涌消防局","lat":"22.286195","long":"113.941061"},{"id":"277DD90A63454F48","name":"東堤灣畔","lat":"22.287341","long":"113.939308"},{"id":"40AC79F25124280A","name":"赤鱲角南路","lat":"22.291872","long":"113.928410"},{"id":"86F4FDCF2F5D13ED","name":"駿運北路","lat":"22.295006","long":"113.923374"},{"id":"52C7FFE6629F5972","name":"香港空運貨站","lat":"22.297184","long":"113.929972"},{"id":"7211E63DE150A10E","name":"空郵中心","lat":"22.302014","long":"113.931068"},{"id":"AAC64BCDD5B55A86","name":"國泰城","lat":"22.297687","long":"113.933356"},{"id":"A99B6BB7F1628A08","name":"暢連路","lat":"22.310702","long":"113.936563"},{"id":"CB1F6E0BE13D469D","name":"暢達路(一號停車場)","lat":"22.312875","long":"113.937116"},{"id":"08E7E3FD65881EE2","name":"暢達路(一號客運大樓)(北)","lat":"22.316598","long":"113.935828"},{"id":"9DCBD34740D95B23","name":"富豪機場酒店","lat":"22.319405","long":"113.934091"},{"id":"F32C8A98A5D64A72","name":"航天城巴士總站","lat":"22.316508","long":"113.940934"}],"routeId":"E32","description":"特別班次"},{"company":"kmb","route":"E32","routeType":"1","dir":"I","orig":"航天城","dest":"葵芳(南)","stopList":[{"id":"57EB54AE06E21275","name":"航天城巴士總站","lat":"22.316508","long":"113.940934"},{"id":"75A16CAB149EF577","name":"機場(地面運輸中心)巴士總站","lat":"22.312564","long":"113.937669"},{"id":"86201D4BB45ED201","name":"國泰城","lat":"22.297608","long":"113.932902"},{"id":"5BD8484E82721AF9","name":"機場警署","lat":"22.301843","long":"113.931336"},{"id":"F2DFF3A02940D925","name":"駿運南路","lat":"22.296359","long":"113.928230"},{"id":"F00B9766890B9FD5","name":"機場空運中心","lat":"22.295290","long":"113.925103"},{"id":"A14D4AF63BFAB364","name":"亞洲空運中心","lat":"22.296099","long":"113.920795"},{"id":"1159654D863462B1","name":"赤鱲角南路","lat":"22.292002","long":"113.928405"},{"id":"D04102C22195B7C4","name":"東涌纜車站","lat":"22.289137","long":"113.938641"},{"id":"F2F74DC6ADD35CFF","name":"富東廣場","lat":"22.288738","long":"113.941966"},{"id":"D11F0E419EDEF5ED","name":"裕東苑","lat":"22.286049","long":"113.941583"},{"id":"0E987A8094AF742E","name":"青嶼幹線轉車站 (N3)","lat":"22.339065","long":"114.041670"},{"id":"6118B186F901485A","name":"青華苑","lat":"22.348690","long":"114.096933"},{"id":"6246D82DAB57582A","name":"長亨邨","lat":"22.353966","long":"114.099017"},{"id":"9BA601064A2EF221","name":"青衣轉車站 - 長安總站 (A6)","lat":"22.361455","long":"114.102781"},{"id":"101E821CA2F6D853","name":"大窩口轉車站 -大窩口站","lat":"22.370531","long":"114.123873"},{"id":"CD9E21CA712C9F96","name":"昌榮路迴旋處","lat":"22.370179","long":"114.131995"},{"id":"569C5AADDD0F3A28","name":"葵俊苑","lat":"22.364805","long":"114.132936"},{"id":"A56DA623B00B162E","name":"新葵興花園","lat":"22.362273","long":"114.132084"},{"id":"073EAEA8EDD7265C","name":"新都會廣場","lat":"22.357846","long":"114.126204"},{"id":"2A8231CC433F6B22","name":"葵青劇院","lat":"22.356258","long":"114.125948"},{"id":"32477B342BF2DC22","name":"葵芳(南)總站","lat":"22.354641","long":"114.126501"}],"routeId":"E32","description":"正常班次"},{"company":"kmb","route":"E32","routeType":"2","dir":"I","orig":"航天城","dest":"葵芳(南)","stopList":[{"id":"57EB54AE06E21275","name":"航天城巴士總站","lat":"22.316508","long":"113.940934"},{"id":"75A16CAB149EF577","name":"機場(地面運輸中心)巴士總站","lat":"22.312564","long":"113.937669"},{"id":"86201D4BB45ED201","name":"國泰城","lat":"22.297608","long":"113.932902"},{"id":"5BD8484E82721AF9","name":"機場警署","lat":"22.301843","long":"113.931336"},{"id":"F2DFF3A02940D925","name":"駿運南路","lat":"22.296359","long":"113.928230"},{"id":"F00B9766890B9FD5","name":"機場空運中心","lat":"22.295290","long":"113.925103"},{"id":"A14D4AF63BFAB364","name":"亞洲空運中心","lat":"22.296099","long":"113.920795"},{"id":"1159654D863462B1","name":"赤鱲角南路","lat":"22.292002","long":"113.928405"},{"id":"D04102C22195B7C4","name":"東涌纜車站","lat":"22.289137","long":"113.938641"},{"id":"F2F74DC6ADD35CFF","name":"富東廣場","lat":"22.288738","long":"113.941966"},{"id":"D11F0E419EDEF5ED","name":"裕東苑","lat":"22.286049","long":"113.941583"},{"id":"0E987A8094AF742E","name":"青嶼幹線轉車站 (N3)","lat":"22.339065","long":"114.041670"},{"id":"6118B186F901485A","name":"青華苑","lat":"22.348690","long":"114.096933"},{"id":"2DC2EF0A12E23C1F","name":"長康邨康順樓","lat":"22.349624","long":"114.099900"},{"id":"AA4830D4C9864F6B","name":"青盛苑","lat":"22.349045","long":"114.103435"},{"id":"45FCFADAC74DCFFE","name":"長青巴士總站","lat":"22.348126","long":"114.107023"},{"id":"D693BB486419666B","name":"長青邨青槐樓","lat":"22.345568","long":"114.107909"},{"id":"330FCB2E8E28D4CF","name":"長青邨青桃樓","lat":"22.344953","long":"114.109635"},{"id":"4206E3523A2C11D5","name":"青衣工業中心","lat":"22.349073","long":"114.109775"},{"id":"B0D304F9542AE3BF","name":"青衣警署","lat":"22.351748","long":"114.107502"},{"id":"E58C9560384FAF7F","name":"綠悠雅苑","lat":"22.352432","long":"114.105388"},{"id":"393B6824B7836E4F","name":"青衣邨宜業樓","lat":"22.354076","long":"114.102164"},{"id":"C763E328B97F0D03","name":"楓樹窩體育館","lat":"22.355722","long":"114.102083"},{"id":"9BA601064A2EF221","name":"青衣轉車站 - 長安總站 (A6)","lat":"22.361455","long":"114.102781"},{"id":"101E821CA2F6D853","name":"大窩口轉車站 -大窩口站","lat":"22.370531","long":"114.123873"},{"id":"CD9E21CA712C9F96","name":"昌榮路迴旋處","lat":"22.370179","long":"114.131995"},{"id":"569C5AADDD0F3A28","name":"葵俊苑","lat":"22.364805","long":"114.132936"},{"id":"A56DA623B00B162E","name":"新葵興花園","lat":"22.362273","long":"114.132084"},{"id":"073EAEA8EDD7265C","name":"新都會廣場","lat":"22.357846","long":"114.126204"},{"id":"2A8231CC433F6B22","name":"葵青劇院","lat":"22.356258","long":"114.125948"},{"id":"32477B342BF2DC22","name":"葵芳(南)總站","lat":"22.354641","long":"114.126501"}],"routeId":"E32","description":"特別班次"}]