[{"company":"kmb","route":"E33P","routeType":"1","dir":"O","orig":"兆康站(南)","dest":"機場(地面運輸中心)","stopList":[{"id":"A9C009CFA994A79C","name":"兆康站(南) (TM912)","lat":"22.409852","long":"113.978399"},{"id":"5A781879E83B56A6","name":"彩暉花園 (TM249)","lat":"22.408787","long":"113.980162"},{"id":"6B3EF5D982B399E6","name":"嶺南大學 (TM252)","lat":"22.410322","long":"113.982168"},{"id":"2BEAF37792BFDCCA","name":"富泰邨 (TM253)","lat":"22.412993","long":"113.982217"},{"id":"E01BD8E1BEC29EA6","name":"五柳路 (TM526)","lat":"22.415511","long":"113.979679"},{"id":"229128E5EA86F3A2","name":"兆康路 (TM527)","lat":"22.414894","long":"113.977411"},{"id":"FEE7A700BE575A42","name":"兆康苑兆賢閣 (TM529)","lat":"22.410132","long":"113.976542"},{"id":"36BA4C299DA05A04","name":"屯門醫院 (TM532)","lat":"22.408300","long":"113.975283"},{"id":"5B8AC1AF282DF44A","name":"寶怡花園 (TM479)","lat":"22.408430","long":"113.968737"},{"id":"448D42252303EC00","name":"寶田轉車站 - 盈豐園(S1)","lat":"22.408075","long":"113.967266"},{"id":"712504F8E762020C","name":"田景邨田樂樓 (TM537)","lat":"22.407598","long":"113.964934"},{"id":"F307FDA96A1DF9A2","name":"田景邨田裕樓 (TM541)","lat":"22.405517","long":"113.964557"},{"id":"044276F0C057E98B","name":"石排站 (TM583)","lat":"22.402002","long":"113.968040"},{"id":"F4C9995BB455AB46","name":"鳴琴站 (TM587)","lat":"22.396655","long":"113.967709"},{"id":"4FF70CD3938702E4","name":"青雲站 (TM591)","lat":"22.393561","long":"113.967787"},{"id":"224B3B71A4C25C01","name":"聖彼德堂 (TM592)","lat":"22.392018","long":"113.967799"},{"id":"D0236013EDCA9EB1","name":"屯門泳池 (TM424)","lat":"22.381725","long":"113.970317"},{"id":"5670D4C081B08DC6","name":"兆山苑椰景閣 (TM652)","lat":"22.378492","long":"113.963662"},{"id":"78644FF7E8B7BBA0","name":"兆山苑柳景閣 (TM436)","lat":"22.378092","long":"113.962003"},{"id":"0221966C1116C4EC","name":"蝴蝶灣 (TM437)","lat":"22.375202","long":"113.958709"},{"id":"0412B5C2C05B00AD","name":"屯門赤鱲角隧道轉車站 (A3)","lat":"22.368636","long":"113.948637"},{"id":"AC0BDA78C106FF7A","name":"東涌消防局 (TC195)","lat":"22.286195","long":"113.941061"},{"id":"277DD90A63454F48","name":"東堤灣畔 (TC196)","lat":"22.287341","long":"113.939308"},{"id":"40AC79F25124280A","name":"赤鱲角南路 (CL205)","lat":"22.291872","long":"113.928410"},{"id":"86F4FDCF2F5D13ED","name":"駿運北路 (CL210)","lat":"22.295006","long":"113.923374"},{"id":"52C7FFE6629F5972","name":"香港空運貨站 (CL211)","lat":"22.297184","long":"113.929972"},{"id":"7211E63DE150A10E","name":"空郵中心 (CL215)","lat":"22.302014","long":"113.931068"},{"id":"AAC64BCDD5B55A86","name":"國泰城 (CL221)","lat":"22.297687","long":"113.933356"},{"id":"A99B6BB7F1628A08","name":"暢連路 (CL300)","lat":"22.310702","long":"113.936563"},{"id":"21466046C6868AA7","name":"機場(地面運輸中心)巴士總站","lat":"22.312604","long":"113.937526"},{"id":"7CB61EFB024D9025","name":"機場(地面運輸中心)巴士總站","lat":"22.313370","long":"113.937786"}],"routeId":"E33P","description":"正常班次"},{"company":"kmb","route":"E33P","routeType":"2","dir":"O","orig":"寶怡花園","dest":"機場(地面運輸中心)","stopList":[{"id":"5B8AC1AF282DF44A","name":"寶怡花園 (TM479)","lat":"22.408430","long":"113.968737"},{"id":"448D42252303EC00","name":"寶田轉車站 - 盈豐園(S1)","lat":"22.408075","long":"113.967266"},{"id":"712504F8E762020C","name":"田景邨田樂樓 (TM537)","lat":"22.407598","long":"113.964934"},{"id":"F307FDA96A1DF9A2","name":"田景邨田裕樓 (TM541)","lat":"22.405517","long":"113.964557"},{"id":"044276F0C057E98B","name":"石排站 (TM583)","lat":"22.402002","long":"113.968040"},{"id":"F4C9995BB455AB46","name":"鳴琴站 (TM587)","lat":"22.396655","long":"113.967709"},{"id":"4FF70CD3938702E4","name":"青雲站 (TM591)","lat":"22.393561","long":"113.967787"},{"id":"224B3B71A4C25C01","name":"聖彼德堂 (TM592)","lat":"22.392018","long":"113.967799"},{"id":"D0236013EDCA9EB1","name":"屯門泳池 (TM424)","lat":"22.381725","long":"113.970317"},{"id":"5670D4C081B08DC6","name":"兆山苑椰景閣 (TM652)","lat":"22.378492","long":"113.963662"},{"id":"78644FF7E8B7BBA0","name":"兆山苑柳景閣 (TM436)","lat":"22.378092","long":"113.962003"},{"id":"0221966C1116C4EC","name":"蝴蝶灣 (TM437)","lat":"22.375202","long":"113.958709"},{"id":"0412B5C2C05B00AD","name":"屯門赤鱲角隧道轉車站 (A3)","lat":"22.368636","long":"113.948637"},{"id":"AC0BDA78C106FF7A","name":"東涌消防局 (TC195)","lat":"22.286195","long":"113.941061"},{"id":"277DD90A63454F48","name":"東堤灣畔 (TC196)","lat":"22.287341","long":"113.939308"},{"id":"40AC79F25124280A","name":"赤鱲角南路 (CL205)","lat":"22.291872","long":"113.928410"},{"id":"86F4FDCF2F5D13ED","name":"駿運北路 (CL210)","lat":"22.295006","long":"113.923374"},{"id":"52C7FFE6629F5972","name":"香港空運貨站 (CL211)","lat":"22.297184","long":"113.929972"},{"id":"7211E63DE150A10E","name":"空郵中心 (CL215)","lat":"22.302014","long":"113.931068"},{"id":"AAC64BCDD5B55A86","name":"國泰城 (CL221)","lat":"22.297687","long":"113.933356"},{"id":"A99B6BB7F1628A08","name":"暢連路 (CL300)","lat":"22.310702","long":"113.936563"},{"id":"21466046C6868AA7","name":"機場(地面運輸中心)巴士總站","lat":"22.312604","long":"113.937526"},{"id":"7CB61EFB024D9025","name":"機場(地面運輸中心)巴士總站","lat":"22.313370","long":"113.937786"}],"routeId":"E33P","description":"特別班次"},{"company":"kmb","route":"E33P","routeType":"1","dir":"I","orig":"機場(地面運輸中心)","dest":"兆康站(南)","stopList":[{"id":"7CB61EFB024D9025","name":"機場(地面運輸中心)巴士總站","lat":"22.313370","long":"113.937786"},{"id":"86201D4BB45ED201","name":"國泰城 (CL340)","lat":"22.297608","long":"113.932902"},{"id":"5BD8484E82721AF9","name":"機場警署 (CL350)","lat":"22.301843","long":"113.931336"},{"id":"F2DFF3A02940D925","name":"駿運南路 (CL370)","lat":"22.296359","long":"113.928230"},{"id":"F00B9766890B9FD5","name":"機場空運中心 (CL371)","lat":"22.295290","long":"113.925103"},{"id":"A14D4AF63BFAB364","name":"亞洲空運中心 (CL240)","lat":"22.296099","long":"113.920795"},{"id":"1159654D863462B1","name":"赤鱲角南路 (CL380)","lat":"22.292002","long":"113.928405"},{"id":"3AE0CA0446E027D5","name":"東涌纜車站 (TC414)","lat":"22.289206","long":"113.938679"},{"id":"0DF241BC8EF60A2F","name":"富東廣場 (TC418)","lat":"22.288825","long":"113.942028"},{"id":"A033D7537C3E1920","name":"裕東苑 (TC403)","lat":"22.285985","long":"113.941656"},{"id":"4B5144408E60BF11","name":"屯門赤鱲角隧道轉車站 (T2)","lat":"22.369121","long":"113.947704"},{"id":"B651E2A39CD4CC05","name":"蝴蝶灣 (TM670)","lat":"22.375651","long":"113.959226"},{"id":"F734736F35F459DC","name":"蝴蝶站 (TM672)","lat":"22.378219","long":"113.961708"},{"id":"5C0A536D9D2B20B2","name":"蝴蝶灣體育館 (TM446)","lat":"22.378671","long":"113.964123"},{"id":"51418258FECF7F92","name":"屯門泳池 (TM681)","lat":"22.382198","long":"113.970187"},{"id":"5051A4FF380B1502","name":"青雲站 (TM180)","lat":"22.393502","long":"113.967461"},{"id":"9E1FC92F86D2F4E3","name":"鳴琴站 (TM186)","lat":"22.396585","long":"113.967372"},{"id":"FB46A4053B38C81D","name":"石排站 (TM187)","lat":"22.402032","long":"113.967885"},{"id":"BA72A994EEF9FABE","name":"新圍苑 (TM381)","lat":"22.405354","long":"113.964209"},{"id":"F8FE29B1FAF8BA77","name":"兆邦苑 (TM383)","lat":"22.407737","long":"113.965662"},{"id":"B26245505565A1E0","name":"寶田轉車站 - 寶田 (T1) (TM192)","lat":"22.409277","long":"113.967028"},{"id":"3D2F9154CBD9A387","name":"大興警署 (TM551)","lat":"22.407903","long":"113.970598"},{"id":"7E63082F897024A3","name":"麒麟圍 (TM486)","lat":"22.411090","long":"113.976493"},{"id":"2D1C73EF002336DC","name":"欣田邨 (TM487)","lat":"22.414268","long":"113.977171"},{"id":"66C1F17901E91CD9","name":"五柳路 (TM489)","lat":"22.415621","long":"113.979772"},{"id":"5B54D6F8B590E039","name":"富泰邨 (TM287)","lat":"22.412920","long":"113.982355"},{"id":"CC3EF4757AA0964A","name":"嶺南大學 (TM291)","lat":"22.409766","long":"113.982357"},{"id":"E92E2723C1DBA061","name":"彩暉花園 (TM292)","lat":"22.408534","long":"113.980201"},{"id":"A9C009CFA994A79C","name":"兆康站(南) (TM912)","lat":"22.409852","long":"113.978399"}],"routeId":"E33P","description":"正常班次"}]