[{"company":"kmb","route":"E36C","routeType":"1","dir":"O","orig":"元朗(德業街)","dest":"飛機維修區","stopList":[{"id":"087B8E4687A0872B","name":"元朗(德業街)總站 (YL981)","lat":"22.451245","long":"114.030972"},{"id":"93933C15FFC9F4CC","name":"尚豪庭 (YL211)","lat":"22.449239","long":"114.030961"},{"id":"9FB710B737A32C3A","name":"形點 II (YL393)","lat":"22.446580","long":"114.035512"},{"id":"7B93AB79165E79E6","name":"形點 I (A2) (YL241)","lat":"22.444276","long":"114.036040"},{"id":"B802C4681F58E3E2","name":"又新街 (S1) (YL245)","lat":"22.444292","long":"114.031170"},{"id":"F8DED1E04A074504","name":"大棠路 (S6) (YL250)","lat":"22.444354","long":"114.028391"},{"id":"8BE58FAD7E9C94C7","name":"康樂路 (S11) (YL255)","lat":"22.444383","long":"114.026050"},{"id":"1DBADE3376C4149E","name":"元朗警署 (S13) (YL257)","lat":"22.444466","long":"114.023938"},{"id":"61130BDD0AFFBA86","name":"水邊村 (YL260)","lat":"22.444568","long":"114.021140"},{"id":"147195048B687121","name":"元朗公園 (YL262)","lat":"22.444081","long":"114.018759"},{"id":"E01BD8E1BEC29EA6","name":"五柳路 (TM526)","lat":"22.415511","long":"113.979679"},{"id":"229128E5EA86F3A2","name":"兆康路 (TM527)","lat":"22.414894","long":"113.977411"},{"id":"776535DC784DD106","name":"菁田邨 (TM495)","lat":"22.413165","long":"113.972357"},{"id":"C054428621712B5C","name":"NOVO LAND (TM497)","lat":"22.411987","long":"113.970355"},{"id":"FA36E29F8BCC544C","name":"和田邨 (TM503)","lat":"22.412519","long":"113.968638"},{"id":"448D42252303EC00","name":"寶田轉車站 - 盈豐園(S1)","lat":"22.408075","long":"113.967266"},{"id":"712504F8E762020C","name":"田景邨田樂樓 (TM537)","lat":"22.407598","long":"113.964934"},{"id":"F307FDA96A1DF9A2","name":"田景邨田裕樓 (TM541)","lat":"22.405517","long":"113.964557"},{"id":"044276F0C057E98B","name":"石排站 (TM584)","lat":"22.402002","long":"113.968040"},{"id":"F4C9995BB455AB46","name":"鳴琴站 (TM587)","lat":"22.396655","long":"113.967709"},{"id":"4FF70CD3938702E4","name":"青雲站 (TM591)","lat":"22.393561","long":"113.967787"},{"id":"224B3B71A4C25C01","name":"聖彼德堂 (TM592)","lat":"22.392018","long":"113.967799"},{"id":"333A88A8E07C956B","name":"富健花園 (TM432)","lat":"22.383759","long":"113.964723"},{"id":"B2442AC56532517B","name":"新屯門中心 (TM434)","lat":"22.381876","long":"113.963884"},{"id":"6B1E8CDB2F6258EF","name":"湖景邨湖翠樓 (TM451)","lat":"22.376645","long":"113.966463"},{"id":"5C1FB04FF191337B","name":"屯門碼頭(兆禧苑) (TM632)","lat":"22.373120","long":"113.966618"},{"id":"0021EF45E20547CA","name":"邁亞美海灣 (TM634)","lat":"22.372791","long":"113.969718"},{"id":"956302DA435ADE07","name":"湖山網球場(悅湖山莊) (TM651)","lat":"22.376402","long":"113.968465"},{"id":"5670D4C081B08DC6","name":"兆山苑椰景閣 (TM652)","lat":"22.378492","long":"113.963662"},{"id":"78644FF7E8B7BBA0","name":"兆山苑柳景閣 (TM436)","lat":"22.378092","long":"113.962003"},{"id":"0221966C1116C4EC","name":"蝴蝶灣 (TM437)","lat":"22.375202","long":"113.958709"},{"id":"4F3D6BA55D5FFFE1","name":"屯門赤鱲角隧道轉車站 (A4)","lat":"22.368794","long":"113.948742"},{"id":"7211E63DE150A10E","name":"空郵中心","lat":"22.302014","long":"113.931068"},{"id":"F2DFF3A02940D925","name":"駿運南路","lat":"22.296359","long":"113.928230"},{"id":"F00B9766890B9FD5","name":"機場空運中心","lat":"22.295290","long":"113.925103"},{"id":"A14D4AF63BFAB364","name":"亞洲空運中心","lat":"22.296099","long":"113.920795"},{"id":"266DC8A29740F280","name":"DHL 中亞區樞紐中心","lat":"22.295258","long":"113.917109"},{"id":"3CBEDBBD1EE6AC99","name":"政府飛行服務隊","lat":"22.295441","long":"113.910580"},{"id":"89E740AB604B8270","name":"飛機維修區","lat":"22.304161","long":"113.899179"}],"routeId":"E36C","description":"正常班次"},{"company":"kmb","route":"E36C","routeType":"1","dir":"I","orig":"飛機維修區","dest":"元朗(德業街)","stopList":[{"id":"89E740AB604B8270","name":"飛機維修區","lat":"22.304161","long":"113.899179"},{"id":"49CBE0A640F1DA3E","name":"政府飛行服務隊","lat":"22.295484","long":"113.911200"},{"id":"4AFA4F918F96CD58","name":"DHL 中亞區樞紐中心","lat":"22.295269","long":"113.917628"},{"id":"A14D4AF63BFAB364","name":"亞洲空運中心","lat":"22.296099","long":"113.920795"},{"id":"86F4FDCF2F5D13ED","name":"駿運北路","lat":"22.295006","long":"113.923374"},{"id":"52C7FFE6629F5972","name":"香港空運貨站","lat":"22.297184","long":"113.929972"},{"id":"5BD8484E82721AF9","name":"機場警署","lat":"22.301843","long":"113.931336"},{"id":"80818BFC3FE76A5B","name":"屯門赤鱲角隧道轉車站 (T3)","lat":"22.368998","long":"113.947621"},{"id":"B651E2A39CD4CC05","name":"蝴蝶灣 (TM670)","lat":"22.375651","long":"113.959226"},{"id":"F734736F35F459DC","name":"蝴蝶站 (TM672)","lat":"22.378219","long":"113.961708"},{"id":"5C0A536D9D2B20B2","name":"蝴蝶灣體育館 (TM446)","lat":"22.378671","long":"113.964123"},{"id":"F335FAC974011CB6","name":"湖山網球場(悅湖山莊) (TM447)","lat":"22.376685","long":"113.968411"},{"id":"4242AE6B4D680E23","name":"邁亞美海灣 (TM461)","lat":"22.372713","long":"113.969612"},{"id":"49713551E95C1DA1","name":"屯門碼頭 (TM463)","lat":"22.372799","long":"113.966914"},{"id":"4B6D9BB197225DBE","name":"湖景邨湖畔樓 (TM645)","lat":"22.374569","long":"113.965688"},{"id":"A7630804FE109410","name":"湖景邨湖翠樓 (TM647)","lat":"22.376415","long":"113.966141"},{"id":"23B913EACE0581E4","name":"新屯門中心 (TM675)","lat":"22.381644","long":"113.963405"},{"id":"C6D5DEF91CB7B581","name":"龍門站 (TM677)","lat":"22.385448","long":"113.965184"},{"id":"5051A4FF380B1502","name":"青雲站 (TM180)","lat":"22.393502","long":"113.967461"},{"id":"9E1FC92F86D2F4E3","name":"鳴琴站 (TM186)","lat":"22.396585","long":"113.967372"},{"id":"FB46A4053B38C81D","name":"石排站 (TM187)","lat":"22.402032","long":"113.967885"},{"id":"BA72A994EEF9FABE","name":"新圍苑 (TM381)","lat":"22.405354","long":"113.964209"},{"id":"F8FE29B1FAF8BA77","name":"兆邦苑 (TM383)","lat":"22.407737","long":"113.965662"},{"id":"B26245505565A1E0","name":"寶田轉車站 - 寶田 (T1) (TM192)","lat":"22.409277","long":"113.967028"},{"id":"88F986C270B16408","name":"和田邨 (TM501)","lat":"22.412897","long":"113.968649"},{"id":"90CFA838B3C95AE0","name":"NOVO LAND (TM520)","lat":"22.412115","long":"113.970279"},{"id":"3C6FA714F5D6EE83","name":"紫田村 (TM522)","lat":"22.414047","long":"113.973446"},{"id":"2D1C73EF002336DC","name":"欣田邨 (TM487)","lat":"22.414268","long":"113.977171"},{"id":"66C1F17901E91CD9","name":"五柳路 (TM490)","lat":"22.415621","long":"113.979772"},{"id":"ADD19B88AA8E99DC","name":"鳳池村 (YL141)","lat":"22.446441","long":"114.019456"},{"id":"621C6671C9A2EDD0","name":"山水樓 (YL227)","lat":"22.446214","long":"114.019943"},{"id":"F6282DDA0B14F96A","name":"水邊圍邨 (YL357)","lat":"22.444541","long":"114.019732"},{"id":"F87A56BD0A2640ED","name":"元朗廣場 (N2) (YL360)","lat":"22.444681","long":"114.023872"},{"id":"D54B0CA58FE5559D","name":"元朗同樂街 (N12) (YL372)","lat":"22.444616","long":"114.028395"},{"id":"3D566753F149907F","name":"谷亭街 (N17) (YL378)","lat":"22.444578","long":"114.030375"},{"id":"9FB710B737A32C3A","name":"形點 II (YL393)","lat":"22.446580","long":"114.035512"},{"id":"39CA64EA95DEE080","name":"形點 I (YL405)","lat":"22.445065","long":"114.036445"},{"id":"7B93AB79165E79E6","name":"形點 I (A2) (YL241)","lat":"22.444276","long":"114.036040"},{"id":"21BC36A2065CB667","name":"尚豪庭 (YL161)","lat":"22.449614","long":"114.031081"},{"id":"087B8E4687A0872B","name":"元朗(德業街)總站 (YL981)","lat":"22.451245","long":"114.030972"}],"routeId":"E36C","description":"正常班次"}]