[{"company":"kmb","route":"E42P","routeType":"1","dir":"O","orig":"火炭(山尾街)","dest":"東涌(逸東)","stopList":[{"id":"1128EA51B0983903","name":"火炭(山尾街)總站","lat":"22.396525","long":"114.194300"},{"id":"408F54D68A80BE8D","name":"火炭村","lat":"22.394050","long":"114.196846"},{"id":"5E70E7D7AB0F41DE","name":"禾輋邨","lat":"22.387544","long":"114.196445"},{"id":"1179478DCE94A5C6","name":"瀝源邨","lat":"22.384248","long":"114.193347"},{"id":"197315C40E767929","name":"沙田市中心巴士總站","lat":"22.381943","long":"114.188103"},{"id":"6ACFA599CC0EA4E0","name":"帝都酒店","lat":"22.379733","long":"114.188115"},{"id":"CA89494AD121A8DC","name":"文化博物館","lat":"22.377762","long":"114.186539"},{"id":"FCA7A9D99D36338B","name":"秦石邨","lat":"22.374252","long":"114.186633"},{"id":"2E0FD54FCF000E13","name":"車公廟","lat":"22.374416","long":"114.184036"},{"id":"4F09976CA4CF80C9","name":"大圍轉車站 - 新翠邨新明樓","lat":"22.372094","long":"114.180196"},{"id":"F01D5D94B03AA8A2","name":"大圍轉車站 - 積運街","lat":"22.371958","long":"114.178141"},{"id":"1983BD4319FB2713","name":"海福花園","lat":"22.373605","long":"114.176824"},{"id":"824531506E710D40","name":"大圍道","lat":"22.376124","long":"114.176057"},{"id":"60D5F0433813AA06","name":"長亨邨","lat":"22.353264","long":"114.098798"},{"id":"A78ABC54E2286C0D","name":"青華苑","lat":"22.347611","long":"114.096999"},{"id":"C7217641124605E5","name":"青嶼幹線轉車站 (A3)","lat":"22.338302","long":"114.042190"},{"id":"1C958B99EB171940","name":"迎禧路裕雅苑","lat":"22.294246","long":"113.947910"},{"id":"AB63C9E8465C6002","name":"東環","lat":"22.294556","long":"113.950328"},{"id":"D7AAC19538A45549","name":"映灣園第二期","lat":"22.292070","long":"113.950594"},{"id":"22A8C801A98F9B7D","name":"怡東路","lat":"22.290973","long":"113.947991"},{"id":"DBA1D592108DBA72","name":"怡文中學","lat":"22.290813","long":"113.944883"},{"id":"B1790A47B8FFEF37","name":"海堤灣畔","lat":"22.292676","long":"113.943293"},{"id":"FAC118A395652466","name":"逸東邨美逸樓","lat":"22.281303","long":"113.938983"},{"id":"1A74AE460E7BEA16","name":"逸東邨居逸樓","lat":"22.282661","long":"113.936974"}],"routeId":"E42P","description":"正常班次"},{"company":"kmb","route":"E42P","routeType":"1","dir":"I","orig":"東涌(逸東)","dest":"火炭(山尾街)","stopList":[{"id":"BF152164ABD4B7A8","name":"逸東邨居逸樓","lat":"22.282607","long":"113.936813"},{"id":"05FE00A97E0CF001","name":"北大嶼山醫院","lat":"22.281914","long":"113.938753"},{"id":"24078B675A7FE3B3","name":"海堤灣畔","lat":"22.292422","long":"113.943618"},{"id":"DBB8E01BBE8C66ED","name":"藍天海岸","lat":"22.290995","long":"113.945854"},{"id":"7DF092F3A5418694","name":"映灣園第二期","lat":"22.291915","long":"113.950095"},{"id":"364754E2273129B7","name":"映灣園第一期","lat":"22.293290","long":"113.951688"},{"id":"FE6D5955F777E39C","name":"迎禧路","lat":"22.294485","long":"113.950525"},{"id":"0879D399E5B5FE0C","name":"青嶼幹線轉車站 (N2)","lat":"22.339065","long":"114.041670"},{"id":"6118B186F901485A","name":"青華苑","lat":"22.348690","long":"114.096933"},{"id":"6246D82DAB57582A","name":"長亨邨","lat":"22.353966","long":"114.099017"},{"id":"84864BD3AA42BECE","name":"大圍道","lat":"22.376075","long":"114.176533"},{"id":"AB52CEC256B299BE","name":"大圍街市","lat":"22.373557","long":"114.177258"},{"id":"156FFE36D7D42EFE","name":"大圍轉車站 - 大圍站","lat":"22.372631","long":"114.180352"},{"id":"65F5585B72A99D7F","name":"車公廟","lat":"22.374684","long":"114.184147"},{"id":"94BA372E9FDC87C4","name":"秦石邨","lat":"22.374476","long":"114.186187"},{"id":"A6631CAD2E2DE2A6","name":"文化博物館","lat":"22.377601","long":"114.186323"},{"id":"84FC122EC64D8885","name":"希爾頓中心","lat":"22.379622","long":"114.187141"},{"id":"04EA3349BDD260C8","name":"沙田市中心巴士總站","lat":"22.382420","long":"114.188533"},{"id":"225D34B4D891AFB1","name":"好運中心","lat":"22.383045","long":"114.190303"},{"id":"452DC333DCAD8464","name":"瀝源邨","lat":"22.384532","long":"114.193274"},{"id":"95974C5D780AB509","name":"禾輋邨","lat":"22.387846","long":"114.196375"},{"id":"23CB2BE92C04DDFA","name":"火炭村","lat":"22.393996","long":"114.196606"},{"id":"1128EA51B0983903","name":"火炭(山尾街)總站","lat":"22.396525","long":"114.194300"}],"routeId":"E42P","description":"正常班次"}]