[{"company":"kmb","route":"E43","routeType":"1","dir":"O","orig":"粉嶺(華明)","dest":"東涌發展碼頭","stopList":[{"id":"F8446E87636522E1","name":"華明轉車站(C1) (ND990)","lat":"22.484557","long":"114.141194"},{"id":"F7CAA75068E6CF50","name":"華明邨康明樓 (ND376)","lat":"22.483854","long":"114.139461"},{"id":"2952FAAF93CC4638","name":"華明邨耀明樓 (ND378)","lat":"22.482476","long":"114.141439"},{"id":"13E97271E64C885B","name":"塘坑 (ND451)","lat":"22.490691","long":"114.145682"},{"id":"61F3A30772D0913C","name":"粉嶺中心 (ND471)","lat":"22.490874","long":"114.142257"},{"id":"2AC85D87661D5AF6","name":"粉嶺站轉車站 - 粉嶺名都 (B1)","lat":"22.492326","long":"114.140070"},{"id":"F8E5ECAD9259EA0E","name":"粉嶺樓村 (ND291)","lat":"22.497010","long":"114.141249"},{"id":"910ECFD6092B55AF","name":"粉嶺樓路 (ND293)","lat":"22.500637","long":"114.140010"},{"id":"5BF1D8ADB79573CB","name":"皇府山 (ND570)","lat":"22.502943","long":"114.136631"},{"id":"DF0C4F9561000773","name":"天平邨總站 (ND950)","lat":"22.503533","long":"114.133850"},{"id":"966759977BCD51B4","name":"清河邨 (ND415)","lat":"22.494671","long":"114.127659"},{"id":"E288E3B0E638F87F","name":"曾梅千禧學校 (ND417)","lat":"22.494309","long":"114.125098"},{"id":"210978D525EEDF4F","name":"紅橋 (TM710)","lat":"22.401991","long":"113.977501"},{"id":"3465CA4854929709","name":"屯門赤鱲角隧道轉車站 (A2)","lat":"22.368651","long":"113.948681"},{"id":"1C958B99EB171940","name":"迎禧路裕雅苑 (TC150)","lat":"22.294246","long":"113.947910"},{"id":"AB63C9E8465C6002","name":"東環 (TC151)","lat":"22.294556","long":"113.950328"},{"id":"D7AAC19538A45549","name":"映灣園第二期 (TC160)","lat":"22.292070","long":"113.950594"},{"id":"22A8C801A98F9B7D","name":"怡東路 (TC161)","lat":"22.290973","long":"113.947991"},{"id":"DBA1D592108DBA72","name":"怡文中學 (TC162)","lat":"22.290813","long":"113.944883"},{"id":"B1790A47B8FFEF37","name":"海堤灣畔 (TC170)","lat":"22.292676","long":"113.943293"},{"id":"89A83934270E9BFB","name":"東涌纜車站 (TC410)","lat":"22.289324","long":"113.938822"},{"id":"C1A148BD237E4438","name":"東薈城 (TC416)","lat":"22.289943","long":"113.941790"},{"id":"277DD90A63454F48","name":"東堤灣畔 (TC196)","lat":"22.287341","long":"113.939308"},{"id":"E435992628015D22","name":"東涌發展碼頭 (TC176)","lat":"22.293636","long":"113.940527"}],"routeId":"E43","description":"正常班次"},{"company":"kmb","route":"E43","routeType":"1","dir":"I","orig":"東涌碼頭","dest":"粉嶺(華明)","stopList":[{"id":"E435992628015D22","name":"東涌發展碼頭 (TC176)","lat":"22.293636","long":"113.940527"},{"id":"D04102C22195B7C4","name":"東涌纜車站 (TC413)","lat":"22.289137","long":"113.938641"},{"id":"F2F74DC6ADD35CFF","name":"富東廣場 (TC419)","lat":"22.288738","long":"113.941966"},{"id":"24078B675A7FE3B3","name":"海堤灣畔 (TC200)","lat":"22.292422","long":"113.943618"},{"id":"DBB8E01BBE8C66ED","name":"藍天海岸 (TC210)","lat":"22.290995","long":"113.945854"},{"id":"7DF092F3A5418694","name":"映灣園第二期 (TC211)","lat":"22.291915","long":"113.950095"},{"id":"364754E2273129B7","name":"映灣園第一期 (TC212)","lat":"22.293290","long":"113.951688"},{"id":"FE6D5955F777E39C","name":"迎禧路 (TC230)","lat":"22.294485","long":"113.950525"},{"id":"0EE7033EEE2C4C8C","name":"屯門赤鱲角隧道轉車站(T1)","lat":"22.369197","long":"113.947775"},{"id":"B876788F86A8D127","name":"新墟街市 (TM131)","lat":"22.398684","long":"113.976530"},{"id":"D9B82EE66AFF2975","name":"紅橋 (TM134)","lat":"22.402582","long":"113.977175"},{"id":"BD7F4A65B230DDB2","name":"御皇庭 (ND115)","lat":"22.494589","long":"114.126142"},{"id":"CCED20D6135C0347","name":"御景峰 (ND117)","lat":"22.495680","long":"114.128132"},{"id":"EBE1766B508217AF","name":"天平邨總站 (ND951)","lat":"22.503533","long":"114.133850"},{"id":"C4F843F93CDCBE64","name":"皇府山 (ND255)","lat":"22.503324","long":"114.136614"},{"id":"4235BA400EB10F0E","name":"粉嶺樓路 (ND565)","lat":"22.500752","long":"114.140170"},{"id":"EDFAC4F35C0E51C7","name":"禮賢會中學 (ND567)","lat":"22.497188","long":"114.141291"},{"id":"13568DBEFE3503A6","name":"粉嶺消防局 (ND554)","lat":"22.494172","long":"114.140143"},{"id":"87F9F165B63331A5","name":"粉嶺站轉車站 - 祥華邨(A1)","lat":"22.492360","long":"114.140507"},{"id":"540B42AF095A342C","name":"粉嶺中心 (ND186)","lat":"22.491037","long":"114.142129"},{"id":"15B81103A046F072","name":"塘坑 (ND248)","lat":"22.490774","long":"114.146072"},{"id":"F8446E87636522E1","name":"華明轉車站(C1) (ND990)","lat":"22.484557","long":"114.141194"}],"routeId":"E43","description":"正常班次"}]