[{"company":"ctb","route":"H1","routeType":null,"dir":"O","orig":"中環碼頭-天星小輪","dest":"尖沙咀 ．落日飛車","stopList":[{"id":"001171","name":"中環碼頭 - 天星小輪","lat":"22.286604","long":"114.160353"},{"id":"001032","name":"中環 (交易廣場)","lat":"22.283696","long":"114.158033"},{"id":"001040","name":"西港城, 干諾道西","lat":"22.287711","long":"114.149801"},{"id":"002741","name":"荷李活道公園, 荷李活道","lat":"22.285705","long":"114.147640"},{"id":"002743","name":"文武廟, 荷李活道","lat":"22.284112","long":"114.150272"},{"id":"002745","name":"卑利街, 荷李活道","lat":"22.283074","long":"114.152732"},{"id":"001075","name":"大館, 荷李活道","lat":"22.281908","long":"114.154316"},{"id":"002707","name":"泄蘭街, 雪廠街","lat":"22.280077","long":"114.156441"},{"id":"001051","name":"皇后像廣場, 德輔道中","lat":"22.280749","long":"114.159644"},{"id":"001025","name":"皇后像廣場, 遮打道","lat":"22.281482","long":"114.160055"},{"id":"001136","name":"金鐘 - 金鐘花園, 金鐘道","lat":"22.278494","long":"114.164459"},{"id":"002481","name":"廈門街, 皇后大道東","lat":"22.275205","long":"114.171580"},{"id":"002467","name":"立德里, 摩理臣山道","lat":"22.276064","long":"114.180208"},{"id":"002438","name":"銅鑼灣 - 崇光百貨, 軒尼詩道","lat":"22.280208","long":"114.184178"},{"id":"003789","name":"灣仔海濱長廊, 鴻興道","lat":"22.282938","long":"114.179577"},{"id":"001475","name":"海底隧道巴士轉乘站","lat":"22.302818","long":"114.180084"},{"id":"003301","name":"星光大道, 梳士巴利道","lat":"22.296542","long":"114.177263"},{"id":"001589","name":"尖東站, 梳士巴利道","lat":"22.294752","long":"114.174029"},{"id":"003559","name":"香港文化中心, 梳士巴利道","lat":"22.294533","long":"114.171227"},{"id":"001588","name":"尖沙咀 (天星碼頭)","lat":"22.294426","long":"114.169194"},{"id":"003445","name":"半島酒店","lat":"22.295329","long":"114.171212"}],"routeId":"H1","description":"正常班次"}]