[{"company":"ctb","route":"H1","routeType":null,"dir":"O","orig":"中環 (天星碼頭)","dest":"尖沙咀","stopList":[{"id":"001171","name":"中環 (天星碼頭)","lat":"22.286604172091","long":"114.16035307053"},{"id":"001032","name":"中環 (交易廣場)","lat":"22.283695952091","long":"114.15803274053"},{"id":"001040","name":"西港城, 干諾道西","lat":"22.287710712091","long":"114.14980124053"},{"id":"002741","name":"普仁街, 荷李活道","lat":"22.285704722091","long":"114.14764043053"},{"id":"002743","name":"文武廟, 荷李活道","lat":"22.284112202091","long":"114.15027169053"},{"id":"002745","name":"卑利街, 荷李活道","lat":"22.283073802091","long":"114.15273213053"},{"id":"001075","name":"大館, 荷李活道","lat":"22.281907662091","long":"114.15431591053"},{"id":"002707","name":"泄蘭街, 雪廠街","lat":"22.280076772091","long":"114.15644070053"},{"id":"001025","name":"皇后像廣場, 遮打道","lat":"22.281482342091","long":"114.16005494053"},{"id":"001051","name":"皇后像廣場, 德輔道中","lat":"22.280748762091","long":"114.15964401053"},{"id":"001136","name":"金鐘站 - 金鐘花園, 金鐘道","lat":"22.278493752091","long":"114.16445856053"},{"id":"002481","name":"廈門街, 皇后大道東","lat":"22.275205172091","long":"114.17158011053"},{"id":"002469","name":"禮頓道, 摩理臣山道","lat":"22.276257182091","long":"114.18045880053"},{"id":"002439","name":"希慎廣場, 軒尼詩道","lat":"22.279999772091","long":"114.18335916053"},{"id":"003300","name":"金紫荊廣場, 博覽道東","lat":"22.284303662091","long":"114.17391988053"},{"id":"002559","name":"灣仔碼頭, 鴻興道","lat":"22.282102142091","long":"114.17584424053"},{"id":"003789","name":"灣仔海濱長廊, 鴻興道","lat":"22.282872052091","long":"114.17931131053"},{"id":"001475","name":"海底隧道巴士轉乘站","lat":"22.302817792091","long":"114.18008423053"},{"id":"003301","name":"星光大道, 梳士巴利道","lat":"22.296280932091","long":"114.17699772053"},{"id":"001589","name":"尖東站, 梳士巴利道","lat":"22.294751692091","long":"114.17402893053"},{"id":"003559","name":"香港文化中心, 梳士巴利道","lat":"22.294532712091","long":"114.17122742053"},{"id":"001588","name":"尖沙咀 (天星碼頭)","lat":"22.294426412091","long":"114.16919361053"},{"id":"003445","name":"半島酒店","lat":"22.295329082091","long":"114.17121211053"},{"id":"003548","name":"高鐵西九龍站上落客區","lat":"22.303788662091","long":"114.16657432053"}],"routeId":"H1","description":"正常班次"}]