[{"company":"ctb","route":"H2S","routeType":null,"dir":"I","orig":"銅鑼灣","dest":"高鐵西九龍站","stopList":[{"id":"002765","name":"中環 (大會堂)","lat":"22.282499962091","long":"114.16074536053"},{"id":"002423","name":"入境事務大樓, 告士打道","lat":"22.279435952091","long":"114.17270317053"},{"id":"002536","name":"銅鑼灣 (摩頓台)","lat":"22.278739572091","long":"114.18998843053"},{"id":"002439","name":"希慎廣場, 軒尼詩道","lat":"22.279999772091","long":"114.18335916053"},{"id":"001628","name":"西區海底隧道巴士轉乘站","lat":"22.305020162091","long":"114.15920401053"},{"id":"001775","name":"旺角中心, 彌敦道","lat":"22.319681842091","long":"114.16936520053"},{"id":"001564","name":"文明里, 彌敦道","lat":"22.312210192091","long":"114.17088450053"},{"id":"001481","name":"吳松街, 佐敦道","lat":"22.305239392091","long":"114.16990756053"},{}],"routeId":"H2S","description":"正常班次"},{"company":"ctb","route":"H2S","routeType":null,"dir":"O","orig":"高鐵西九龍站","dest":"銅鑼灣","stopList":[{},{"id":"001629","name":"西區海底隧道巴士轉乘站","lat":"22.304233652091","long":"114.15979682053"},{"id":"002765","name":"中環 (大會堂)","lat":"22.282499962091","long":"114.16074536053"},{"id":"002423","name":"入境事務大樓, 告士打道","lat":"22.279435952091","long":"114.17270317053"},{"id":"002536","name":"銅鑼灣 (摩頓台)","lat":"22.278739572091","long":"114.18998843053"}],"routeId":"H2S","description":"正常班次"}]