[{"company":"ctb","route":"H3","routeType":null,"dir":"O","orig":"中環碼頭 -香港摩天輪","dest":"赤柱村／赤柱市集  ．落日飛車","stopList":[{"id":"003339","name":"中環 (香港摩天輪)","lat":"22.285988","long":"114.161746"},{"id":"001139","name":"金鐘 - 港鐵 B 出口","lat":"22.279769","long":"114.163840"},{"id":"003300","name":"金紫荊廣場, 博覽道東","lat":"22.284304","long":"114.173920"},{"id":"002225","name":"海洋公園","lat":"22.247393","long":"114.173920"},{"id":"002201","name":"深水灣, 香島道","lat":"22.244498","long":"114.188069"},{"id":"002252","name":"淺水灣海灘, 淺水灣道","lat":"22.238611","long":"114.195268"},{"id":"002378","name":"赤柱廣場","lat":"22.220223","long":"114.209202"},{"id":"002281","name":"赤柱村, 赤柱村道","lat":"22.219070","long":"114.212919"},{"id":"002305","name":"赤柱監獄, 東頭灣道","lat":"22.215507","long":"114.217660"},{"id":"002275","name":"赤柱警署, 赤柱村道","lat":"22.218520","long":"114.213012"}],"routeId":"H3","description":"正常班次"}]