[{"company":"ctb","route":"H3","routeType":null,"dir":"O","orig":"中環碼頭 -香港摩天輪","dest":"赤柱村／赤柱市集  ．落日飛車","stopList":[{"id":"003339","name":"中環 (香港摩天輪)","lat":"22.285987782091","long":"114.16174587053"},{"id":"001139","name":"金鐘 - 港鐵 B 出口","lat":"22.279768672091","long":"114.16383960053"},{"id":"003300","name":"金紫荊廣場, 博覽道東","lat":"22.284303662091","long":"114.17391988053"},{"id":"002225","name":"海洋公園","lat":"22.247392812091","long":"114.17392013053"},{"id":"002201","name":"深水灣, 香島道","lat":"22.244497912091","long":"114.18806928053"},{"id":"002252","name":"淺水灣海灘, 淺水灣道","lat":"22.238611492091","long":"114.19526796053"},{"id":"002378","name":"赤柱廣場","lat":"22.220223252091","long":"114.20920230053"},{"id":"002277","name":"赤柱村","lat":"22.219212682091","long":"114.21300366053"}],"routeId":"H3","description":"正常班次"}]