[{"company":"kmb","route":"HK1","routeType":"1","dir":"O","orig":"尖沙咀碼頭","dest":"尖沙咀碼頭(循環線)","stopList":[{"id":"F87373F646004131","name":"尖沙咀碼頭,海港城 (YT905)","lat":"22.294496","long":"114.169347"},{"id":"24AD31E3F8DF42AE","name":"中港城 戲曲中心 (YT646)","lat":"22.300341","long":"114.168095"},{"id":"851291B396623C22","name":"柯士甸道西 (YT261)","lat":"22.302367","long":"114.160048"},{"id":"F843A0E566CF4147","name":"M+ (YT266)","lat":"22.301510","long":"114.158190"},{"id":"ED1B11038B7F6955","name":"香港故宮文化博物館 (YT272)","lat":"22.301502","long":"114.156253"},{"id":"CCF8DAC87BE8707F","name":"佐敦上海街, 廟街夜市 (YT245)","lat":"22.305680","long":"114.168789"},{"id":"3B672FFFDB172686","name":"九龍中央郵政局 (YT132)","lat":"22.309248","long":"114.171089"},{"id":"D948E91F481784FF","name":"旺角奶路臣街 (MK172)","lat":"22.318058","long":"114.169499"},{"id":"2AD5A244A0F84266","name":"太子站,旺角花墟 (MK184)","lat":"22.325490","long":"114.167954"},{"id":"9DCF59C5F17F780A","name":"北河街 (SS303)","lat":"22.331789","long":"114.164561"},{"id":"F61AEC7288DD9CCF","name":"上李屋花園, 美荷樓 (SS305)","lat":"22.335341","long":"114.162341"},{"id":"EA3C8544DF22AC4E","name":"豐力樓, 龍翔道眺望處 (SS193)","lat":"22.343157","long":"114.172716"},{"id":"58100E7F618C4018","name":"黃大仙轉車站-黃大仙廟 (WT207)","lat":"22.341852","long":"114.192339"},{"id":"6DF4CBF4B5D7FCCD","name":"志蓮淨苑 (WT409)","lat":"22.340105","long":"114.204311"},{"id":"3A9CDC9BA93346E2","name":"九龍城轉車站- 富豪東方酒店","lat":"22.327232","long":"114.190701"},{"id":"4971088E49D4DCAB","name":"永安廣場, 星光大道 (YT628)","lat":"22.296416","long":"114.177000"},{"id":"DCFF4041D0C0ACF8","name":"尖沙咀碼頭,海港城 (YT901)","lat":"22.293816","long":"114.168797"}],"routeId":"HK1","description":"正常班次"}]