[{"company":"kmb","route":"HK1","routeType":"1","dir":"O","orig":"尖沙咀碼頭","dest":"[九巴遊香港] 尖沙咀, 旺角及黃大仙","stopList":[{"id":"F87373F646004131","name":"尖沙咀碼頭,海港城 (YT905)","lat":"22.294496","long":"114.169347"},{"id":"24AD31E3F8DF42AE","name":"中港城 戲曲中心 (YT646)","lat":"22.300341","long":"114.168095"},{"id":"851291B396623C22","name":"柯士甸道西 (YT261)","lat":"22.302367","long":"114.160048"},{"id":"F843A0E566CF4147","name":"西九文化區 M+ (YT266)","lat":"22.301510","long":"114.158190"},{"id":"ED1B11038B7F6955","name":"香港故宮文化博物館 (YT272)","lat":"22.301502","long":"114.156253"},{"id":"CCF8DAC87BE8707F","name":"佐敦上海街, 廟街夜市 (YT245)","lat":"22.305680","long":"114.168789"},{"id":"3B672FFFDB172686","name":"九龍中央郵政局 (YT132)","lat":"22.309248","long":"114.171089"},{"id":"D948E91F481784FF","name":"旺角奶路臣街 (MK172)","lat":"22.318058","long":"114.169499"},{"id":"2AD5A244A0F84266","name":"太子站,旺角花墟 (MK184)","lat":"22.325490","long":"114.167954"},{"id":"9DCF59C5F17F780A","name":"深水埗北河街 (SS303)","lat":"22.331789","long":"114.164561"},{"id":"F61AEC7288DD9CCF","name":"上李屋花園, 美荷樓 (SS305)","lat":"22.335341","long":"114.162341"},{"id":"EA3C8544DF22AC4E","name":"豐力樓, 龍翔道眺望處 (SS193)","lat":"22.343157","long":"114.172716"},{"id":"58100E7F618C4018","name":"黃大仙轉車站-黃大仙廟 (WT207)","lat":"22.341852","long":"114.192339"},{"id":"6DF4CBF4B5D7FCCD","name":"志蓮淨苑 (WT409)","lat":"22.340105","long":"114.204311"},{"id":"D477F40E64BFF7D8","name":"九龍城轉車站-富豪東方酒店","lat":"22.327364","long":"114.190921"},{"id":"4971088E49D4DCAB","name":"永安廣場, 星光大道 (YT628)","lat":"22.296416","long":"114.177000"},{"id":"DCFF4041D0C0ACF8","name":"尖沙咀碼頭,海港城 (YT901)","lat":"22.293816","long":"114.168797"}],"routeId":"HK1","description":"正常班次"},{"company":"kmb","route":"HK1","routeType":"2","dir":"O","orig":"尖沙咀碼頭","dest":"[九巴遊香港] 尖沙咀及旺角","stopList":[{"id":"AFC5AA585D7CC792","name":"尖沙咀碼頭,海港城 (YT905)","lat":"22.294496","long":"114.169347"},{"id":"098140DB8F56A7F9","name":"中港城 戲曲中心 (YT646)","lat":"22.300341","long":"114.168095"},{"id":"F8CBA0DDD2E2C069","name":"柯士甸道西 (YT261)","lat":"22.302367","long":"114.160048"},{"id":"008FB3966C991A02","name":"西九文化區 M+ (YT266)","lat":"22.301510","long":"114.158190"},{"id":"3DDE01E36E19036E","name":"香港故宮文化博物館 (YT272)","lat":"22.301502","long":"114.156253"},{"id":"959651A2B15D9593","name":"佐敦上海街, 廟街夜市 (YT245)","lat":"22.305680","long":"114.168789"},{"id":"FFB7857BB362057D","name":"九龍中央郵政局 (YT132)","lat":"22.309248","long":"114.171089"},{"id":"1309F1F58E619DDD","name":"旺角奶路臣街 (MK172)","lat":"22.318058","long":"114.169499"},{"id":"783CE18C333C6069","name":"旺角站,旺角中心 (MK512)","lat":"22.319834","long":"114.169353"},{"id":"97CE87CF035B0E10","name":"油麻地碧街 (YT537)","lat":"22.313516","long":"114.170662"},{"id":"9CFEC0E6008F4B01","name":"金馬倫道,清真寺 (YT559a)","lat":"22.298979","long":"114.172114"},{"id":"E2BFABFEB23808BD","name":"尖沙咀碼頭,海港城","lat":"22.293816","long":"114.168797"}],"routeId":"HK1","description":"特別班次"}]