[{"company":"mtr","route":"K53","routeType":null,"dir":"O","orig":"屯門站 (輕鐵屯門站)","dest":"屯門站","stopList":[{"id":"K53-U010","name":"屯門站 (輕鐵屯門站)","lat":"22.394225","long":"113.973358"},{"id":"K53-U020","name":"屯門市中心","lat":"22.391543","long":"113.975435"},{"id":"K53-U030","name":"屯門官立中學","lat":"22.390622","long":"113.978751"},{"id":"K53-U040","name":"恒順園","lat":"22.387719","long":"113.980762"},{"id":"K53-U050","name":"恒豐園","lat":"22.385247","long":"113.981068"},{"id":"K53-U060","name":"三聖邨","lat":"22.381732","long":"113.978847"},{"id":"K53-U070","name":"青山灣","lat":"22.378923","long":"113.980763"},{"id":"K53-U080","name":"海景花園","lat":"22.377877","long":"113.983564"},{"id":"K53-U090","name":"咖啡灣","lat":"22.374926","long":"113.986745"},{"id":"K53-U100","name":"黃金泳灘","lat":"22.373785","long":"113.990848"},{"id":"K53-U110","name":"香港黃金海岸","lat":"22.372048","long":"113.993608"},{"id":"K53-U120","name":"愛琴海岸","lat":"22.371605","long":"113.9954"},{"id":"K53-U130","name":"掃管笏變電站","lat":"22.373878","long":"113.996144"},{"id":"K53-U140","name":"掃管笏村","lat":"22.375743","long":"113.999829"},{"id":"K53-D010","name":"掃管笏 (鄭任安夫人千禧小學)","lat":"22.372023","long":"114.003593"},{"id":"K53-D015","name":"掃管笏路","lat":"22.374216","long":"114.002295"},{"id":"K53-D020","name":"管翠路18號","lat":"22.373866","long":"114.001024"},{"id":"K53-D030","name":"管翠路","lat":"22.375123","long":"113.997707"},{"id":"K53-D040","name":"愛琴海岸","lat":"22.371473","long":"113.995381"},{"id":"K53-D050","name":"香港黃金海岸","lat":"22.371294","long":"113.993906"},{"id":"K53-D060","name":"黃金泳灘","lat":"22.373653","long":"113.991237"},{"id":"K53-D070","name":"咖啡灣","lat":"22.375924","long":"113.985662"},{"id":"K53-D080","name":"碧翠花園","lat":"22.377941","long":"113.983293"},{"id":"K53-D090","name":"青山灣碼頭","lat":"22.378954","long":"113.980609"},{"id":"K53-D100","name":"三聖邨","lat":"22.381245","long":"113.979119"},{"id":"K53-D110","name":"恆福花園 (輕鐵三聖站)","lat":"22.382079","long":"113.977158"},{"id":"K53-D120","name":"胡陳金枝中學","lat":"22.383774","long":"113.97939"},{"id":"K53-D130","name":"青善遊樂場","lat":"22.38463","long":"113.980641"},{"id":"K53-D140","name":"置樂花園","lat":"22.387328","long":"113.980668"},{"id":"K53-D150","name":"屯門官立中學","lat":"22.390452","long":"113.978855"},{"id":"K53-D160","name":"輕鐵市中心站","lat":"22.392116","long":"113.975082"},{"id":"K53-U011","name":"屯門站 (輕鐵屯門站)","lat":"22.394225","long":"113.973358"},{"id":"K53*-U010","name":"屯門站","lat":"22.394225","long":"113.973358"},{"id":"K53*-U020","name":"天后路","lat":"22.391668","long":"113.971547"},{"id":"K53*-U030","name":"業旺邨","lat":"22.38814","long":"113.97015"},{"id":"K53*-U040","name":"屯門站","lat":"22.394225","long":"113.973358"}],"routeId":"K53","description":"正常班次"}]