[{"company":"mtr","route":"K66A","routeType":"K66A_LP_TT","dir":"O","orig":"朗屏","dest":"大棠山道","stopList":[{"id":"K66A-U010","name":"朗屏","lat":"22.450781","long":"114.022929"},{"id":"K66A-U020","name":"楊屋村","lat":"22.451347","long":"114.025402"},{"id":"K66A-U030","name":"屏昌徑","lat":"22.447672","long":"114.023295"},{"id":"K66A-U040","name":"元朗盲人安老院","lat":"22.446002","long":"114.022607"},{"id":"K66A-U050","name":"元朗大會堂","lat":"22.443467","long":"114.022317"},{"id":"K66A-U060","name":"安康路","lat":"22.443062","long":"114.023658"},{"id":"K66A-U070","name":"元朗商業中心","lat":"22.442970","long":"114.027754"},{"id":"K66A-U080","name":"富達廣場","lat":"22.441204","long":"114.029402"},{"id":"K66A-U090","name":"蝶翠峰","lat":"22.436903","long":"114.029411"},{"id":"K66A-U100","name":"禮修村","lat":"22.435406","long":"114.028768"},{"id":"K66A-U110","name":"深涌村","lat":"22.433697","long":"114.028588"},{"id":"K66A-U120","name":"羅家園","lat":"22.432400","long":"114.028517"},{"id":"K66A-U130","name":"崇正公立學校","lat":"22.429789","long":"114.028610"},{"id":"K66A-U140","name":"崇正菜站","lat":"22.427396","long":"114.029509"},{"id":"K66A-U150","name":"老圍","lat":"22.425623","long":"114.031273"},{"id":"K66A-U160","name":"振華花園","lat":"22.423563","long":"114.032185"},{"id":"K66A-U170","name":"南坑排","lat":"22.422655","long":"114.030895"},{"id":"K66A-U180","name":"水蕉新村","lat":"22.422477","long":"114.029880"},{"id":"K66A-U190","name":"華苑","lat":"22.421939","long":"114.028261"},{"id":"K66A-U200","name":"大棠迴旋處","lat":"22.418366","long":"114.025655"},{"id":"K66A-U205","name":"大棠山道","lat":"22.413544","long":"114.027721"}],"routeId":"K66A","description":"正常班次"},{"company":"mtr","route":"K66A","routeType":"K66A_TT_LP","dir":"I","orig":"大棠山道","dest":"朗屏","stopList":[{"id":"K66A-D025","name":"大棠山道","lat":"22.413544","long":"114.027721"},{"id":"K66A-D030","name":"大棠迴旋處","lat":"22.418334","long":"114.024840"},{"id":"K66A-D040","name":"華苑","lat":"22.422075","long":"114.028385"},{"id":"K66A-D050","name":"水蕉新村","lat":"22.422537","long":"114.029929"},{"id":"K66A-D060","name":"南坑排","lat":"22.422708","long":"114.031028"},{"id":"K66A-D070","name":"南坑村","lat":"22.424182","long":"114.032233"},{"id":"K66A-D080","name":"紅棗田村","lat":"22.425711","long":"114.031115"},{"id":"K66A-D090","name":"普盛圍","lat":"22.427516","long":"114.029355"},{"id":"K66A-D100","name":"崇正公立學校","lat":"22.429939","long":"114.028569"},{"id":"K66A-D110","name":"羅家園","lat":"22.432172","long":"114.028493"},{"id":"K66A-D120","name":"深涌村","lat":"22.433772","long":"114.028562"},{"id":"K66A-D130","name":"禮修村","lat":"22.435431","long":"114.028716"},{"id":"K66A-D140","name":"蝶翠峰","lat":"22.437241","long":"114.029578"},{"id":"K66A-D150","name":"恆香製餅廠","lat":"22.438369","long":"114.029448"},{"id":"K66A-D160","name":"富達廣場","lat":"22.441194","long":"114.029338"},{"id":"K66A-D170","name":"千色廣場","lat":"22.442982","long":"114.027803"},{"id":"K66A-D180","name":"安康路","lat":"22.443026","long":"114.023011"},{"id":"K66A-D190","name":"元朗大會堂","lat":"22.443621","long":"114.022234"},{"id":"K66A-D200","name":"水邊圍邨康水樓","lat":"22.446139","long":"114.021344"},{"id":"K66A-D210","name":"朗屏邨悅屏樓","lat":"22.447851","long":"114.022727"},{"id":"K66A-D220","name":"惠州學校","lat":"22.449515","long":"114.025532"},{"id":"K66A-D230","name":"朗屏邨珠屏樓","lat":"22.451414","long":"114.025334"},{"id":"K66A-D240","name":"朗屏","lat":"22.450781","long":"114.022929"}],"routeId":"K66A","description":"正常班次"}]