[{"company":"mtr","route":"K68","routeType":"K68_CIR","dir":"O","orig":"元朗工業邨","dest":"元朗公園 (循環線)","stopList":[{"id":"K68-U010","name":"元朗工業邨","lat":"22.460827","long":"114.026513"},{"id":"K68-U020","name":"凸版資訊卡","lat":"22.462075","long":"114.028979"},{"id":"K68-U030","name":"雀巢","lat":"22.463753","long":"114.027581"},{"id":"K68-U040","name":"元朗污水處理廠","lat":"22.465525","long":"114.026843"},{"id":"K68-U050","name":"位元堂藥業大廈","lat":"22.464754","long":"114.024822"},{"id":"K68-U060","name":"東電化電子零件","lat":"22.462219","long":"114.023448"},{"id":"K68-U070","name":"凸版印刷","lat":"22.460390","long":"114.022169"},{"id":"K68-U080","name":"匯泉國際實業","lat":"22.458450","long":"114.023157"},{"id":"K68-U090","name":"橫洲福慶村","lat":"22.455119","long":"114.024092"},{"id":"K68-U100","name":"朗屏 (巴士總站)","lat":"22.450781","long":"114.022929"},{"id":"K68-U110","name":"楊屋村","lat":"22.451379","long":"114.025576"},{"id":"K68-U120","name":"屏昌徑 (港鐵朗屏站)","lat":"22.447648","long":"114.023001"},{"id":"K68-U130","name":"元朗盲人安老院","lat":"22.446002","long":"114.022607"},{"id":"K68-U140","name":"聿修堂 (輕鐵豐年路站)","lat":"22.442588","long":"114.022245"},{"id":"K68-U150","name":"元朗劇院","lat":"22.441306","long":"114.022240"},{"id":"K68-U160","name":"銀田花園","lat":"22.439530","long":"114.022260"},{"id":"K68-U170","name":"南元朗官立小學","lat":"22.438801","long":"114.020240"},{"id":"K68-D010","name":"元朗公園","lat":"22.441930","long":"114.020070"},{"id":"K68-D020","name":"御豪山莊","lat":"22.442503","long":"114.017663"},{"id":"K68-D030","name":"藝典居","lat":"22.440088","long":"114.019048"},{"id":"K68-D040","name":"御庭居","lat":"22.440407","long":"114.021312"},{"id":"K68-D050","name":"元朗游泳池","lat":"22.441497","long":"114.022139"},{"id":"K68-D060","name":"元朗大會堂","lat":"22.443644","long":"114.022164"},{"id":"K68-D070","name":"元朗廣場 (輕鐵豐年路站)","lat":"22.444676","long":"114.023705"},{"id":"K68-D080","name":"元朗安寧路","lat":"22.446157","long":"114.026583"},{"id":"K68-D090","name":"大橋村 (港鐵朗屏站)","lat":"22.447538","long":"114.026826"},{"id":"K68-D100","name":"惠州學校","lat":"22.449497","long":"114.025532"},{"id":"K68-D110","name":"朗屏邨珠屏樓","lat":"22.451434","long":"114.025324"},{"id":"K68-D120","name":"朗屏 (巴士總站)","lat":"22.450781","long":"114.022929"},{"id":"K68-D130","name":"橫洲福慶村","lat":"22.455166","long":"114.024030"},{"id":"K68-D140","name":"元朗紡織品","lat":"22.457890","long":"114.023353"},{"id":"K68-D150","name":"大昌行食品加工及物流中心","lat":"22.460236","long":"114.022242"},{"id":"K68-D160","name":"有生鉛水(熱浸鋅)","lat":"22.462306","long":"114.023412"},{"id":"K68-D170","name":"余仁生中心","lat":"22.464968","long":"114.024783"},{"id":"K68-D180","name":"元朗污水處理廠","lat":"22.465479","long":"114.026899"},{"id":"K68-D190","name":"雀巢","lat":"22.463782","long":"114.027638"},{"id":"K68-D200","name":"牛尾香港","lat":"22.461655","long":"114.029313"},{"id":"K68-U011","name":"元朗工業邨","lat":"22.460827","long":"114.026513"}],"routeId":"K68","description":"正常班次"},{"company":"mtr","route":"K68","routeType":"K68_SFG_YLIE","dir":"O","orig":"銀田花園","dest":"元朗工業邨","stopList":[{"id":"K68-U160","name":"銀田花園","lat":"22.439530","long":"114.022260"},{"id":"K68-U170","name":"南元朗官立小學","lat":"22.438801","long":"114.020240"},{"id":"K68-D010","name":"元朗公園","lat":"22.441930","long":"114.020070"},{"id":"K68-D020","name":"御豪山莊","lat":"22.442503","long":"114.017663"},{"id":"K68-D030","name":"藝典居","lat":"22.440088","long":"114.019048"},{"id":"K68-D040","name":"御庭居","lat":"22.440407","long":"114.021312"},{"id":"K68-D050","name":"元朗游泳池","lat":"22.441497","long":"114.022139"},{"id":"K68-D060","name":"元朗大會堂","lat":"22.443644","long":"114.022164"},{"id":"K68-D070","name":"元朗廣場","lat":"22.444676","long":"114.023705"},{"id":"K68-D080","name":"元朗安寧路","lat":"22.446157","long":"114.026583"},{"id":"K68-D090","name":"大橋村","lat":"22.447538","long":"114.026826"},{"id":"K68-D100","name":"惠州學校","lat":"22.449497","long":"114.025532"},{"id":"K68-D110","name":"朗屏邨珠屏樓","lat":"22.451434","long":"114.025324"},{"id":"K68-D120","name":"朗屏","lat":"22.450781","long":"114.022929"},{"id":"K68-D130","name":"橫洲福慶村","lat":"22.455166","long":"114.024030"},{"id":"K68-D140","name":"元朗紡織品","lat":"22.457890","long":"114.023353"},{"id":"K68-D150","name":"大昌行食品加工及物流中心","lat":"22.460236","long":"114.022242"},{"id":"K68-D160","name":"有生鉛水(熱浸鋅)","lat":"22.462306","long":"114.023412"},{"id":"K68-D170","name":"余仁生中心","lat":"22.464968","long":"114.024783"},{"id":"K68-D180","name":"元朗污水處理廠","lat":"22.465479","long":"114.026899"},{"id":"K68-D190","name":"雀巢","lat":"22.463782","long":"114.027638"},{"id":"K68-D200","name":"牛尾香港","lat":"22.461655","long":"114.029313"},{"id":"K68-U011","name":"元朗工業邨","lat":"22.460827","long":"114.026513"}],"routeId":"K68-1","description":"特別班次"},{"company":"mtr","route":"K68","routeType":"K68_YLP_YLIE","dir":"O","orig":"元朗廣場","dest":"元朗工業邨","stopList":[{"id":"K68-D070","name":"元朗廣場","lat":"22.444676","long":"114.023705"},{"id":"K68-D080","name":"元朗安寧路","lat":"22.446157","long":"114.026583"},{"id":"K68-D090","name":"大橋村","lat":"22.447538","long":"114.026826"},{"id":"K68-D100","name":"惠州學校","lat":"22.449497","long":"114.025532"},{"id":"K68-D110","name":"朗屏邨珠屏樓","lat":"22.451434","long":"114.025324"},{"id":"K68-D120","name":"朗屏","lat":"22.450781","long":"114.022929"},{"id":"K68-D130","name":"橫洲福慶村","lat":"22.455166","long":"114.024030"},{"id":"K68-D140","name":"元朗紡織品","lat":"22.457890","long":"114.023353"},{"id":"K68-D150","name":"大昌行食品加工及物流中心","lat":"22.460236","long":"114.022242"},{"id":"K68-D160","name":"有生鉛水(熱浸鋅)","lat":"22.462306","long":"114.023412"},{"id":"K68-D170","name":"余仁生中心","lat":"22.464968","long":"114.024783"},{"id":"K68-D180","name":"元朗污水處理廠","lat":"22.465479","long":"114.026899"},{"id":"K68-D190","name":"雀巢","lat":"22.463782","long":"114.027638"},{"id":"K68-D200","name":"牛尾香港","lat":"22.461655","long":"114.029313"},{"id":"K68-U011","name":"元朗工業邨","lat":"22.460827","long":"114.026513"}],"routeId":"K68-2","description":"特別班次"},{"company":"mtr","route":"K68","routeType":"K68_TKT_YLIE","dir":"O","orig":"大橋村","dest":"元朗工業邨","stopList":[{"id":"K68-D090","name":"大橋村","lat":"22.447538","long":"114.026826"},{"id":"K68-D100","name":"惠州學校","lat":"22.449497","long":"114.025532"},{"id":"K68-D110","name":"朗屏邨珠屏樓","lat":"22.451434","long":"114.025324"},{"id":"K68-D120","name":"朗屏","lat":"22.450781","long":"114.022929"},{"id":"K68-D130","name":"橫洲福慶村","lat":"22.455166","long":"114.024030"},{"id":"K68-D140","name":"元朗紡織品","lat":"22.457890","long":"114.023353"},{"id":"K68-D150","name":"大昌行食品加工及物流中心","lat":"22.460236","long":"114.022242"},{"id":"K68-D160","name":"有生鉛水(熱浸鋅)","lat":"22.462306","long":"114.023412"},{"id":"K68-D170","name":"余仁生中心","lat":"22.464968","long":"114.024783"},{"id":"K68-D180","name":"元朗污水處理廠","lat":"22.465479","long":"114.026899"},{"id":"K68-D190","name":"雀巢","lat":"22.463782","long":"114.027638"},{"id":"K68-D200","name":"牛尾香港","lat":"22.461655","long":"114.029313"},{"id":"K68-U011","name":"元朗工業邨","lat":"22.460827","long":"114.026513"}],"routeId":"K68-3","description":"特別班次"},{"company":"mtr","route":"K68","routeType":"K68_YLIE_TKT","dir":"O","orig":"元朗工業邨","dest":"大橋村","stopList":[{"id":"K68-U010","name":"元朗工業邨","lat":"22.460827","long":"114.026513"},{"id":"K68-U020","name":"凸版資訊卡","lat":"22.462075","long":"114.028979"},{"id":"K68-U030","name":"雀巢","lat":"22.463753","long":"114.027581"},{"id":"K68-U040","name":"元朗污水處理廠","lat":"22.465525","long":"114.026843"},{"id":"K68-U050","name":"位元堂藥業大廈","lat":"22.464754","long":"114.024822"},{"id":"K68-U060","name":"東電化電子零件","lat":"22.462219","long":"114.023448"},{"id":"K68-U070","name":"凸版印刷","lat":"22.460390","long":"114.022169"},{"id":"K68-U080","name":"匯泉國際實業","lat":"22.458450","long":"114.023157"},{"id":"K68-U090","name":"橫洲福慶村","lat":"22.455119","long":"114.024092"},{"id":"K68-U100","name":"朗屏","lat":"22.450781","long":"114.022929"},{"id":"K68-U110","name":"楊屋村","lat":"22.451379","long":"114.025576"},{"id":"K68-D090","name":"大橋村","lat":"22.447538","long":"114.026826"}],"routeId":"K68-4","description":"特別班次"}]