[{"company":"mtr","route":"K75S","routeType":null,"dir":"O","orig":"洪水橋巴士廠","dest":"天水圍站","stopList":[{"id":"K75S-U040","name":"洪水橋巴士廠","lat":"22.436081","long":"113.99985"},{"id":"K75S-D010","name":"洪福邨","lat":"22.437436","long":"113.999028"},{"id":"K75S-D020","name":"石埗村","lat":"22.440381","long":"113.998406"},{"id":"K75S-D030","name":"天盛苑","lat":"22.446897","long":"114.002789"},{"id":"K75S-U011","name":"天水圍站","lat":"22.44654","long":"114.0037516"},{"id":"K75S-U010","name":"天水圍站","lat":"22.44654","long":"114.0037516"},{"id":"K75S-U020","name":"天盛苑","lat":"22.446839","long":"114.00307"},{"id":"K75S-U030","name":"石埗村","lat":"22.440307","long":"113.998965"},{"id":"K75S-U040","name":"洪水橋巴士廠","lat":"22.436081","long":"113.99985"},{"id":"K75S-D010","name":"洪福邨","lat":"22.437436","long":"113.999028"},{"id":"K75S-D020","name":"石埗村","lat":"22.440381","long":"113.998406"},{"id":"K75S-D030","name":"天盛苑","lat":"22.446897","long":"114.002789"},{"id":"K75S-U011","name":"天水圍站","lat":"22.44654","long":"114.0037516"}],"routeId":"K75S","description":"正常班次"},{"company":"mtr","route":"K75S","routeType":null,"dir":"O","orig":"洪水橋巴士廠","dest":"天水圍站","stopList":[{"id":"K75S-U040","name":"洪水橋巴士廠","lat":"22.436081","long":"113.99985"},{"id":"K75S-D010","name":"洪福邨","lat":"22.437436","long":"113.999028"},{"id":"K75S-D020","name":"石埗村","lat":"22.440381","long":"113.998406"},{"id":"K75S-D030","name":"天盛苑","lat":"22.446897","long":"114.002789"},{"id":"K75S-U011","name":"天水圍站","lat":"22.44654","long":"114.0037516"},{"id":"K75S-U010","name":"天水圍站","lat":"22.44654","long":"114.0037516"},{"id":"K75S-U020","name":"天盛苑","lat":"22.446839","long":"114.00307"},{"id":"K75S-U030","name":"石埗村","lat":"22.440307","long":"113.998965"},{"id":"K75S-U040","name":"洪水橋巴士廠","lat":"22.436081","long":"113.99985"},{"id":"K75S-D010","name":"洪福邨","lat":"22.437436","long":"113.999028"},{"id":"K75S-D020","name":"石埗村","lat":"22.440381","long":"113.998406"},{"id":"K75S-D030","name":"天盛苑","lat":"22.446897","long":"114.002789"},{"id":"K75S-U011","name":"天水圍站","lat":"22.44654","long":"114.0037516"}],"routeId":"K75S","description":"正常班次"}]