[{"company":"kmb","route":"LB1","routeType":"1","dir":"O","orig":"屯門公路轉車站(屯門方向)","dest":"下白泥","stopList":[{"id":"A33D2929C5F3B7E0","name":"屯門公路轉車站","lat":"22.358492","long":"114.019106"},{"id":"3359572AE1765132","name":"流浮山正大街","lat":"22.467285","long":"113.983965"},{"id":"80CE46D61881DC6A","name":"鴨仔坑","lat":"22.438641","long":"113.949096"},{"id":"497320292297256C","name":"下白泥","lat":"22.426797","long":"113.942990"}],"routeId":"LB1","description":"正常班次"},{"company":"kmb","route":"LB1","routeType":"1","dir":"I","orig":"下白泥","dest":"屯門公路轉車站(九龍方向)","stopList":[{"id":"497320292297256C","name":"下白泥","lat":"22.426797","long":"113.942990"},{"id":"E107486C465320C4","name":"鴨仔坑","lat":"22.438684","long":"113.949043"},{"id":"3359572AE1765132","name":"流浮山正大街","lat":"22.467285","long":"113.983965"},{"id":"66BAE0730AA9044A","name":"屯門公路轉車站(九龍方向)","lat":"22.362716","long":"114.015918"}],"routeId":"LB1","description":"正常班次"}]