[{"company":"mtr_hr","route":"AEL","dir":"DT","orig":"博覽館","dest":"香港","stopList":[{"id":"AWE","name":"博覽館","lat":"22.28339","long":"114.15091"},{"id":"AIR","name":"機場","lat":"22.29817","long":"113.92483"},{"id":"TSY","name":"青衣","lat":"22.34243","long":"114.10589"},{"id":"KOW","name":"九龍","lat":"22.2998","long":"114.1581"},{"id":"HOK","name":"香港","lat":"22.28585","long":"114.15663"}],"routeId":"AEL","description":"正常班次"},{"company":"mtr_hr","route":"AEL","dir":"UT","orig":"香港","dest":"博覽館","stopList":[{"id":"HOK","name":"香港","lat":"22.28585","long":"114.15663"},{"id":"KOW","name":"九龍","lat":"22.2998","long":"114.1581"},{"id":"TSY","name":"青衣","lat":"22.34243","long":"114.10589"},{"id":"AIR","name":"機場","lat":"22.29817","long":"113.92483"},{"id":"AWE","name":"博覽館","lat":"22.28339","long":"114.15091"}],"routeId":"AEL","description":"正常班次"},{"company":"mtr_hr","route":"EAL","dir":"DT","orig":"羅湖","dest":"金鐘","stopList":[{"id":"LOW","name":"羅湖","lat":"22.52524","long":"114.11403"},{"id":"SHS","name":"上水","lat":"22.50149","long":"114.12778"},{"id":"FAN","name":"粉嶺","lat":"22.49206","long":"114.13869"},{"id":"TWO","name":"太和","lat":"22.4507","long":"114.16119"},{"id":"TAP","name":"大埔墟","lat":"22.45674","long":"114.17933"},{"id":"UNI","name":"大學","lat":"22.41361","long":"114.21027"},{"id":"FOT","name":"火炭","lat":"22.39578","long":"114.19851"},{"id":"SHT","name":"沙田","lat":"22.38218","long":"114.18736"},{"id":"TAW","name":"大圍","lat":"22.37128","long":"114.17557"},{"id":"KOT","name":"九龍塘","lat":"22.29785","long":"114.23713"},{"id":"MKK","name":"旺角東","lat":"22.3228","long":"114.17254"},{"id":"HUH","name":"紅磡","lat":"22.30246","long":"114.1816"},{"id":"EXC","name":"會展","lat":"22.2809","long":"114.17376"},{"id":"ADM","name":"金鐘","lat":"22.28585","long":"114.15663"}],"routeId":"EAL","description":"正常班次"},{"company":"mtr_hr","route":"EAL","routeType":"LMC","dir":"DT","orig":"落馬洲","dest":"金鐘","stopList":[{"id":"LMC","name":"落馬洲","lat":"22.51321","long":"114.07981"},{"id":"SHS","name":"上水","lat":"22.50149","long":"114.12778"},{"id":"FAN","name":"粉嶺","lat":"22.49206","long":"114.13869"},{"id":"TWO","name":"太和","lat":"22.4507","long":"114.16119"},{"id":"TAP","name":"大埔墟","lat":"22.45674","long":"114.17933"},{"id":"UNI","name":"大學","lat":"22.41361","long":"114.21027"},{"id":"FOT","name":"火炭","lat":"22.39578","long":"114.19851"},{"id":"SHT","name":"沙田","lat":"22.38218","long":"114.18736"},{"id":"TAW","name":"大圍","lat":"22.37128","long":"114.17557"},{"id":"KOT","name":"九龍塘","lat":"22.29785","long":"114.23713"},{"id":"MKK","name":"旺角東","lat":"22.3228","long":"114.17254"},{"id":"HUH","name":"紅磡","lat":"22.30246","long":"114.1816"},{"id":"EXC","name":"會展","lat":"22.2809","long":"114.17376"},{"id":"ADM","name":"金鐘","lat":"22.28585","long":"114.15663"}],"routeId":"EAL","description":"正常班次"},{"company":"mtr_hr","route":"EAL","routeType":"LMC","dir":"UT","orig":"金鐘","dest":"落馬洲","stopList":[{"id":"ADM","name":"金鐘","lat":"22.28585","long":"114.15663"},{"id":"EXC","name":"會展","lat":"22.2809","long":"114.17376"},{"id":"HUH","name":"紅磡","lat":"22.30246","long":"114.1816"},{"id":"MKK","name":"旺角東","lat":"22.3228","long":"114.17254"},{"id":"KOT","name":"九龍塘","lat":"22.29785","long":"114.23713"},{"id":"TAW","name":"大圍","lat":"22.37128","long":"114.17557"},{"id":"SHT","name":"沙田","lat":"22.38218","long":"114.18736"},{"id":"FOT","name":"火炭","lat":"22.39578","long":"114.19851"},{"id":"UNI","name":"大學","lat":"22.41361","long":"114.21027"},{"id":"TAP","name":"大埔墟","lat":"22.45674","long":"114.17933"},{"id":"TWO","name":"太和","lat":"22.4507","long":"114.16119"},{"id":"FAN","name":"粉嶺","lat":"22.49206","long":"114.13869"},{"id":"SHS","name":"上水","lat":"22.50149","long":"114.12778"},{"id":"LMC","name":"落馬洲","lat":"22.51321","long":"114.07981"}],"routeId":"EAL","description":"正常班次"},{"company":"mtr_hr","route":"EAL","dir":"UT","orig":"金鐘","dest":"羅湖","stopList":[{"id":"ADM","name":"金鐘","lat":"22.28585","long":"114.15663"},{"id":"EXC","name":"會展","lat":"22.2809","long":"114.17376"},{"id":"HUH","name":"紅磡","lat":"22.30246","long":"114.1816"},{"id":"MKK","name":"旺角東","lat":"22.3228","long":"114.17254"},{"id":"KOT","name":"九龍塘","lat":"22.29785","long":"114.23713"},{"id":"TAW","name":"大圍","lat":"22.37128","long":"114.17557"},{"id":"SHT","name":"沙田","lat":"22.38218","long":"114.18736"},{"id":"FOT","name":"火炭","lat":"22.39578","long":"114.19851"},{"id":"UNI","name":"大學","lat":"22.41361","long":"114.21027"},{"id":"TAP","name":"大埔墟","lat":"22.45674","long":"114.17933"},{"id":"TWO","name":"太和","lat":"22.4507","long":"114.16119"},{"id":"FAN","name":"粉嶺","lat":"22.49206","long":"114.13869"},{"id":"SHS","name":"上水","lat":"22.50149","long":"114.12778"},{"id":"LOW","name":"羅湖","lat":"22.52524","long":"114.11403"}],"routeId":"EAL","description":"正常班次"},{"company":"mtr_hr","route":"ISL","dir":"DT","orig":"柴灣","dest":"堅尼地城","stopList":[{"id":"CHW","name":"柴灣","lat":"22.27421","long":"114.2402"},{"id":"HFC","name":"杏花邨","lat":"22.27662","long":"114.23966"},{"id":"SKW","name":"筲箕灣","lat":"22.2766","long":"114.2295"},{"id":"SWH","name":"西灣河","lat":"22.27981","long":"114.22518"},{"id":"TAK","name":"太古","lat":"22.4507","long":"114.16119"},{"id":"QUB","name":"鰂魚涌","lat":"22.28368","long":"114.21178"},{"id":"NOP","name":"北角","lat":"22.29268","long":"114.19904"},{"id":"FOH","name":"炮台山","lat":"22.28685","long":"114.19508"},{"id":"TIH","name":"天后","lat":"22.30246","long":"114.1816"},{"id":"CAB","name":"銅鑼灣","lat":"22.27907","long":"114.1907"},{"id":"WAC","name":"灣仔","lat":"22.30246","long":"114.1816"},{"id":"ADM","name":"金鐘","lat":"22.28585","long":"114.15663"},{"id":"CEN","name":"中環","lat":"22.28754","long":"114.15488"},{"id":"SHW","name":"上環","lat":"22.50149","long":"114.12778"},{"id":"SYP","name":"西營盤","lat":"22.28574","long":"114.14546"},{"id":"HKU","name":"香港大學","lat":"22.28585","long":"114.15663"},{"id":"KET","name":"堅尼地城","lat":"22.28383","long":"114.12807"}],"routeId":"ISL","description":"正常班次"},{"company":"mtr_hr","route":"ISL","dir":"UT","orig":"堅尼地城","dest":"柴灣","stopList":[{"id":"KET","name":"堅尼地城","lat":"22.28383","long":"114.12807"},{"id":"HKU","name":"香港大學","lat":"22.28585","long":"114.15663"},{"id":"SYP","name":"西營盤","lat":"22.28574","long":"114.14546"},{"id":"SHW","name":"上環","lat":"22.50149","long":"114.12778"},{"id":"CEN","name":"中環","lat":"22.28754","long":"114.15488"},{"id":"ADM","name":"金鐘","lat":"22.28585","long":"114.15663"},{"id":"WAC","name":"灣仔","lat":"22.30246","long":"114.1816"},{"id":"CAB","name":"銅鑼灣","lat":"22.27907","long":"114.1907"},{"id":"TIH","name":"天后","lat":"22.30246","long":"114.1816"},{"id":"FOH","name":"炮台山","lat":"22.28685","long":"114.19508"},{"id":"NOP","name":"北角","lat":"22.29268","long":"114.19904"},{"id":"QUB","name":"鰂魚涌","lat":"22.28368","long":"114.21178"},{"id":"TAK","name":"太古","lat":"22.4507","long":"114.16119"},{"id":"SWH","name":"西灣河","lat":"22.27981","long":"114.22518"},{"id":"SKW","name":"筲箕灣","lat":"22.2766","long":"114.2295"},{"id":"HFC","name":"杏花邨","lat":"22.27662","long":"114.23966"},{"id":"CHW","name":"柴灣","lat":"22.27421","long":"114.2402"}],"routeId":"ISL","description":"正常班次"},{"company":"mtr_hr","route":"KTL","dir":"DT","orig":"調景嶺","dest":"黃埔","stopList":[{"id":"TIK","name":"調景嶺","lat":"22.30629","long":"114.25514"},{"id":"YAT","name":"油塘","lat":"22.29785","long":"114.23713"},{"id":"LAT","name":"藍田","lat":"22.38218","long":"114.18736"},{"id":"KWT","name":"觀塘","lat":"22.29785","long":"114.23713"},{"id":"NTK","name":"牛頭角","lat":"22.3201","long":"114.21224"},{"id":"KOB","name":"九龍灣","lat":"22.2998","long":"114.1581"},{"id":"CHH","name":"彩虹","lat":"22.30246","long":"114.1816"},{"id":"DIH","name":"鑽石山","lat":"22.34564","long":"114.20659"},{"id":"WTS","name":"黃大仙","lat":"22.34248","long":"114.19086"},{"id":"LOF","name":"樂富","lat":"22.30246","long":"114.1816"},{"id":"KOT","name":"九龍塘","lat":"22.29785","long":"114.23713"},{"id":"SKM","name":"石硤尾","lat":"22.33177","long":"114.16741"},{"id":"PRE","name":"太子","lat":"22.4507","long":"114.16119"},{"id":"MOK","name":"旺角","lat":"22.3228","long":"114.17254"},{"id":"YMT","name":"油麻地","lat":"22.31292","long":"114.17146"},{"id":"HOM","name":"何文田","lat":"22.31452","long":"114.17958"},{"id":"WHA","name":"黃埔","lat":"22.45674","long":"114.17933"}],"routeId":"KTL","description":"正常班次"},{"company":"mtr_hr","route":"KTL","dir":"UT","orig":"黃埔","dest":"調景嶺","stopList":[{"id":"WHA","name":"黃埔","lat":"22.45674","long":"114.17933"},{"id":"HOM","name":"何文田","lat":"22.31452","long":"114.17958"},{"id":"YMT","name":"油麻地","lat":"22.31292","long":"114.17146"},{"id":"MOK","name":"旺角","lat":"22.3228","long":"114.17254"},{"id":"PRE","name":"太子","lat":"22.4507","long":"114.16119"},{"id":"SKM","name":"石硤尾","lat":"22.33177","long":"114.16741"},{"id":"KOT","name":"九龍塘","lat":"22.29785","long":"114.23713"},{"id":"LOF","name":"樂富","lat":"22.30246","long":"114.1816"},{"id":"WTS","name":"黃大仙","lat":"22.34248","long":"114.19086"},{"id":"DIH","name":"鑽石山","lat":"22.34564","long":"114.20659"},{"id":"CHH","name":"彩虹","lat":"22.30246","long":"114.1816"},{"id":"KOB","name":"九龍灣","lat":"22.2998","long":"114.1581"},{"id":"NTK","name":"牛頭角","lat":"22.3201","long":"114.21224"},{"id":"KWT","name":"觀塘","lat":"22.29785","long":"114.23713"},{"id":"LAT","name":"藍田","lat":"22.38218","long":"114.18736"},{"id":"YAT","name":"油塘","lat":"22.29785","long":"114.23713"},{"id":"TIK","name":"調景嶺","lat":"22.30629","long":"114.25514"}],"routeId":"KTL","description":"正常班次"},{"company":"mtr_hr","route":"TML","dir":"UT","orig":"烏溪沙","dest":"屯門","stopList":[{"id":"WKS","name":"烏溪沙","lat":"22.43188","long":"114.24187"},{"id":"MOS","name":"馬鞍山","lat":"22.42009","long":"114.23295"},{"id":"HEO","name":"恆安","lat":"22.30246","long":"114.1816"},{"id":"TSH","name":"大水坑","lat":"22.45674","long":"114.17933"},{"id":"SHM","name":"石門","lat":"22.41185","long":"113.97889"},{"id":"CIO","name":"第一城","lat":"22.30246","long":"114.1816"},{"id":"STW","name":"沙田圍","lat":"22.38218","long":"114.18736"},{"id":"CKT","name":"車公廟","lat":"22.36078","long":"114.17247"},{"id":"TAW","name":"大圍","lat":"22.37128","long":"114.17557"},{"id":"HIK","name":"顯徑","lat":"22.30246","long":"114.1816"},{"id":"DIH","name":"鑽石山","lat":"22.34564","long":"114.20659"},{"id":"KAT","name":"啟德","lat":"22.30246","long":"114.1816"},{"id":"SUW","name":"宋皇臺","lat":"22.32433","long":"114.18891"},{"id":"TKW","name":"土瓜灣","lat":"22.31786","long":"114.1908"},{"id":"HOM","name":"何文田","lat":"22.31452","long":"114.17958"},{"id":"HUH","name":"紅磡","lat":"22.30246","long":"114.1816"},{"id":"ETS","name":"尖東","lat":"22.3228","long":"114.17254"},{"id":"AUS","name":"柯士甸","lat":"22.30356","long":"114.16692"},{"id":"NAC","name":"南昌","lat":"22.30246","long":"114.1816"},{"id":"MEF","name":"美孚","lat":"22.30246","long":"114.1816"},{"id":"TWW","name":"荃灣西","lat":"22.30246","long":"114.1816"},{"id":"KSR","name":"錦上路","lat":"22.43147","long":"114.10322"},{"id":"YUL","name":"元朗","lat":"22.30246","long":"114.1816"},{"id":"LOP","name":"朗屏","lat":"22.30246","long":"114.1816"},{"id":"TIS","name":"天水圍","lat":"22.37128","long":"114.17557"},{"id":"SIH","name":"兆康","lat":"22.41185","long":"113.97889"},{"id":"TUM","name":"屯門","lat":"22.41185","long":"113.97889"}],"routeId":"TML","description":"正常班次"},{"company":"mtr_hr","route":"TML","dir":"DT","orig":"屯門","dest":"烏溪沙","stopList":[{"id":"TUM","name":"屯門","lat":"22.41185","long":"113.97889"},{"id":"SIH","name":"兆康","lat":"22.41185","long":"113.97889"},{"id":"TIS","name":"天水圍","lat":"22.37128","long":"114.17557"},{"id":"LOP","name":"朗屏","lat":"22.30246","long":"114.1816"},{"id":"YUL","name":"元朗","lat":"22.30246","long":"114.1816"},{"id":"KSR","name":"錦上路","lat":"22.43147","long":"114.10322"},{"id":"TWW","name":"荃灣西","lat":"22.30246","long":"114.1816"},{"id":"MEF","name":"美孚","lat":"22.30246","long":"114.1816"},{"id":"NAC","name":"南昌","lat":"22.30246","long":"114.1816"},{"id":"AUS","name":"柯士甸","lat":"22.30356","long":"114.16692"},{"id":"ETS","name":"尖東","lat":"22.3228","long":"114.17254"},{"id":"HUH","name":"紅磡","lat":"22.30246","long":"114.1816"},{"id":"HOM","name":"何文田","lat":"22.31452","long":"114.17958"},{"id":"TKW","name":"土瓜灣","lat":"22.31786","long":"114.1908"},{"id":"SUW","name":"宋皇臺","lat":"22.32433","long":"114.18891"},{"id":"KAT","name":"啟德","lat":"22.30246","long":"114.1816"},{"id":"DIH","name":"鑽石山","lat":"22.34564","long":"114.20659"},{"id":"HIK","name":"顯徑","lat":"22.30246","long":"114.1816"},{"id":"TAW","name":"大圍","lat":"22.37128","long":"114.17557"},{"id":"CKT","name":"車公廟","lat":"22.36078","long":"114.17247"},{"id":"STW","name":"沙田圍","lat":"22.38218","long":"114.18736"},{"id":"CIO","name":"第一城","lat":"22.30246","long":"114.1816"},{"id":"SHM","name":"石門","lat":"22.41185","long":"113.97889"},{"id":"TSH","name":"大水坑","lat":"22.45674","long":"114.17933"},{"id":"HEO","name":"恆安","lat":"22.30246","long":"114.1816"},{"id":"MOS","name":"馬鞍山","lat":"22.42009","long":"114.23295"},{"id":"WKS","name":"烏溪沙","lat":"22.43188","long":"114.24187"}],"routeId":"TML","description":"正常班次"},{"company":"mtr_hr","route":"TCL","dir":"DT","orig":"東涌","dest":"香港","stopList":[{"id":"TUC","name":"東涌","lat":"22.36318","long":"114.1312"},{"id":"SUN","name":"欣澳","lat":"22.30246","long":"114.1816"},{"id":"TSY","name":"青衣","lat":"22.34243","long":"114.10589"},{"id":"LAK","name":"茘景","lat":"22.28585","long":"114.15663"},{"id":"NAC","name":"南昌","lat":"22.30246","long":"114.1816"},{"id":"OLY","name":"奧運","lat":"22.30246","long":"114.1816"},{"id":"KOW","name":"九龍","lat":"22.2998","long":"114.1581"},{"id":"HOK","name":"香港","lat":"22.28585","long":"114.15663"}],"routeId":"TCL","description":"正常班次"},{"company":"mtr_hr","route":"TCL","dir":"UT","orig":"香港","dest":"東涌","stopList":[{"id":"HOK","name":"香港","lat":"22.28585","long":"114.15663"},{"id":"KOW","name":"九龍","lat":"22.2998","long":"114.1581"},{"id":"OLY","name":"奧運","lat":"22.30246","long":"114.1816"},{"id":"NAC","name":"南昌","lat":"22.30246","long":"114.1816"},{"id":"LAK","name":"茘景","lat":"22.28585","long":"114.15663"},{"id":"TSY","name":"青衣","lat":"22.34243","long":"114.10589"},{"id":"SUN","name":"欣澳","lat":"22.30246","long":"114.1816"},{"id":"TUC","name":"東涌","lat":"22.36318","long":"114.1312"}],"routeId":"TCL","description":"正常班次"},{"company":"mtr_hr","route":"TKL","dir":"DT","orig":"寶琳","dest":"北角","stopList":[{"id":"POA","name":"寶琳","lat":"22.30246","long":"114.1816"},{"id":"HAH","name":"坑口","lat":"22.30246","long":"114.1816"},{"id":"TKO","name":"將軍澳","lat":"22.32685","long":"114.24943"},{"id":"TIK","name":"調景嶺","lat":"22.30629","long":"114.25514"},{"id":"YAT","name":"油塘","lat":"22.29785","long":"114.23713"},{"id":"QUB","name":"鰂魚涌","lat":"22.28368","long":"114.21178"},{"id":"NOP","name":"北角","lat":"22.29268","long":"114.19904"}],"routeId":"TKL","description":"正常班次"},{"company":"mtr_hr","route":"TKL","routeType":"TKS","dir":"DT","orig":"康城","dest":"調景嶺","stopList":[{"id":"LHP","name":"康城","lat":"22.41185","long":"113.97889"},{"id":"TKO","name":"將軍澳","lat":"22.32685","long":"114.24943"},{"id":"TIK","name":"調景嶺","lat":"22.30629","long":"114.25514"}],"routeId":"TKL","description":"正常班次"},{"company":"mtr_hr","route":"TKL","routeType":"TKS","dir":"UT","orig":"調景嶺","dest":"康城","stopList":[{"id":"TIK","name":"調景嶺","lat":"22.30629","long":"114.25514"},{"id":"TKO","name":"將軍澳","lat":"22.32685","long":"114.24943"},{"id":"LHP","name":"康城","lat":"22.41185","long":"113.97889"}],"routeId":"TKL","description":"正常班次"},{"company":"mtr_hr","route":"TKL","dir":"UT","orig":"北角","dest":"寶琳","stopList":[{"id":"NOP","name":"北角","lat":"22.29268","long":"114.19904"},{"id":"QUB","name":"鰂魚涌","lat":"22.28368","long":"114.21178"},{"id":"YAT","name":"油塘","lat":"22.29785","long":"114.23713"},{"id":"TIK","name":"調景嶺","lat":"22.30629","long":"114.25514"},{"id":"TKO","name":"將軍澳","lat":"22.32685","long":"114.24943"},{"id":"HAH","name":"坑口","lat":"22.30246","long":"114.1816"},{"id":"POA","name":"寶琳","lat":"22.30246","long":"114.1816"}],"routeId":"TKL","description":"正常班次"},{"company":"mtr_hr","route":"TWL","dir":"DT","orig":"荃灣","dest":"中環","stopList":[{"id":"TSW","name":"荃灣","lat":"22.30246","long":"114.1816"},{"id":"TWH","name":"大窩口","lat":"22.3694","long":"114.12373"},{"id":"KWH","name":"葵興","lat":"22.36318","long":"114.1312"},{"id":"KWF","name":"葵芳","lat":"22.36318","long":"114.1312"},{"id":"LAK","name":"茘景","lat":"22.28585","long":"114.15663"},{"id":"MEF","name":"美孚","lat":"22.30246","long":"114.1816"},{"id":"LCK","name":"茘枝角","lat":"22.33635","long":"114.15064"},{"id":"CSW","name":"長沙灣","lat":"22.33857","long":"114.15073"},{"id":"SSP","name":"深水埗","lat":"22.33067","long":"114.15748"},{"id":"PRE","name":"太子","lat":"22.4507","long":"114.16119"},{"id":"MOK","name":"旺角","lat":"22.3228","long":"114.17254"},{"id":"YMT","name":"油麻地","lat":"22.31292","long":"114.17146"},{"id":"JOR","name":"佐敦","lat":"22.30246","long":"114.1816"},{"id":"TST","name":"尖沙咀","lat":"22.30096","long":"114.17536"},{"id":"ADM","name":"金鐘","lat":"22.28585","long":"114.15663"},{"id":"CEN","name":"中環","lat":"22.28754","long":"114.15488"}],"routeId":"TWL","description":"正常班次"},{"company":"mtr_hr","route":"TWL","dir":"UT","orig":"中環","dest":"荃灣","stopList":[{"id":"CEN","name":"中環","lat":"22.28754","long":"114.15488"},{"id":"ADM","name":"金鐘","lat":"22.28585","long":"114.15663"},{"id":"TST","name":"尖沙咀","lat":"22.30096","long":"114.17536"},{"id":"JOR","name":"佐敦","lat":"22.30246","long":"114.1816"},{"id":"YMT","name":"油麻地","lat":"22.31292","long":"114.17146"},{"id":"MOK","name":"旺角","lat":"22.3228","long":"114.17254"},{"id":"PRE","name":"太子","lat":"22.4507","long":"114.16119"},{"id":"SSP","name":"深水埗","lat":"22.33067","long":"114.15748"},{"id":"CSW","name":"長沙灣","lat":"22.33857","long":"114.15073"},{"id":"LCK","name":"茘枝角","lat":"22.33635","long":"114.15064"},{"id":"MEF","name":"美孚","lat":"22.30246","long":"114.1816"},{"id":"LAK","name":"茘景","lat":"22.28585","long":"114.15663"},{"id":"KWF","name":"葵芳","lat":"22.36318","long":"114.1312"},{"id":"KWH","name":"葵興","lat":"22.36318","long":"114.1312"},{"id":"TWH","name":"大窩口","lat":"22.3694","long":"114.12373"},{"id":"TSW","name":"荃灣","lat":"22.30246","long":"114.1816"}],"routeId":"TWL","description":"正常班次"},{"company":"mtr_hr","route":"SIL","dir":"UT","orig":"金鐘","dest":"海怡半島","stopList":[{"id":"ADM","name":"金鐘","lat":"22.28585","long":"114.15663"},{"id":"OCP","name":"海洋公園","lat":"22.24682","long":"114.17185"},{"id":"WCH","name":"黃竹坑","lat":"22.24975","long":"114.17375"},{"id":"LET","name":"利東","lat":"22.3228","long":"114.17254"},{"id":"SOH","name":"海怡半島","lat":"22.24383","long":"114.14685"}],"routeId":"SIL","description":"正常班次"},{"company":"mtr_hr","route":"SIL","dir":"DT","orig":"海怡半島","dest":"金鐘","stopList":[{"id":"SOH","name":"海怡半島","lat":"22.24383","long":"114.14685"},{"id":"LET","name":"利東","lat":"22.3228","long":"114.17254"},{"id":"WCH","name":"黃竹坑","lat":"22.24975","long":"114.17375"},{"id":"OCP","name":"海洋公園","lat":"22.24682","long":"114.17185"},{"id":"ADM","name":"金鐘","lat":"22.28585","long":"114.15663"}],"routeId":"SIL","description":"正常班次"}]