[{"company":"nlb","route":"N1","routeType":null,"dir":null,"orig":"梅窩碼頭","dest":"大澳","stopList":[{"id":"1","name":"梅窩碼頭","lat":"22.264664","long":"114.001554","street":"梅窩碼頭","fare":"19.2","fareHoliday":"32.8"},{"id":"6","name":"銀鑛灣濾水廠","lat":"22.262966","long":"113.997826","street":"嶼南道","fare":"19.2","fareHoliday":"32.8"},{"id":"7","name":"荔枝園","lat":"22.260758","long":"113.996477","street":"嶼南道","fare":"19.2","fareHoliday":"32.8"},{"id":"8","name":"南山三屋村","lat":"22.257072","long":"113.990108","street":"嶼南道","fare":"19.2","fareHoliday":"32.8"},{"id":"9","name":"南山營地","lat":"22.255451","long":"113.986811","street":"嶼南道","fare":"19.2","fareHoliday":"32.8"},{"id":"10","name":"太古職員宿舍","lat":"22.251918","long":"113.984887","street":"嶼南道","fare":"19.2","fareHoliday":"32.8"},{"id":"11","name":"貝澳油站","lat":"22.247311","long":"113.980985","street":"嶼南道","fare":"16.8","fareHoliday":"29.7"},{"id":"12","name":"老圍村","lat":"22.244252","long":"113.979236","street":"嶼南道","fare":"16.8","fareHoliday":"29.7"},{"id":"13","name":"新圍村","lat":"22.243476","long":"113.978178","street":"嶼南道","fare":"16.8","fareHoliday":"29.7"},{"id":"14","name":"羅屋村","lat":"22.243192","long":"113.974885","street":"嶼南道","fare":"16.8","fareHoliday":"29.7"},{"id":"15","name":"牛坳園","lat":"22.243041","long":"113.972545","street":"嶼南道","fare":"16.8","fareHoliday":"29.7"},{"id":"16","name":"散石灣中蘆","lat":"22.241244","long":"113.969105","street":"嶼南道","fare":"13.8","fareHoliday":"24.2"},{"id":"17","name":"散石灣村","lat":"22.238928","long":"113.966772","street":"嶼南道","fare":"13.8","fareHoliday":"24.2"},{"id":"18","name":"女青年會梁紹榮度假村","lat":"22.237484","long":"113.964001","street":"嶼南道","fare":"13.8","fareHoliday":"24.2"},{"id":"83","name":"散石灣迴旋處","lat":"22.236544","long":"113.962550","street":"嶼南道","fare":"13.8","fareHoliday":"24.2"},{"id":"19","name":"長沙上村","lat":"22.235238","long":"113.961739","street":"嶼南道","fare":"13.8","fareHoliday":"24.2"},{"id":"20","name":"長沙警署","lat":"22.233772","long":"113.960211","street":"嶼南道","fare":"13.8","fareHoliday":"24.2"},{"id":"21","name":"長沙下村","lat":"22.234787","long":"113.957232","street":"嶼南道","fare":"13.8","fareHoliday":"24.2"},{"id":"22","name":"長沙消防局","lat":"22.236632","long":"113.954349","street":"嶼南道","fare":"13.8","fareHoliday":"24.2"},{"id":"23","name":"麗濱別墅","lat":"22.236217","long":"113.951916","street":"嶼南道","fare":"13.8","fareHoliday":"24.2"},{"id":"24","name":"蝶崗","lat":"22.234540","long":"113.948841","street":"嶼南道","fare":"13.8","fareHoliday":"24.2"},{"id":"25","name":"長沙大橋","lat":"22.233389","long":"113.946977","street":"嶼南道","fare":"13.8","fareHoliday":"24.2"},{"id":"26","name":"上長沙泳灘","lat":"22.230877","long":"113.941525","street":"嶼南道","fare":"13.8","fareHoliday":"24.2"},{"id":"27","name":"塘福海灘","lat":"22.228509","long":"113.935339","street":"嶼南道","fare":"9.6","fareHoliday":"19.6"},{"id":"28","name":"塘福村","lat":"22.227565","long":"113.932706","street":"嶼南道","fare":"9.6","fareHoliday":"19.6"},{"id":"31","name":"麻埔坪道口","lat":"22.226018","long":"113.929495","street":"嶼南道","fare":"9.6","fareHoliday":"19.6"},{"id":"178","name":"南大嶼山海底電纜站","lat":"22.225272","long":"113.928661","street":"嶼南道","fare":"9.6","fareHoliday":"19.6"},{"id":"33","name":"上橫壟","lat":"22.223348","long":"113.920624","street":"嶼南道","fare":"9.6","fareHoliday":"19.6"},{"id":"34","name":"下橫壟","lat":"22.222305","long":"113.919741","street":"嶼南道","fare":"9.6","fareHoliday":"19.6"},{"id":"35","name":"水口村(東)","lat":"22.221565","long":"113.916059","street":"嶼南道","fare":"9.6","fareHoliday":"19.6"},{"id":"36","name":"水口村","lat":"22.220989","long":"113.914318","street":"嶼南道","fare":"9.6","fareHoliday":"19.6"},{"id":"37","name":"四眼馬","lat":"22.221913","long":"113.910370","street":"嶼南道","fare":"9.6","fareHoliday":"19.6"},{"id":"38","name":"水口直升機場","lat":"22.223532","long":"113.908063","street":"嶼南道","fare":"9.6","fareHoliday":"19.6"},{"id":"39","name":"石壁警崗","lat":"22.225862","long":"113.897720","street":"嶼南道","fare":"7.2","fareHoliday":"11.7"},{"id":"41","name":"沙咀","lat":"22.228328","long":"113.890600","street":"姜山道","fare":"7.2","fareHoliday":"11.7"},{"id":"42","name":"石壁坳引水道通道","lat":"22.239451","long":"113.893697","street":"姜山道","fare":"7.2","fareHoliday":"11.7"},{"id":"58","name":"深屈道","lat":"22.245054","long":"113.891193","street":"深屈道","fare":"3.2","fareHoliday":"8.0"},{"id":"44","name":"法華苑","lat":"22.246122","long":"113.889042","street":"姜山道","fare":"3.2","fareHoliday":"8.0"},{"id":"45","name":"三緣精舍","lat":"22.246435","long":"113.886242","street":"姜山道","fare":"3.2","fareHoliday":"8.0"},{"id":"46","name":"成輝果園","lat":"22.243820","long":"113.884209","street":"姜山道","fare":"3.2","fareHoliday":"8.0"},{"id":"47","name":"觀音寺","lat":"22.242256","long":"113.882991","street":"姜山道","fare":"3.2","fareHoliday":"8.0"},{"id":"48","name":"龍仔","lat":"22.240816","long":"113.881022","street":"大澳道","fare":"3.2","fareHoliday":"8.0"},{"id":"49","name":"羌山管理站","lat":"22.242032","long":"113.878823","street":"大澳道","fare":"3.2","fareHoliday":"8.0"},{"id":"84","name":"新鳳村","lat":"22.243571","long":"113.876972","street":"大澳道","fare":"3.2","fareHoliday":"8.0"},{"id":"51","name":"靈隱寺","lat":"22.244018","long":"113.875009","street":"大澳道","fare":"3.2","fareHoliday":"8.0"},{"id":"52","name":"坑尾","lat":"22.250656","long":"113.869062","street":"大澳道","fare":"3.2","fareHoliday":"8.0"},{"id":"53","name":"佛教筏可紀念中學","lat":"22.252033","long":"113.866988","street":"大澳道","fare":"3.2","fareHoliday":"8.0"},{"id":"54","name":"龍田邨","lat":"22.252326","long":"113.864976","street":"大澳道","fare":"3.2","fareHoliday":"8.0"},{"id":"55","name":"大澳","lat":"22.252783","long":"113.862160","street":"大澳道","fare":"0.0","fareHoliday":"0.0"}],"routeId":"40","description":"正常班次"}]