[{"company":"kmb","route":"N118","routeType":"1","dir":"O","orig":"長沙灣(深旺道)","dest":"小西灣(藍灣半島)","stopList":[{"id":"494C28331301B811","name":"長沙灣(深旺道)總站","lat":"22.330638","long":"114.149931"},{"id":"1E88575F644EF7D4","name":"西九龍法院大樓","lat":"22.330595","long":"114.153861"},{"id":"A8762A74241E8027","name":"麗閣邨","lat":"22.333118","long":"114.155983"},{"id":"667FDF4DEF4D2BAE","name":"長沙灣站","lat":"22.335413","long":"114.157855"},{"id":"B8B6E6DFE61EFC51","name":"營盤街","lat":"22.335521","long":"114.160234"},{"id":"82867084F4E7B92E","name":"長沙灣政府合署","lat":"22.331866","long":"114.161257"},{"id":"1E29A8A8D3F6BABB","name":"深水埗北河街 (Y24)","lat":"22.330875","long":"114.162332"},{"id":"E553B839AD6A8C3D","name":"深水埗楓樹街","lat":"22.328312","long":"114.165629"},{"id":"889F84EBA6D9571A","name":"太子站 (S2)","lat":"22.325717","long":"114.168181"},{"id":"6FFA120DD2FA4790","name":"旺角水渠道 (S7)","lat":"22.323517","long":"114.168615"},{"id":"50FF703302734DFF","name":"旺角奶路臣街 (S19)","lat":"22.317949","long":"114.169738"},{"id":"C0AA7F3501EFA657","name":"旺角登打士街 (S25)","lat":"22.314939","long":"114.170396"},{"id":"337C68B5F413E04E","name":"油麻地文明里 (S32)","lat":"22.312166","long":"114.170935"},{"id":"00040ED8B61CA94B","name":"油麻地眾坊街 (S36)","lat":"22.309742","long":"114.171412"},{"id":"64E7A52D975DF3FF","name":"勞資審裁處","lat":"22.308172","long":"114.172572"},{"id":"1F109678B4866926","name":"香港理工大學第八期","lat":"22.306393","long":"114.180068"},{"id":"C564EDC91AFD7D04","name":"紅隧轉車站 (A5)","lat":"22.302958","long":"114.180873"},{"id":"137E4ABB3A5D28F0","name":"銅鑼灣避風塘","lat":"22.284115","long":"114.186387"},{"id":"4E7771F77C035AE4","name":"歌頓道","lat":"22.285845","long":"114.191130"},{"id":"F45D3147BFAD9573","name":"電氣道街市","lat":"22.289497","long":"114.193715"},{"id":"DA8EA09C3AAD39C9","name":"城市花園","lat":"22.290645","long":"114.194737"},{"id":"C08FEC89DEBCB67B","name":"北角道","lat":"22.291667","long":"114.196977"},{"id":"6C9176069C86391C","name":"渣華道街市","lat":"22.292269","long":"114.199353"},{"id":"97610D724858CEC0","name":"琴行街","lat":"22.292532","long":"114.200708"},{"id":"ECFB77BC2B593335","name":"電照街","lat":"22.292918","long":"114.202588"},{"id":"72F07CA66230A1BE","name":"阿公岩道","lat":"22.274977","long":"114.231063"},{"id":"3C20E46D2F60DA28","name":"鯉魚門公園","lat":"22.274053","long":"114.231433"},{"id":"EC157EA93B3DD279","name":"大潭道","lat":"22.271611","long":"114.233266"},{"id":"FACE7DC841CEF78F","name":"東區醫院","lat":"22.268443","long":"114.233719"},{"id":"41E537666558ED07","name":"高威閣","lat":"22.266651","long":"114.233785"},{"id":"687325CD84BA96A0","name":"康民街","lat":"22.264510","long":"114.234671"},{"id":"B4CF77BA0F9D34B8","name":"興華邨興翠樓","lat":"22.262733","long":"114.234551"},{"id":"671C0B06B1582C54","name":"興華邨卓華樓","lat":"22.262078","long":"114.235508"},{"id":"5F0966CBF6A909A3","name":"青年廣場","lat":"22.262852","long":"114.236829"},{"id":"B83A88488B3F6EAB","name":"怡泰街","lat":"22.263349","long":"114.238992"},{"id":"D533E8F25C189485","name":"漁灣邨","lat":"22.265312","long":"114.241787"},{"id":"0F421E6B729C2D24","name":"常安街","lat":"22.266015","long":"114.245230"},{"id":"981A7F2220E8B3CA","name":"富欣花園","lat":"22.264888","long":"114.248010"},{"id":"D390ED75A8419B35","name":"小西灣道富怡道","lat":"22.263386","long":"114.249274"},{"id":"498AABC05D747933","name":"藍灣半島巴士總站","lat":"22.266378","long":"114.250532"}],"routeId":"N118","description":"正常班次"},{"company":"kmb","route":"N118","routeType":"1","dir":"I","orig":"小西灣(藍灣半島)","dest":"長沙灣(深旺道)","stopList":[{"id":"498AABC05D747933","name":"藍灣半島巴士總站","lat":"22.266378","long":"114.250532"},{"id":"71E43F401421B1FD","name":"小西灣邨","lat":"22.263050","long":"114.249186"},{"id":"DFC05AAD7C3913C5","name":"曉翠街","lat":"22.264591","long":"114.247896"},{"id":"906F89BBA32AEF7E","name":"富城閣","lat":"22.265767","long":"114.245620"},{"id":"34F421B30D4CBFF5","name":"樂軒臺","lat":"22.264705","long":"114.241384"},{"id":"BB5C1DCDD6B2BC9D","name":"環翠商場","lat":"22.263066","long":"114.238644"},{"id":"C539A7A9365F64D0","name":"環翠邨澤翠樓","lat":"22.262584","long":"114.236716"},{"id":"51B7D1F60A5BA724","name":"興華邨卓華樓","lat":"22.261630","long":"114.234893"},{"id":"4BD11538EEA40F55","name":"興華邨豐興樓","lat":"22.262597","long":"114.234260"},{"id":"22186D34914B7805","name":"興華邨裕興樓","lat":"22.264423","long":"114.234280"},{"id":"073E1DD8599E7315","name":"天主教海星堂","lat":"22.265149","long":"114.233614"},{"id":"41FA91EC4FFF5A19","name":"興民邨","lat":"22.268293","long":"114.233358"},{"id":"0DCC18C3A018C1DA","name":"山翠苑","lat":"22.269457","long":"114.233556"},{"id":"75767448DA6FA081","name":"筲箕灣東官立中學","lat":"22.272293","long":"114.232641"},{"id":"4073C7B5B3D72456","name":"阿公岩道","lat":"22.274823","long":"114.230902"},{"id":"78277EF9D0189DED","name":"景隆街","lat":"22.281705","long":"114.182821"},{"id":"153D32217234A0F0","name":"紅隧轉車站 (C1)","lat":"22.302576","long":"114.179914"},{"id":"893BBB901005C3E6","name":"拔萃女書院","lat":"22.307468","long":"114.173055"},{"id":"BBE77B90CE43AEFA","name":"油麻地眾坊街 (N39)","lat":"22.310674","long":"114.170957"},{"id":"3A43E432D0588F79","name":"油麻地碧街 (N47)","lat":"22.313744","long":"114.170364"},{"id":"3B7368AAB82CC612","name":"旺角山東街 (N58)","lat":"22.316986","long":"114.169714"},{"id":"E20D7A733ECDFA05","name":"基榮小學","lat":"22.322500","long":"114.168150"},{"id":"557B9185722A07DB","name":"旺角塘尾道","lat":"22.324403","long":"114.165727"},{"id":"BE510511B0A7344E","name":"大南街","lat":"22.326990","long":"114.163828"},{"id":"A2E2FDB1428AE8AE","name":"深水埗南昌街","lat":"22.328386","long":"114.163281"},{"id":"57ED9CF67F4D6AC4","name":"深水埗桂林街","lat":"22.329883","long":"114.161357"},{"id":"D81EA700D73BBEB0","name":"深水埗基隆街","lat":"22.330547","long":"114.160068"},{"id":"CC14CF9E8A163F34","name":"通州街公園","lat":"22.327741","long":"114.157546"},{"id":"CC9AE3EF28E5725F","name":"富昌邨","lat":"22.327310","long":"114.154421"},{"id":"2D30B4FAF44D2398","name":"東京街西","lat":"22.329224","long":"114.152032"},{"id":"494C28331301B811","name":"長沙灣(深旺道)總站","lat":"22.330638","long":"114.149931"}],"routeId":"N118","description":"正常班次"},{"company":"ctb","route":"N118","routeType":null,"dir":"I","orig":"長沙灣 (深旺道)","dest":"小西灣 (藍灣半島)","stopList":[{"id":"002594","name":"長沙灣 (深旺道)","lat":"22.331135302091","long":"114.14903921053"},{"id":"003518","name":"西九龍法院大樓, 東京街西","lat":"22.330443872091","long":"114.15368717053"},{"id":"002595","name":"麗閣邨, 東京街","lat":"22.333070142091","long":"114.15595360053"},{"id":"001602","name":"長沙灣站, 東京街","lat":"22.335338642091","long":"114.15779444053"},{"id":"001405","name":"營盤街, 青山道","lat":"22.335460892091","long":"114.16022133053"},{"id":"001637","name":"長沙灣政府合署, 欽州街","lat":"22.332014252091","long":"114.16133930053"},{"id":"001444","name":"北河街, 長沙灣道","lat":"22.330910012091","long":"114.16219576053"},{"id":"001447","name":"楓樹街, 長沙灣道","lat":"22.328333182091","long":"114.16552917053"},{"id":"001556","name":"太子站, 彌敦道","lat":"22.325863322091","long":"114.16808965053"},{"id":"001557","name":"聯合廣場, 彌敦道","lat":"22.323454062091","long":"114.16858963053"},{"id":"001559","name":"銀行中心, 彌敦道","lat":"22.318424162091","long":"114.16962058053"},{"id":"001562","name":"登打士街, 彌敦道","lat":"22.314748642091","long":"114.17037382053"},{"id":"001564","name":"文明里, 彌敦道","lat":"22.312210192091","long":"114.17088450053"},{"id":"001566","name":"眾坊街, 彌敦道","lat":"22.309877492091","long":"114.17133608053"},{"id":"001471","name":"勞資審裁處, 加士居道","lat":"22.308028422091","long":"114.17252808053"},{"id":"001411","name":"香港理工大學第八期, 漆咸道北","lat":"22.306388992091","long":"114.17999535053"},{"id":"001476","name":"海底隧道巴士轉乘站","lat":"22.303015922091","long":"114.18084154053"},{"id":"001335","name":"銅鑼灣避風塘, 維園道","lat":"22.284074312091","long":"114.18628546053"},{"id":"001248","name":"歌頓道","lat":"22.285721352091","long":"114.19103465053"},{"id":"001243","name":"電氣道街市, 電氣道","lat":"22.289384232091","long":"114.19363237053"},{"id":"001244","name":"城市花園, 電氣道","lat":"22.290834522091","long":"114.19491332053"},{"id":"001254","name":"北角道, 渣華道","lat":"22.291788112091","long":"114.19724449053"},{"id":"001255","name":"渣華道市政大廈, 渣華道","lat":"22.292203912091","long":"114.19948901053"},{"id":"001256","name":"琴行街, 渣華道","lat":"22.292465872091","long":"114.20073702053"},{"id":"001257","name":"電照街, 渣華道","lat":"22.292829302091","long":"114.20250688053"},{"id":"001216","name":"阿公岩道, 柴灣道","lat":"22.274447992091","long":"114.23121621053"},{"id":"001217","name":"鯉魚門公園, 柴灣道","lat":"22.273682822091","long":"114.23182613053"},{"id":"001218","name":"大潭道, 柴灣道","lat":"22.271469842091","long":"114.23323635053"},{"id":"001219","name":"東區醫院, 柴灣道","lat":"22.268521772091","long":"114.23362526053"},{"id":"001220","name":"高威閣, 柴灣道","lat":"22.266776752091","long":"114.23370630053"},{"id":"001221","name":"康民街, 柴灣道","lat":"22.264455262091","long":"114.23464877053"},{"id":"001336","name":"興華邨興翠樓, 環翠道","lat":"22.262856432091","long":"114.23450941053"},{"id":"001337","name":"興華邨卓華樓, 環翠道","lat":"22.261984002091","long":"114.23556086053"},{"id":"001338","name":"青年廣場, 環翠道","lat":"22.262812062091","long":"114.23696165053"},{"id":"001222","name":"怡泰街, 柴灣道","lat":"22.263309472091","long":"114.23896966053"},{"id":"001224","name":"漁灣邨, 柴灣道","lat":"22.265262802091","long":"114.24180700053"},{"id":"001225","name":"常安街, 柴灣道","lat":"22.265964212091","long":"114.24531836053"},{"id":"001362","name":"富欣花園, 小西灣道","lat":"22.264655872091","long":"114.24820799053"},{"id":"002580","name":"富怡道, 小西灣道","lat":"22.263330512091","long":"114.24923738053"},{"id":"001382","name":"小西灣 (藍灣半島)","lat":"22.266350942091","long":"114.25095264053"}],"routeId":"N118","description":"正常班次"},{"company":"ctb","route":"N118","routeType":null,"dir":"O","orig":"小西灣 (藍灣半島)","dest":"長沙灣 (深旺道)","stopList":[{"id":"001382","name":"小西灣 (藍灣半島)","lat":"22.266350942091","long":"114.25095264053"},{"id":"001386","name":"小西灣邨, 小西灣道","lat":"22.263205022091","long":"114.24912997053"},{"id":"001312","name":"曉翠街, 小西灣道","lat":"22.264667222091","long":"114.24796685053"},{"id":"001226","name":"富城閣, 柴灣道","lat":"22.265804172091","long":"114.24535768053"},{"id":"001227","name":"樂軒臺, 柴灣道","lat":"22.264883822091","long":"114.24156861053"},{"id":"001228","name":"環翠商場, 柴灣道","lat":"22.263138192091","long":"114.23878619053"},{"id":"001339","name":"環翠邨澤翠樓, 環翠道","lat":"22.262518442091","long":"114.23664512053"},{"id":"001340","name":"興華邨卓華樓, 環翠道","lat":"22.261748512091","long":"114.23498678053"},{"id":"001341","name":"興華邨豐興樓, 環翠道","lat":"22.262516262091","long":"114.23426978053"},{"id":"001387","name":"興華邨裕興樓, 柴灣道","lat":"22.264334082091","long":"114.23446855053"},{"id":"001229","name":"天主教海星堂, 柴灣道","lat":"22.265027152091","long":"114.23373522053"},{"id":"001230","name":"興民邨, 柴灣道","lat":"22.267894132091","long":"114.23341093053"},{"id":"001231","name":"山翠苑, 柴灣道","lat":"22.269331482091","long":"114.23354147053"},{"id":"001232","name":"筲箕灣東官立中學, 柴灣道","lat":"22.272471812091","long":"114.23263770053"},{"id":"001233","name":"阿公岩道, 柴灣道","lat":"22.274719782091","long":"114.23085406053"},{"id":"002414","name":"景隆街, 告士打道","lat":"22.281732142091","long":"114.18280892053"},{"id":"001475","name":"海底隧道巴士轉乘站","lat":"22.302817792091","long":"114.18008423053"},{"id":"001769","name":"拔萃女書院, 加士居道","lat":"22.307534682091","long":"114.17292169053"},{"id":"001547","name":"眾坊街, 彌敦道","lat":"22.310731692091","long":"114.17098889053"},{"id":"001549","name":"碧街, 彌敦道","lat":"22.314107332091","long":"114.17032997053"},{"id":"001552","name":"山東街, 彌敦道","lat":"22.316744762091","long":"114.16978326053"},{"id":"001774","name":"基榮小學, 荔枝角道","lat":"22.322691082091","long":"114.16797085053"},{"id":"001516","name":"塘尾道, 荔枝角道","lat":"22.324560922091","long":"114.16552293053"},{"id":"001630","name":"大南街, 黃竹街","lat":"22.326990272091","long":"114.16387675053"},{"id":"001693","name":"南昌街, 汝州街","lat":"22.328416322091","long":"114.16334874053"},{"id":"001694","name":"桂林街, 汝州街","lat":"22.329872592091","long":"114.16146378053"},{"id":"001638","name":"基隆街, 欽州街","lat":"22.330581142091","long":"114.16004801053"},{"id":"001639","name":"通州街公園, 欽州街","lat":"22.327888652091","long":"114.15764465053"},{"id":"002593","name":"南昌站, 深旺道","lat":"22.327516752091","long":"114.15422057053"},{"id":"002882","name":"海達邨, 深旺道","lat":"22.329508852091","long":"114.15174904053"},{"id":"002594","name":"長沙灣 (深旺道)","lat":"22.331135302091","long":"114.14903921053"}],"routeId":"N118","description":"正常班次"}]