[{"company":"kmb","route":"N122","routeType":"1","dir":"O","orig":"美孚","dest":"筲箕灣","stopList":[{"id":"A588A5F294B4BEFB","name":"美孚巴士總站 (SS992)","lat":"22.337223","long":"114.140057"},{"id":"65DFF8BE0574FB35","name":"大南西街 (SS513)","lat":"22.338379","long":"114.148068"},{"id":"A19F3A433556AF0E","name":"光昌街 (SS519)","lat":"22.339518","long":"114.151368"},{"id":"70AED81BA5AE0B49","name":"昌華街 (SS523)","lat":"22.339842","long":"114.154686"},{"id":"A81F3E1AC5EDEB1F","name":"長發街 (SS526)","lat":"22.338432","long":"114.156468"},{"id":"FD43CB63B7E560F6","name":"東京街 (SS535)","lat":"22.337020","long":"114.158323"},{"id":"B8B6E6DFE61EFC51","name":"營盤街 (SS540)","lat":"22.335521","long":"114.160234"},{"id":"16D37394ECACA7AD","name":"深水埗福榮街 (SS180)","lat":"22.332816","long":"114.162115"},{"id":"1E29A8A8D3F6BABB","name":"深水埗北河街 (SS488)","lat":"22.330875","long":"114.162332"},{"id":"E553B839AD6A8C3D","name":"深水埗楓樹街 (SS494)","lat":"22.328312","long":"114.165629"},{"id":"889F84EBA6D9571A","name":"太子站,旺角花墟 (MK501)","lat":"22.325717","long":"114.168181"},{"id":"028FA893A173A464","name":"水渠道,聯合廣場 (MK507)","lat":"22.323471","long":"114.168632"},{"id":"80E2DB8AC142F626","name":"旺角站,旺角中心 (MK510)","lat":"22.320081","long":"114.169306"},{"id":"CABD12E7E061FC91","name":"旺角奶路臣街 (MK517)","lat":"22.318007","long":"114.169733"},{"id":"C0AA7F3501EFA657","name":"旺角登打士街 (MK524)","lat":"22.314939","long":"114.170396"},{"id":"337C68B5F413E04E","name":"油麻地文明里 (YT541)","lat":"22.312166","long":"114.170935"},{"id":"00040ED8B61CA94B","name":"油麻地眾坊街 (YT545)","lat":"22.309742","long":"114.171412"},{"id":"64E7A52D975DF3FF","name":"勞資審裁處 (YT330)","lat":"22.308172","long":"114.172572"},{"id":"1DD522300A4B9406","name":"香港理工大學第八期 (YT610)","lat":"22.306393","long":"114.180068"},{"id":"4D3CBBDB95447F2E","name":"紅隧轉車站 (HH505)","lat":"22.302826","long":"114.180845"},{"id":"4795FBE235012096","name":"南洋酒店","lat":"22.277131","long":"114.180045"},{"id":"1F3870BB293E9DAF","name":"灣仔消防局","lat":"22.279815","long":"114.182056"},{"id":"01E3687E14E6C4A7","name":"崇光百貨","lat":"22.280256","long":"114.184221"},{"id":"265F2C77103F70AA","name":"維多利亞公園","lat":"22.280958","long":"114.189786"},{"id":"834CC2324AAFB567","name":"銀幕街","lat":"22.283692","long":"114.192457"},{"id":"AC00F5BD3992062F","name":"七海商業中心","lat":"22.287663","long":"114.192921"},{"id":"0410A9959C9010AC","name":"電廠街","lat":"22.289933","long":"114.194966"},{"id":"36B8BEAE9346F718","name":"糖水道","lat":"22.290798","long":"114.197899"},{"id":"2969EE1DAEAD252A","name":"港運城","lat":"22.291737","long":"114.202600"},{"id":"B6E124DFD59022EF","name":"健康村","lat":"22.292173","long":"114.206222"},{"id":"C8946B416C2ED8EA","name":"模範邨","lat":"22.291096","long":"114.208934"},{"id":"A34AEEFEFB3013FC","name":"北角官立小學","lat":"22.289117","long":"114.209810"},{"id":"74CB8B8ECA4F4A44","name":"新威園","lat":"22.285898","long":"114.211197"},{"id":"D429372493B73002","name":"惠安苑","lat":"22.284736","long":"114.213228"},{"id":"41AA7CB85B0902A7","name":"太古城中心","lat":"22.285333","long":"114.217543"},{"id":"53AC7BF85DA06160","name":"太安樓","lat":"22.282733","long":"114.221557"},{"id":"9A8927665842846F","name":"海晏街","lat":"22.280777","long":"114.223773"},{"id":"06813EFD221EF920","name":"愛秩序灣道","lat":"22.280372","long":"114.225128"},{"id":"DB424207F51A9589","name":"愛賢街","lat":"22.279820","long":"114.227224"},{"id":"F851BA3473962BCA","name":"筲箕灣巴士總站","lat":"22.278490","long":"114.228309"}],"routeId":"N122","description":"正常班次"},{"company":"kmb","route":"N122","routeType":"1","dir":"I","orig":"筲箕灣","dest":"美孚","stopList":[{"id":"F851BA3473962BCA","name":"筲箕灣巴士總站","lat":"22.278490","long":"114.228309"},{"id":"4585A7CEF5D5F43B","name":"愛蝶灣","lat":"22.280721","long":"114.228394"},{"id":"52EEDDA90227F4C9","name":"峻峰花園","lat":"22.279029","long":"114.228834"},{"id":"3491B0B76F002DFB","name":"新成街","lat":"22.279121","long":"114.225990"},{"id":"EB43D5BE03CB3346","name":"海晏街","lat":"22.280709","long":"114.223477"},{"id":"350EBC52D2ABF3D8","name":"西灣河文娛中心","lat":"22.281715","long":"114.222056"},{"id":"D0BA1477EAFC2C2B","name":"太富街","lat":"22.283234","long":"114.220888"},{"id":"645A7596916EBCC1","name":"康怡廣場","lat":"22.284486","long":"114.216720"},{"id":"29DF8DB2E9741934","name":"寶峰園","lat":"22.284580","long":"114.214681"},{"id":"628DF6A22E9172F8","name":"新威園","lat":"22.285618","long":"114.211020"},{"id":"EE07E4C45A4CC134","name":"民新街","lat":"22.289634","long":"114.209351"},{"id":"E5054AD30B9831F3","name":"健康村","lat":"22.291870","long":"114.206469"},{"id":"616738F21326814A","name":"健威花園","lat":"22.291719","long":"114.203666"},{"id":"3A1D9864C04075B2","name":"琴行街","lat":"22.291175","long":"114.200951"},{"id":"7FBF4EAFB18821CA","name":"新都城大廈","lat":"22.290887","long":"114.199507"},{"id":"F8365ACAC0B85C65","name":"長康街","lat":"22.290172","long":"114.196075"},{"id":"A3B9F3D6B2668DE3","name":"炮台山站","lat":"22.288786","long":"114.194187"},{"id":"6CAA11E0FD871B20","name":"清風街","lat":"22.284804","long":"114.193035"},{"id":"3E29AD52CE8C9255","name":"中央圖書館","lat":"22.280229","long":"114.189201"},{"id":"D12FB3A70DDAED02","name":"怡和街","lat":"22.279850","long":"114.185383"},{"id":"0016BA6EDE99B8E3","name":"堅拿道東 (軒尼詩道)","lat":"22.279421","long":"114.181726"},{"id":"B17A07239E3E576E","name":"堅拿道東","lat":"22.278498","long":"114.181341"},{"id":"5E580B759FCA6CA2","name":"堅拿道西","lat":"22.277294","long":"114.180932"},{"id":"153D32217234A0F0","name":"紅隧轉車站 (HH602)","lat":"22.302576","long":"114.179914"},{"id":"893BBB901005C3E6","name":"拔萃女書院 (YT665)","lat":"22.307468","long":"114.173055"},{"id":"038F62C619BF8650","name":"油麻地眾坊街 (YT137)","lat":"22.310607","long":"114.170967"},{"id":"E173F2DA030C6AAB","name":"油麻地碧街 (YT148)","lat":"22.314146","long":"114.170265"},{"id":"6E2A7A2CD29F9216","name":"旺角奶路臣街 (MK169)","lat":"22.317813","long":"114.169549"},{"id":"D7C46496C9C7B7BA","name":"弼街,始創中心 (MK182)","lat":"22.321828","long":"114.168686"},{"id":"704AF52FDCA7AE1B","name":"太子站,旺角花墟 (MK188)","lat":"22.325767","long":"114.167890"},{"id":"1A85A6C132C4197F","name":"深水埗楓樹街 (SS201)","lat":"22.327897","long":"114.165700"},{"id":"C3FD63E226246052","name":"深水埗北河街 (SS209)","lat":"22.330756","long":"114.162065"},{"id":"C6E9CA12DCD8F695","name":"怡靖苑 (SS214)","lat":"22.332425","long":"114.159871"},{"id":"667FDF4DEF4D2BAE","name":"長沙灣站 (SS681)","lat":"22.335413","long":"114.157855"},{"id":"63B3694BF40FBEC6","name":"寶熙苑 (SS685)","lat":"22.337426","long":"114.159322"},{"id":"FC29C8A636233BB4","name":"蘇屋邨杜鵑樓 (SS686)","lat":"22.339536","long":"114.156628"},{"id":"D355B700FF30B3D7","name":"長沙灣興華街 (SS229)","lat":"22.337744","long":"114.152954"},{"id":"6188A6666E298598","name":"長沙灣長荔街 (SS246a)","lat":"22.336684","long":"114.146749"},{"id":"A588A5F294B4BEFB","name":"美孚巴士總站 (SS992)","lat":"22.337223","long":"114.140057"}],"routeId":"N122","description":"正常班次"},{"company":"ctb","route":"N122","routeType":null,"dir":"I","orig":"美孚","dest":"筲箕灣","stopList":[{"id":"001685","name":"美孚","lat":"22.337239","long":"114.140079"},{"id":"002839","name":"大南西街, 青山道","lat":"22.338485","long":"114.148410"},{"id":"002840","name":"福華街, 青山道","lat":"22.339550","long":"114.151530"},{"id":"002841","name":"昌華街, 青山道","lat":"22.339609","long":"114.154867"},{"id":"002842","name":"長發街, 青山道","lat":"22.338305","long":"114.156556"},{"id":"002843","name":"東京街, 青山道","lat":"22.336959","long":"114.158291"},{"id":"001405","name":"營盤街, 青山道","lat":"22.335461","long":"114.160221"},{"id":"002815","name":"福榮街, 欽州街","lat":"22.332773","long":"114.162017"},{"id":"001444","name":"北河街, 長沙灣道","lat":"22.330910","long":"114.162196"},{"id":"001447","name":"楓樹街, 長沙灣道","lat":"22.328333","long":"114.165529"},{"id":"001556","name":"太子站, 彌敦道","lat":"22.325863","long":"114.168090"},{"id":"001557","name":"聯合廣場, 彌敦道","lat":"22.323454","long":"114.168590"},{"id":"001775","name":"旺角中心, 彌敦道","lat":"22.319682","long":"114.169365"},{"id":"001559","name":"銀行中心, 彌敦道","lat":"22.318424","long":"114.169621"},{"id":"001562","name":"登打士街, 彌敦道","lat":"22.314749","long":"114.170374"},{"id":"001564","name":"文明里, 彌敦道","lat":"22.312210","long":"114.170885"},{"id":"001566","name":"眾坊街, 彌敦道","lat":"22.309877","long":"114.171336"},{"id":"001471","name":"勞資審裁處, 加士居道","lat":"22.308028","long":"114.172528"},{"id":"001411","name":"香港理工大學第八期, 漆咸道北","lat":"22.306389","long":"114.179995"},{"id":"001476","name":"海底隧道巴士轉乘站","lat":"22.303016","long":"114.180842"},{"id":"002673","name":"南洋酒店, 摩理臣山道","lat":"22.277140","long":"114.180105"},{"id":"002437","name":"灣仔消防局, 軒尼詩道","lat":"22.279687","long":"114.181788"},{"id":"002438","name":"銅鑼灣 - 崇光百貨, 軒尼詩道","lat":"22.280208","long":"114.184178"},{"id":"001213","name":"維多利亞公園, 高士威道","lat":"22.281133","long":"114.190066"},{"id":"001259","name":"銀幕街, 英皇道","lat":"22.283616","long":"114.192460"},{"id":"001260","name":"七海商業中心, 英皇道","lat":"22.287743","long":"114.192966"},{"id":"001261","name":"電廠街, 英皇道","lat":"22.290057","long":"114.195058"},{"id":"001262","name":"糖水道, 英皇道","lat":"22.290808","long":"114.198106"},{"id":"001264","name":"港運城, 英皇道","lat":"22.291704","long":"114.202490"},{"id":"001265","name":"健康村, 英皇道","lat":"22.292090","long":"114.206523"},{"id":"002677","name":"模範邨, 英皇道","lat":"22.291670","long":"114.207851"},{"id":"001267","name":"北角官立小學, 英皇道","lat":"22.288826","long":"114.209867"},{"id":"001268","name":"新威園, 英皇道","lat":"22.285544","long":"114.211338"},{"id":"001269","name":"惠安苑, 英皇道","lat":"22.284763","long":"114.213193"},{"id":"001270","name":"太古城中心, 英皇道","lat":"22.285288","long":"114.217584"},{"id":"001296","name":"太安樓, 筲箕灣道","lat":"22.282504","long":"114.221706"},{"id":"001297","name":"海晏街, 筲箕灣道","lat":"22.280776","long":"114.223639"},{"id":"001298","name":"愛秩序灣道, 筲箕灣道","lat":"22.280350","long":"114.225041"},{"id":"002694","name":"愛賢街, 愛秩序灣道","lat":"22.279807","long":"114.227206"},{"id":"001207","name":"筲箕灣","lat":"22.278421","long":"114.228331"}],"routeId":"N122","description":"正常班次"},{"company":"ctb","route":"N122","routeType":null,"dir":"O","orig":"筲箕灣","dest":"美孚","stopList":[{"id":"001207","name":"筲箕灣","lat":"22.278421","long":"114.228331"},{"id":"001389","name":"愛蝶灣, 愛賢街","lat":"22.281199","long":"114.228262"},{"id":"002693","name":"峻峰花園, 東喜道","lat":"22.279102","long":"114.228782"},{"id":"001301","name":"新成街, 筲箕灣道","lat":"22.278725","long":"114.226225"},{"id":"001302","name":"海晏街, 筲箕灣道","lat":"22.280717","long":"114.223456"},{"id":"001303","name":"西灣河文娛中心, 筲箕灣道","lat":"22.281795","long":"114.222021"},{"id":"001367","name":"太富街, 筲箕灣道","lat":"22.283157","long":"114.220949"},{"id":"001288","name":"康怡廣場, 康山道","lat":"22.284500","long":"114.216717"},{"id":"001271","name":"寶峰園, 英皇道","lat":"22.284595","long":"114.214170"},{"id":"001365","name":"新威園, 英皇道","lat":"22.285529","long":"114.211081"},{"id":"001274","name":"民新街, 英皇道","lat":"22.289926","long":"114.209303"},{"id":"001276","name":"健康村, 英皇道","lat":"22.291913","long":"114.206341"},{"id":"001277","name":"健威花園, 英皇道","lat":"22.291810","long":"114.203890"},{"id":"001279","name":"琴行街, 英皇道","lat":"22.291204","long":"114.200959"},{"id":"001280","name":"新都城大廈, 英皇道","lat":"22.290877","long":"114.199380"},{"id":"001364","name":"長康街, 英皇道","lat":"22.290177","long":"114.195946"},{"id":"001283","name":"炮台山站, 英皇道","lat":"22.288147","long":"114.193555"},{"id":"001286","name":"清風街, 英皇道","lat":"22.284714","long":"114.192917"},{"id":"001215","name":"香港中央圖書館, 高士威道","lat":"22.280082","long":"114.188878"},{"id":"002554","name":"銅鑼灣 - 怡和街","lat":"22.279930","long":"114.185008"},{"id":"002440","name":"堅拿道東, 軒尼詩道","lat":"22.279482","long":"114.181797"},{"id":"002404","name":"堅拿道巴士專用線","lat":"22.278044","long":"114.181207"},{"id":"002405","name":"堅拿道西","lat":"22.277412","long":"114.180971"},{"id":"001475","name":"海底隧道巴士轉乘站","lat":"22.302818","long":"114.180084"},{"id":"001769","name":"拔萃女書院, 加士居道","lat":"22.307535","long":"114.172922"},{"id":"001547","name":"眾坊街, 彌敦道","lat":"22.310732","long":"114.170989"},{"id":"001549","name":"碧街, 彌敦道","lat":"22.314107","long":"114.170330"},{"id":"001553","name":"雅蘭中心, 彌敦道","lat":"22.317926","long":"114.169545"},{"id":"001554","name":"弼街, 彌敦道","lat":"22.321742","long":"114.168757"},{"id":"001555","name":"太子站, 彌敦道","lat":"22.325582","long":"114.167966"},{"id":"001426","name":"楓樹街, 長沙灣道","lat":"22.328058","long":"114.165526"},{"id":"001429","name":"北河街, 長沙灣道","lat":"22.330764","long":"114.162070"},{"id":"002810","name":"怡靖苑, 長沙灣道","lat":"22.332577","long":"114.159711"},{"id":"001602","name":"長沙灣站, 東京街","lat":"22.335339","long":"114.157794"},{"id":"002813","name":"寶熙苑, 保安道","lat":"22.337611","long":"114.159104"},{"id":"002845","name":"蘇屋邨杜鵑樓, 保安道","lat":"22.339572","long":"114.156633"},{"id":"002846","name":"興華街, 長沙灣道","lat":"22.337608","long":"114.153196"},{"id":"001434","name":"長荔街, 長沙灣道","lat":"22.336811","long":"114.147076"},{"id":"001685","name":"美孚","lat":"22.337239","long":"114.140079"}],"routeId":"N122","description":"正常班次"}]