[{"company":"kmb","route":"N171","routeType":"1","dir":"O","orig":"荔枝角","dest":"鴨脷洲邨","stopList":[{"id":"B9F19D629C894FEE","name":"荔枝角巴士總站 (SS986)","lat":"22.341601","long":"114.136770"},{"id":"79BB89DA868D93CF","name":"荔灣道 (SS450)","lat":"22.339994","long":"114.139622"},{"id":"BE47845FF3E717FC","name":"蘭秀道 (SS452)","lat":"22.338462","long":"114.140765"},{"id":"F01F8CF411A34AA7","name":"荔枝角站 (SS466)","lat":"22.337559","long":"114.148620"},{"id":"AE9F399F5ACF4837","name":"昌華街 (SS471)","lat":"22.338579","long":"114.152137"},{"id":"9DA9C859E574B8B4","name":"長沙灣站 (SS476)","lat":"22.336841","long":"114.154597"},{"id":"A701BCC43DF54B6B","name":"長沙灣東京街 (SS480)","lat":"22.335199","long":"114.156697"},{"id":"FC28F96F0BAF8FF7","name":"深水埗欽州街 (SS485)","lat":"22.332413","long":"114.160366"},{"id":"1E29A8A8D3F6BABB","name":"深水埗北河街 (SS488)","lat":"22.330875","long":"114.162332"},{"id":"E553B839AD6A8C3D","name":"深水埗楓樹街 (SS494)","lat":"22.328312","long":"114.165629"},{"id":"889F84EBA6D9571A","name":"太子站,旺角花墟 (MK501)","lat":"22.325717","long":"114.168181"},{"id":"6FFA120DD2FA4790","name":"水渠道,聯合廣場 (MK506)","lat":"22.323517","long":"114.168615"},{"id":"32491C3A5645AD42","name":"旺角奶路臣街 (MK516)","lat":"22.318150","long":"114.169678"},{"id":"C0AA7F3501EFA657","name":"旺角登打士街 (MK524)","lat":"22.314939","long":"114.170396"},{"id":"337C68B5F413E04E","name":"油麻地文明里 (YT541)","lat":"22.312166","long":"114.170935"},{"id":"00040ED8B61CA94B","name":"油麻地眾坊街 (YT545)","lat":"22.309742","long":"114.171412"},{"id":"64E7A52D975DF3FF","name":"勞資審裁處 (YT330)","lat":"22.308172","long":"114.172572"},{"id":"1DD522300A4B9406","name":"香港理工大學第八期 (YT610)","lat":"22.306393","long":"114.180068"},{"id":"6DD60A482B4CDAF6","name":"紅隧轉車站 (HH511)","lat":"22.302870","long":"114.180752"},{"id":"388C3DB16F0F2719","name":"景隆街","lat":"22.281661","long":"114.182689"},{"id":"719B6A48C203AFBA","name":"香港仔隧道","lat":"22.249737","long":"114.175302"},{"id":"4BF5A563B95D2F42","name":"黃竹坑遊樂場","lat":"22.250307","long":"114.170477"},{"id":"9AD628EDE1178D24","name":"黃竹坑業興街","lat":"22.249172","long":"114.167885"},{"id":"5D26737FDFC4F738","name":"南朗山道","lat":"22.248252","long":"114.165898"},{"id":"3147FEC6D6DC535A","name":"勝利工廠大廈","lat":"22.248388","long":"114.162899"},{"id":"4830E097480D3AD6","name":"香港真光書院","lat":"22.241765","long":"114.157937"},{"id":"EE1C91F3EDCEBB7E","name":"東興樓","lat":"22.240597","long":"114.155756"},{"id":"277B784B9369F9E1","name":"利東街市","lat":"22.241668","long":"114.154800"},{"id":"85363AEF68CB6277","name":"鴨脷洲徑","lat":"22.243378","long":"114.156939"},{"id":"5A7CD7DCB08F92C2","name":"利枝道","lat":"22.243062","long":"114.155087"},{"id":"38504AAEF0A5E595","name":"鴨脷洲邨巴士總站","lat":"22.244227","long":"114.150785"}],"routeId":"N171","description":"正常班次"},{"company":"kmb","route":"N171","routeType":"1","dir":"I","orig":"鴨脷洲邨","dest":"荔枝角","stopList":[{"id":"38504AAEF0A5E595","name":"鴨脷洲邨巴士總站","lat":"22.244227","long":"114.150785"},{"id":"38B4D64E5D9DA9AB","name":"利枝道","lat":"22.243189","long":"114.155145"},{"id":"7C27E54D8AEC683A","name":"鴨脷洲徑","lat":"22.243649","long":"114.156784"},{"id":"659365A8AB2B98E9","name":"利東邨東興樓","lat":"22.240503","long":"114.155085"},{"id":"3227505D6CDA32C9","name":"利東街市","lat":"22.241612","long":"114.154802"},{"id":"7906D320A27CAD88","name":"漁安苑","lat":"22.243011","long":"114.157825"},{"id":"EC839AE65935149B","name":"香港仔工業學校","lat":"22.248699","long":"114.162511"},{"id":"54693CF35B03CC69","name":"甄沾記大廈","lat":"22.248547","long":"114.163881"},{"id":"AE4E8F82AD65348C","name":"黃竹坑業興街","lat":"22.249669","long":"114.168177"},{"id":"3E5A3CFA10D8D300","name":"黃竹坑遊樂場","lat":"22.250570","long":"114.170418"},{"id":"225E8FAE869B3308","name":"香港仔隧道","lat":"22.250048","long":"114.176065"},{"id":"1B1A7253CC1D3148","name":"厚德里","lat":"22.274166","long":"114.179301"},{"id":"4A626ACD36F8ED7A","name":"堅拿道西","lat":"22.277431","long":"114.180935"},{"id":"153D32217234A0F0","name":"紅隧轉車站 (HH602)","lat":"22.302576","long":"114.179914"},{"id":"893BBB901005C3E6","name":"拔萃女書院 (YT665)","lat":"22.307468","long":"114.173055"},{"id":"BBE77B90CE43AEFA","name":"油麻地眾坊街 (YT138)","lat":"22.310674","long":"114.170957"},{"id":"246B98B8B9F002F0","name":"旺角登打士街 (MK159)","lat":"22.314943","long":"114.170107"},{"id":"3B7368AAB82CC612","name":"山東街,朗豪坊 (MK167)","lat":"22.316986","long":"114.169714"},{"id":"D7C46496C9C7B7BA","name":"弼街,始創中心 (MK182)","lat":"22.321828","long":"114.168686"},{"id":"704AF52FDCA7AE1B","name":"太子站,旺角花墟 (MK188)","lat":"22.325767","long":"114.167890"},{"id":"1A85A6C132C4197F","name":"深水埗楓樹街 (SS201)","lat":"22.327897","long":"114.165700"},{"id":"C3FD63E226246052","name":"深水埗北河街 (SS209)","lat":"22.330756","long":"114.162065"},{"id":"098AF67CBBB9FBA9","name":"怡閣苑 (SS219)","lat":"22.333466","long":"114.158514"},{"id":"04FC6E130D4953F4","name":"長沙灣遊樂場 (SS227)","lat":"22.335618","long":"114.155787"},{"id":"0BADB28A19C2E0BE","name":"貿易廣場 (SS228)","lat":"22.336740","long":"114.154311"},{"id":"A1AA846971415968","name":"長沙灣徑 (SS234)","lat":"22.338091","long":"114.150935"},{"id":"6188A6666E298598","name":"長沙灣長荔街 (SS246A)","lat":"22.336684","long":"114.146749"},{"id":"70349D91EC82AFE1","name":"美孚轉車站 (SS318)","lat":"22.336449","long":"114.141577"},{"id":"E35B5F1B80E085E6","name":"蘭秀道 (SS270)","lat":"22.338565","long":"114.140480"},{"id":"EBEF10F95443B217","name":"荔灣道　 (SS271)","lat":"22.339842","long":"114.139735"},{"id":"B9F19D629C894FEE","name":"荔枝角巴士總站 (SS986)","lat":"22.341601","long":"114.136770"}],"routeId":"N171","description":"正常班次"},{"company":"ctb","route":"N171","routeType":null,"dir":"I","orig":"荔枝角","dest":"鴨脷洲邨","stopList":[{"id":"002847","name":"荔枝角","lat":"22.341509492091","long":"114.13715589053"},{"id":"003270","name":"荔灣道, 美荔道","lat":"22.339770672091","long":"114.13993243053"},{"id":"002848","name":"蘭秀道, 美荔道","lat":"22.338454852091","long":"114.14070431053"},{"id":"001436","name":"荔枝角站, 長沙灣道","lat":"22.337482972091","long":"114.14837354053"},{"id":"001437","name":"昌華街, 長沙灣道","lat":"22.338601292091","long":"114.15198567053"},{"id":"001440","name":"長沙灣站, 長沙灣道","lat":"22.336700112091","long":"114.15486415053"},{"id":"001441","name":"東京街, 長沙灣道","lat":"22.335144032091","long":"114.15680913053"},{"id":"001443","name":"欽州街, 長沙灣道","lat":"22.332255142091","long":"114.16045790053"},{"id":"001444","name":"北河街, 長沙灣道","lat":"22.330910012091","long":"114.16219576053"},{"id":"001447","name":"楓樹街, 長沙灣道","lat":"22.328333182091","long":"114.16552917053"},{"id":"001556","name":"太子站, 彌敦道","lat":"22.325863322091","long":"114.16808965053"},{"id":"001557","name":"聯合廣場, 彌敦道","lat":"22.323454062091","long":"114.16858963053"},{"id":"001559","name":"銀行中心, 彌敦道","lat":"22.318424162091","long":"114.16962058053"},{"id":"001562","name":"登打士街, 彌敦道","lat":"22.314748642091","long":"114.17037382053"},{"id":"001564","name":"文明里, 彌敦道","lat":"22.312210192091","long":"114.17088450053"},{"id":"001566","name":"眾坊街, 彌敦道","lat":"22.309877492091","long":"114.17133608053"},{"id":"001471","name":"勞資審裁處, 加士居道","lat":"22.308028422091","long":"114.17252808053"},{"id":"001411","name":"香港理工大學第八期, 漆咸道北","lat":"22.306388992091","long":"114.17999535053"},{"id":"001537","name":"海底隧道巴士轉乘站","lat":"22.302678002091","long":"114.18065137053"},{"id":"002414","name":"景隆街, 告士打道","lat":"22.281732142091","long":"114.18280892053"},{"id":"002348","name":"香港仔隧道巴士轉乘站","lat":"22.249770482091","long":"114.17533612053"},{"id":"002355","name":"黃竹坑遊樂場, 黃竹坑道","lat":"22.250122902091","long":"114.16985106053"},{"id":"002356","name":"業興街, 黃竹坑道","lat":"22.249175622091","long":"114.16779618053"},{"id":"002357","name":"南朗山道, 黃竹坑道","lat":"22.248327512091","long":"114.16606157053"},{"id":"002358","name":"勝利工廠大廈, 黃竹坑道","lat":"22.248392422091","long":"114.16314899053"},{"id":"002213","name":"香港真光書院, 利東邨道","lat":"22.241680522091","long":"114.15792123053"},{"id":"002210","name":"利東邨東興樓, 利東邨道","lat":"22.240572052091","long":"114.15491479053"},{"id":"002211","name":"利東街市, 利東邨道","lat":"22.241479512091","long":"114.15483183053"},{"id":"002167","name":"鴨脷洲徑, 鴨脷洲橋道","lat":"22.243437112091","long":"114.15652985053"},{"id":"002168","name":"利枝道, 鴨脷洲橋道","lat":"22.243012942091","long":"114.15500259053"},{"id":"002166","name":"鴨脷洲邨","lat":"22.244376802091","long":"114.15097708053"}],"routeId":"N171","description":"正常班次"},{"company":"ctb","route":"N171","routeType":null,"dir":"O","orig":"鴨脷洲邨","dest":"荔枝角","stopList":[{"id":"002166","name":"鴨脷洲邨","lat":"22.244376802091","long":"114.15097708053"},{"id":"002172","name":"利枝道, 鴨脷洲橋道","lat":"22.243305822091","long":"114.15525315053"},{"id":"002173","name":"鴨脷洲徑, 鴨脷洲橋道","lat":"22.243626692091","long":"114.15653776053"},{"id":"002210","name":"利東邨東興樓, 利東邨道","lat":"22.240572052091","long":"114.15491479053"},{"id":"002211","name":"利東街市, 利東邨道","lat":"22.241479512091","long":"114.15483183053"},{"id":"002212","name":"漁安苑, 利東邨道","lat":"22.243031932091","long":"114.15782740053"},{"id":"002343","name":"香港仔工業學校, 黃竹坑道","lat":"22.248699582091","long":"114.16253441053"},{"id":"002344","name":"甄沾記大廈, 黃竹坑道","lat":"22.248523252091","long":"114.16362493053"},{"id":"002383","name":"業興街, 黃竹坑道","lat":"22.249540662091","long":"114.16811154053"},{"id":"002345","name":"黃竹坑遊樂場, 黃竹坑道","lat":"22.250546142091","long":"114.17056977053"},{"id":"002347","name":"香港仔隧道巴士轉乘站","lat":"22.249960892091","long":"114.17585543053"},{"id":"003429","name":"厚德里, 黃泥涌道","lat":"22.274193892091","long":"114.17924997053"},{"id":"002405","name":"堅拿道西","lat":"22.277412402091","long":"114.18097147053"},{"id":"001475","name":"海底隧道巴士轉乘站","lat":"22.302817792091","long":"114.18008423053"},{"id":"001769","name":"拔萃女書院, 加士居道","lat":"22.307534682091","long":"114.17292169053"},{"id":"001547","name":"眾坊街, 彌敦道","lat":"22.310731692091","long":"114.17098889053"},{"id":"001548","name":"登打士街, 彌敦道","lat":"22.314815892091","long":"114.17018718053"},{"id":"001552","name":"山東街, 彌敦道","lat":"22.316744762091","long":"114.16978326053"},{"id":"001554","name":"弼街, 彌敦道","lat":"22.321742152091","long":"114.16875665053"},{"id":"001555","name":"太子站, 彌敦道","lat":"22.325582342091","long":"114.16796635053"},{"id":"001426","name":"楓樹街, 長沙灣道","lat":"22.328057822091","long":"114.16552576053"},{"id":"001429","name":"北河街, 長沙灣道","lat":"22.330763912091","long":"114.16206981053"},{"id":"001430","name":"怡閣苑, 長沙灣道","lat":"22.333565102091","long":"114.15843488053"},{"id":"001431","name":"長沙灣遊樂場, 長沙灣道","lat":"22.335585632091","long":"114.15582069053"},{"id":"001687","name":"貿易廣場, 長沙灣道","lat":"22.336862472091","long":"114.15420404053"},{"id":"002885","name":"長沙灣徑, 長沙灣道","lat":"22.338083142091","long":"114.15072445053"},{"id":"001434","name":"長荔街, 長沙灣道","lat":"22.336811232091","long":"114.14707641053"},{"id":"001517","name":"美孚, 荔枝角道","lat":"22.336503572091","long":"114.14114285053"},{"id":"002852","name":"蘭秀道, 美荔道","lat":"22.338600192091","long":"114.14054234053"},{"id":"002853","name":"荔灣道, 美荔道","lat":"22.339780522091","long":"114.13968433053"},{"id":"002847","name":"荔枝角","lat":"22.341509492091","long":"114.13715589053"}],"routeId":"N171","description":"正常班次"}]