[{"company":"ctb","route":"N20","routeType":null,"dir":"O","orig":"大角咀 (維港灣)","dest":"啟德 (沐安街)","stopList":[{"id":"001603","name":"維港灣","lat":"22.318871","long":"114.158827"},{"id":"001777","name":"中匯街, 深旺道","lat":"22.322569","long":"114.159825"},{"id":"001692","name":"奧運站, 深旺道","lat":"22.318588","long":"114.160496"},{"id":"001595","name":"富貴街, 大角咀道","lat":"22.318698","long":"114.161940"},{"id":"001424","name":"銘基書院, 櫻桃街","lat":"22.318763","long":"114.164351"},{"id":"001585","name":"快富街, 新填地街","lat":"22.319757","long":"114.167471"},{"id":"003596","name":"旺角中心, 西洋菜南街","lat":"22.319879","long":"114.169900"},{"id":"003597","name":"先達廣場, 亞皆老街","lat":"22.319673","long":"114.170799"},{"id":"002717","name":"嘉道理道, 亞皆老街","lat":"22.320312","long":"114.174327"},{"id":"002718","name":"中電鐘樓文化館, 亞皆老街","lat":"22.320606","long":"114.175773"},{"id":"002875","name":"九龍醫院主座及西翼大樓, 亞皆老街","lat":"22.322781","long":"114.180520"},{"id":"003061","name":"醫院管理局大樓, 亞皆老街","lat":"22.323751","long":"114.182765"},{"id":"003062","name":"香港眼科醫院, 亞皆老街","lat":"22.324667","long":"114.184810"},{"id":"003406","name":"播道醫院, 亞皆老街","lat":"22.325851","long":"114.186983"},{"id":"003063","name":"亞皆老街遊樂場, 亞皆老街","lat":"22.326993","long":"114.188921"},{"id":"001572","name":"富豪東方酒店, 太子道東","lat":"22.328495","long":"114.191841"},{"id":"001573","name":"譽港灣, 太子道東","lat":"22.332716","long":"114.196307"},{"id":"002976","name":"景泰街, 太子道東","lat":"22.334042","long":"114.198838"},{"id":"003506","name":"工業貿易大樓, 協調道","lat":"22.332065","long":"114.198048"},{"id":"003795","name":"東九龍總區警察總部, 協調道","lat":"22.334509","long":"114.201881"},{"id":"003370","name":"啟晴邨","lat":"22.331937","long":"114.203800"},{"id":"003537","name":"德朗邨, 承啟道","lat":"22.329425","long":"114.204880"},{"id":"003705","name":"德朗邨停車場, 承啟道","lat":"22.327859","long":"114.204438"},{"id":"003507","name":"啟德 - 天寰, 沐安街","lat":"22.328877","long":"114.201987"}],"routeId":"N20","description":"正常班次"}]