[{"company":"ctb","route":"N20A","routeType":null,"dir":"O","orig":"啟德 (承景街)","dest":"高鐵西九龍站","stopList":[{"id":"003790","name":"承景街, 承豐道","lat":"22.309903852091","long":"114.20979377053"},{"id":"003520","name":"承豐道","lat":"22.311739462091","long":"114.20778315053"},{"id":"003708","name":"沐泰街, 承啟道","lat":"22.325202662091","long":"114.20053610053"},{"id":"003612","name":"機電工程署總部, 承啟道","lat":"22.326253402091","long":"114.20237693053"},{"id":"003587","name":"啟德 - 港鐵 A 出口, 沐安街","lat":"22.329759172091","long":"114.20116182053"},{"id":"003706","name":"德朗邨停車場, 承啟道","lat":"22.327952492091","long":"114.20427191053"},{"id":"003369","name":"德朗邨, 承啟道","lat":"22.330536462091","long":"114.20469159053"},{"id":"003505","name":"沐虹街, 承啟道","lat":"22.332201092091","long":"114.20465053053"},{"id":"003808","name":"東九龍總區警察總部, 協調道","lat":"22.334238952091","long":"114.20190745053"},{"id":"001576","name":"譽港灣, 太子道東","lat":"22.332077002091","long":"114.19680000053"},{"id":"001577","name":"富豪東方酒店, 太子道東","lat":"22.327146622091","long":"114.19053280053"},{"id":"003522","name":"侯王道, 太子道西","lat":"22.327374722091","long":"114.18856947053"},{"id":"003012","name":"喇沙利道, 太子道西","lat":"22.326509252091","long":"114.18310233053"},{"id":"003013","name":"伯爵街, 太子道西","lat":"22.326031552091","long":"114.18039547053"},{"id":"003690","name":"勵德街, 太子道西","lat":"22.325409682091","long":"114.17690625053"},{"id":"003691","name":"拔萃男書院, 太子道西","lat":"22.324977272091","long":"114.17433747053"},{"id":"002835","name":"協和小學, 太子道西","lat":"22.324704672091","long":"114.17284338053"},{"id":"003692","name":"太子站, 太子道西","lat":"22.324182122091","long":"114.16989856053"},{"id":"001559","name":"銀行中心, 彌敦道","lat":"22.318424162091","long":"114.16962058053"},{"id":"001561","name":"信和中心, 彌敦道","lat":"22.316006342091","long":"114.17011761053"},{"id":"001565","name":"永星里, 彌敦道","lat":"22.311070142091","long":"114.17110488053"},{"id":"001567","name":"彌敦酒店, 彌敦道","lat":"22.307183152091","long":"114.17152353053"},{"id":"002811","name":"白加士街, 佐敦道","lat":"22.305164142091","long":"114.17031406053"},{"id":"001482","name":"炮台街, 佐敦道","lat":"22.305531742091","long":"114.16858691053"},{"id":"003549","name":"高鐵西九龍站","lat":"22.307713022091","long":"114.16452094053"}],"routeId":"N20A","description":"正常班次"}]