[{"company":"kmb","route":"N216","routeType":"1","dir":"O","orig":"油塘","dest":"紅磡站","stopList":[{"id":"0D8135B0D81F29A1","name":"油塘巴士總站","lat":"22.295807","long":"114.238556"},{"id":"40FF132FB8E77051","name":"高怡邨","lat":"22.296699","long":"114.241904"},{"id":"B08CA4B3CDCF142A","name":"高俊苑","lat":"22.297943","long":"114.241074"},{"id":"CF18D17DE7B40350","name":"金栢閣","lat":"22.302001","long":"114.241063"},{"id":"ECBD286CC9ED9549","name":"龍栢閣","lat":"22.303423","long":"114.238414"},{"id":"DEB36380E32DCD53","name":"康雅苑","lat":"22.304873","long":"114.238168"},{"id":"FA246A7F26F12EDD","name":"德康樓","lat":"22.307497","long":"114.239194"},{"id":"B9D7AE7CB0C56556","name":"德敬樓","lat":"22.310818","long":"114.238251"},{"id":"B7082198F517B1E8","name":"興田","lat":"22.313062","long":"114.239436"},{"id":"93084A14AE624C6F","name":"上秀茂坪","lat":"22.315229","long":"114.236377"},{"id":"D17050E8964504BB","name":"秀明樓","lat":"22.315934","long":"114.233922"},{"id":"04DDF4F7F1C74876","name":"秀富樓","lat":"22.317096","long":"114.232170"},{"id":"BF08F9C08BB54A2B","name":"秀茂坪商場","lat":"22.319131","long":"114.231266"},{"id":"2BB6115BF9346B34","name":"秀樂樓","lat":"22.321683","long":"114.230444"},{"id":"6E113B962058A553","name":"順天總站","lat":"22.326367","long":"114.226727"},{"id":"581AAE2C80571C37","name":"順安邨","lat":"22.328442","long":"114.226863"},{"id":"C21FA8D54031D7FF","name":"利業樓","lat":"22.331690","long":"114.226014"},{"id":"8571BCC3A3E4006E","name":"利恒樓","lat":"22.333006","long":"114.224248"},{"id":"D9896F1A5B7C97C0","name":"順利消防局","lat":"22.331782","long":"114.222608"},{"id":"3BA9C90738A8600D","name":"白虹樓","lat":"22.332289","long":"114.215322"},{"id":"29B66F2353388E18","name":"牛池灣轉車站 - 彩虹站 (K7)","lat":"22.334168","long":"114.209980"},{"id":"AA6F0A2661759A49","name":"牛池灣轉車站 - 丹鳳樓 (J3)","lat":"22.335360","long":"114.207552"},{"id":"92540DF9CB08304C","name":"彩虹轉車站 - 錦雲樓 (P3)","lat":"22.337344","long":"114.204749"},{"id":"325D388E2C927954","name":"新蒲崗四美街","lat":"22.337865","long":"114.201738"},{"id":"E77716C29E34669E","name":"彩虹道遊樂場","lat":"22.337502","long":"114.195595"},{"id":"00ACB49D76C8C16F","name":"新蒲崗寧遠街","lat":"22.334437","long":"114.194554"},{"id":"D64C1350EE61A2AD","name":"九龍城轉車站- 富豪東方酒店(B8)","lat":"22.327089","long":"114.190520"},{"id":"A90CDCBFC07EDF86","name":"侯王道","lat":"22.327393","long":"114.188655"},{"id":"9DBBC71CB1578A87","name":"喇沙利道","lat":"22.326473","long":"114.183159"},{"id":"312CD2A987AA2773","name":"伯爵街","lat":"22.325975","long":"114.180423"},{"id":"40E8A4AA35AEB18A","name":"勵德街","lat":"22.325359","long":"114.176886"},{"id":"65B934D14EA190F1","name":"協和小學","lat":"22.324613","long":"114.172570"},{"id":"6F5585807DB07812","name":"太子站","lat":"22.324122","long":"114.169733"},{"id":"7B98BAE3D93817AC","name":"旺角水渠道 (S9)","lat":"22.323419","long":"114.168639"},{"id":"14F176D358D65A8B","name":"旺角奶路臣街 (S15)","lat":"22.318724","long":"114.169580"},{"id":"8E3A5C15E42020BB","name":"旺角豉油街 (S23)","lat":"22.316078","long":"114.170175"},{"id":"97CE87CF035B0E10","name":"油麻地碧街 (S28)","lat":"22.313516","long":"114.170662"},{"id":"96442B84082D4DF5","name":"油麻地永星里 (S35)","lat":"22.311247","long":"114.171112"},{"id":"508D99EBC9AB3A9B","name":"油麻地長樂街 (S42)","lat":"22.306887","long":"114.171625"},{"id":"E10A0960D4E103B1","name":"尖沙咀德成街 (S45)","lat":"22.304279","long":"114.171799"},{"id":"FE56DD70DEDE0395","name":"聖安德烈堂 (S48)","lat":"22.301952","long":"114.172017"},{"id":"1DEB855D55528B03","name":"金馬倫道 (S51)","lat":"22.298979","long":"114.172114"},{"id":"11A1269F9B78F269","name":"尖沙咀轉車站 - 中間道 (S53)","lat":"22.295877","long":"114.172442"},{"id":"0840B3F75A7B00BD","name":"尖東站","lat":"22.295264","long":"114.174725"},{"id":"FE4E099AEA040C89","name":"尖沙咀麼地道","lat":"22.297728","long":"114.175406"},{"id":"E46A9F0C0CB609F5","name":"加連威老道","lat":"22.299691","long":"114.175809"},{"id":"3D040EE809057C6E","name":"香港理工大學","lat":"22.302827","long":"114.177953"},{"id":"4BE7B829FA08FF82","name":"紅磡站總站","lat":"22.303871","long":"114.182445"}],"routeId":"N216","description":"正常班次"},{"company":"kmb","route":"N216","routeType":"1","dir":"I","orig":"紅磡站","dest":"油塘","stopList":[{"id":"4BE7B829FA08FF82","name":"紅磡站總站","lat":"22.303871","long":"114.182445"},{"id":"FE2815CBCD21C57C","name":"香港歷史博物館","lat":"22.302694","long":"114.177430"},{"id":"BEEBDDB542A7E709","name":"香港科學館","lat":"22.301475","long":"114.176613"},{"id":"48184733EFE9D3E3","name":"尖沙咀麼地道","lat":"22.298487","long":"114.175834"},{"id":"243A28F74F73A045","name":"尖東站","lat":"22.294779","long":"114.174389"},{"id":"940A31DA2A6051A9","name":"尖沙咀轉車站 - 半島酒店 (N1)","lat":"22.295138","long":"114.172249"},{"id":"DAE7B6CB56131B50","name":"尖沙咀轉車站 - 海防道 (N4)","lat":"22.297640","long":"114.172064"},{"id":"68106C827BF891AB","name":"九龍清真寺 (N9)","lat":"22.298819","long":"114.171954"},{"id":"EA4A3876639F21B4","name":"金巴利道 (N11)","lat":"22.300253","long":"114.171866"},{"id":"5419928D472EAD8D","name":"栢麗購物大道 (N13)","lat":"22.301864","long":"114.171726"},{"id":"100FBBA946264714","name":"柯士甸道 (N17)","lat":"22.304057","long":"114.171601"},{"id":"E5E7111594073DE2","name":"油麻地南京街 (N24)","lat":"22.306300","long":"114.171428"},{"id":"D9F1ED8B7D7C5AAD","name":"九龍中央郵政局 (N31)","lat":"22.309097","long":"114.171108"},{"id":"038F62C619BF8650","name":"油麻地眾坊街 (N38)","lat":"22.310607","long":"114.170967"},{"id":"E173F2DA030C6AAB","name":"油麻地碧街 (N49)","lat":"22.314146","long":"114.170265"},{"id":"05D8591BD5405ED4","name":"旺角長沙街 (N53)","lat":"22.315851","long":"114.169933"},{"id":"258EDF9D3C3FD200","name":"旺角奶路臣街 (N62)","lat":"22.317993","long":"114.169513"},{"id":"30B08A7B2B2B623F","name":"西洋菜南街","lat":"22.320135","long":"114.169894"},{"id":"4884DCF89AD7BA6A","name":"旺角站","lat":"22.319688","long":"114.170707"},{"id":"D01D18C6EB79F84B","name":"嘉道理道","lat":"22.320407","long":"114.174387"},{"id":"A72D15160CC3AF31","name":"亞皆老街中電","lat":"22.320532","long":"114.175816"},{"id":"8D5C58075D3C1003","name":"九龍醫院","lat":"22.322801","long":"114.180560"},{"id":"B0DDF2CD704116C8","name":"醫院管理局","lat":"22.323790","long":"114.182797"},{"id":"6C1DEF32B8CB92C4","name":"香港眼科醫院","lat":"22.324908","long":"114.184866"},{"id":"161B32AD4C6996AD","name":"播道醫院","lat":"22.326104","long":"114.187300"},{"id":"6965D1D655C2DD5F","name":"亞皆老街球場","lat":"22.327009","long":"114.188955"},{"id":"6AEFD1C261E8E4D8","name":"九龍城轉車站- 富豪東方酒店(A4)","lat":"22.328601","long":"114.191962"},{"id":"0543B8455A70833F","name":"天主教伍華中學","lat":"22.333087","long":"114.195516"},{"id":"D446D1EA79502BF2","name":"泰東樓","lat":"22.336357","long":"114.194529"},{"id":"FE3B13A457EEA70C","name":"黃大仙警署","lat":"22.338987","long":"114.196765"},{"id":"DFAA3371878CEED2","name":"新蒲崗四美街","lat":"22.338348","long":"114.201507"},{"id":"D80313EC29620E1D","name":"彩虹轉車站 - 碧海樓 (M5)","lat":"22.335577","long":"114.204862"},{"id":"4513DF30B4CBA349","name":"牛池灣轉車站 - 牛池灣街市 (F1)","lat":"22.334284","long":"114.209224"},{"id":"E7116B44D9E9393A","name":"牛池灣轉車站 - 彩雲聖若瑟 (E1)","lat":"22.334458","long":"114.211619"},{"id":"942E95B4336BDFA7","name":"白虹樓","lat":"22.332599","long":"114.215269"},{"id":"EB666DF59D741258","name":"基順學校","lat":"22.332535","long":"114.223473"},{"id":"A0AB9A2B2D648FF5","name":"利康樓","lat":"22.330415","long":"114.225940"},{"id":"484F835517494767","name":"安逸樓","lat":"22.328625","long":"114.227099"},{"id":"E308599CF719FE37","name":"天韻樓","lat":"22.326009","long":"114.228653"},{"id":"4A14A012710E80B1","name":"秀樂樓","lat":"22.321801","long":"114.230416"},{"id":"25D24692B2A312FB","name":"秀逸樓","lat":"22.317818","long":"114.231893"},{"id":"6F106FD26B684372","name":"秀安樓","lat":"22.316738","long":"114.233354"},{"id":"26305AF62FBEE2BC","name":"秀明樓","lat":"22.315095","long":"114.234630"},{"id":"D83C4CC1305E35E9","name":"上秀茂坪","lat":"22.315073","long":"114.235696"},{"id":"9A3AB4CF2D23357E","name":"康華苑","lat":"22.313615","long":"114.240596"},{"id":"13A8D09F9E444BF3","name":"興田","lat":"22.312437","long":"114.238859"},{"id":"3144CE950CE29C80","name":"藍田公園","lat":"22.310965","long":"114.238451"},{"id":"543FD8B6C65D1C4C","name":"德樂樓","lat":"22.309193","long":"114.239257"},{"id":"316BB2C947568585","name":"德隆樓","lat":"22.306816","long":"114.239260"},{"id":"3E862B92873F5811","name":"廣靖樓","lat":"22.304406","long":"114.238410"},{"id":"57A0D4D6D4D57497","name":"廣田商場","lat":"22.302869","long":"114.239247"},{"id":"0F9D050D4229C0F7","name":"高俊苑","lat":"22.298050","long":"114.241054"}],"routeId":"N216","description":"正常班次"}]