[{"company":"kmb","route":"N237","routeType":"1","dir":"O","orig":"美孚","dest":"葵盛(循環線)","stopList":[{"id":"3856383C8A22904A","name":"美孚巴士總站 (SS994)","lat":"22.337175","long":"114.140229"},{"id":"B4F2BAAED2470D0A","name":"饒宗頤文化館 (KW120)","lat":"22.337160","long":"114.142131"},{"id":"75C0DF6C7724CEEA","name":"鐘山台 (KW121)","lat":"22.343708","long":"114.139414"},{"id":"EBF4EB34B96BC242","name":"華員邨 (KW122)","lat":"22.351321","long":"114.132856"},{"id":"3FE93821145B65F5","name":"葵涌業成街 (KW123)","lat":"22.360158","long":"114.135190"},{"id":"264B29FD223D9C4E","name":"葵涌打磚坪街 (KW486)","lat":"22.365984","long":"114.136723"},{"id":"3E376000C84807D6","name":"大隴街 (KW495)","lat":"22.365980","long":"114.139090"},{"id":"C84CAD6CCD18F87F","name":"石籬邨石佳樓 (KW204)","lat":"22.364913","long":"114.140057"},{"id":"EC038424C17E0B60","name":"梨貝街巴士總站 (KW980)","lat":"22.362597","long":"114.138391"},{"id":"478ACE8A8C9A2705","name":"石籬天主教小學 (KW207)","lat":"22.366854","long":"114.142021"},{"id":"A13C2C1D5D3EE0D7","name":"石排街石歡樓 (KW209)","lat":"22.368603","long":"114.141870"},{"id":"DC99E9AAD0DFB39F","name":"安蔭巴士總站 (KW961)","lat":"22.370453","long":"114.142104"},{"id":"AE7C79C814E6BD95","name":"裘錦秋中學 (KW215)","lat":"22.369340","long":"114.140828"},{"id":"D5382A8A3773E6FE","name":"石蔭東邨 (KW217)","lat":"22.371931","long":"114.139780"},{"id":"FCBCC90E0ECE4F58","name":"石蔭邨 (KW222)","lat":"22.371910","long":"114.138670"},{"id":"0B4807A5C0DAF24A","name":"昌榮路 (KW330)","lat":"22.370602","long":"114.134772"},{"id":"AB10F01039440464","name":"葵涌健全街 (KW127)","lat":"22.370324","long":"114.131214"},{"id":"299184738ADD432A","name":"葵涌邨秋葵樓 (KW507)","lat":"22.368256","long":"114.130388"},{"id":"B596DF51C1BDDB19","name":"林護紀念中學 (KW365)","lat":"22.365139","long":"114.130103"},{"id":"7FE0FCDBF45276EF","name":"葵盛邨盛豐樓 (KW366)","lat":"22.363759","long":"114.129266"},{"id":"7D41FC4EE12CB8FD","name":"葵盛東巴士總站 (KW947)","lat":"22.363364","long":"114.127104"},{"id":"9CF00A30796B6B2B","name":"葵聯邨 (KW247)","lat":"22.361595","long":"114.124451"},{"id":"FB948853081A003E","name":"葵盛西邨 (KW249)","lat":"22.361199","long":"114.122434"},{"id":"3856383C8A22904A","name":"美孚巴士總站 (SS994)","lat":"22.337175","long":"114.140229"}],"routeId":"N237","description":"正常班次"}]