[{"company":"kmb","route":"N252","routeType":"1","dir":"O","orig":"美孚","dest":"屯門(三聖邨)","stopList":[{"id":"CBB9FC4A0C13979B","name":"美孚巴士總站 (T1)","lat":"22.337284","long":"114.139940"},{"id":"0CC9C5E5DBB3FF89","name":"美孚轉車站 (A4)","lat":"22.336630","long":"114.140316"},{"id":"62742CFBA2BE9854","name":"葵涌交滙處","lat":"22.340597","long":"114.131524"},{"id":"CA5B809B8263373E","name":"葵涌道荔景邨","lat":"22.352253","long":"114.126060"},{"id":"95A8334E0385A5E7","name":"葵芳邨","lat":"22.359562","long":"114.130778"},{"id":"4173C3AEE8B6F33E","name":"葵涌耀榮里","lat":"22.369113","long":"114.133275"},{"id":"AB10F01039440464","name":"葵涌健全街","lat":"22.370324","long":"114.131214"},{"id":"354A2C15BD189228","name":"大窩口轉車站-大窩口站 (B1)","lat":"22.370356","long":"114.124855"},{"id":"C7FC5050194509AE","name":"荃灣眾安街","lat":"22.371340","long":"114.119103"},{"id":"DBFB1B9BF53FC655","name":"荃灣建明街","lat":"22.373631","long":"114.115516"},{"id":"B2C63864D1C98F56","name":"大涌道福來邨","lat":"22.374014","long":"114.111383"},{"id":"033CB7A21D6DC60C","name":"祈德尊新邨","lat":"22.371342","long":"114.109806"},{"id":"9CD69A8A588B2F8D","name":"麗城花園第三期","lat":"22.371156","long":"114.102375"},{"id":"613A21BCEF50485D","name":"灣景花園","lat":"22.369482","long":"114.100274"},{"id":"122BF72E5DBAEFC0","name":"翠景臺","lat":"22.368271","long":"114.097510"},{"id":"C3009421E5B89EB0","name":"油柑頭","lat":"22.368158","long":"114.093487"},{"id":"222694615BD60A65","name":"近水灣","lat":"22.367554","long":"114.088408"},{"id":"E182FE2A3C62252F","name":"南山游泳會","lat":"22.368146","long":"114.084788"},{"id":"AEA60911096D770F","name":"汀九","lat":"22.370222","long":"114.079601"},{"id":"BC68B9C32B4267AB","name":"麗都灣","lat":"22.368283","long":"114.075610"},{"id":"62AA23787294A36E","name":"海美灣","lat":"22.364430","long":"114.069942"},{"id":"7550FEE23DA5615D","name":"深井深慈街","lat":"22.366847","long":"114.063327"},{"id":"B47C12A965D7B481","name":"碧堤半島","lat":"22.367546","long":"114.061441"},{"id":"5564CE644A0D7DBE","name":"深井村","lat":"22.366953","long":"114.059303"},{"id":"1E4E9FB5763C3436","name":"馬灣碼頭","lat":"22.365339","long":"114.056712"},{"id":"B5BB97F8CB889AB7","name":"浪翠園第三期","lat":"22.363686","long":"114.054381"},{"id":"9E4653BA0F25F731","name":"浪翠園第四期","lat":"22.362704","long":"114.051520"},{"id":"6A93E2E9F1A3F421","name":"青龍頭村","lat":"22.360935","long":"114.047472"},{"id":"3F41CA34634CC20C","name":"豪景花園","lat":"22.361452","long":"114.044662"},{"id":"2E1127BAF33B34F7","name":"豪景花園商場","lat":"22.360969","long":"114.043178"},{"id":"DD5FAAA2F84021B6","name":"御天峰","lat":"22.360580","long":"114.042321"},{"id":"A1E562738B441036","name":"御海峰","lat":"22.357618","long":"114.036355"},{"id":"8233DD25DE47FDF0","name":"嘉龍村","lat":"22.356654","long":"114.033308"},{"id":"70E8546DD7753FEF","name":"屯門公路轉車站 (C3)","lat":"22.358418","long":"114.018652"},{"id":"3CCF4F6EA48CF505","name":"大欖涌","lat":"22.362353","long":"114.019009"},{"id":"7AECAF57AF679EE7","name":"小欖","lat":"22.363772","long":"114.015478"},{"id":"116624D40FDE852C","name":"小欖澄麗路","lat":"22.365731","long":"114.012346"},{"id":"DA8B258D68133BDD","name":"小欖村","lat":"22.366356","long":"114.008976"},{"id":"75DEBB78067301B8","name":"小欖新村","lat":"22.366021","long":"114.005509"},{"id":"D4CE0ED4DF009B66","name":"愛琴灣","lat":"22.366375","long":"114.001519"},{"id":"B714B480F96C22D5","name":"小秀上村","lat":"22.367990","long":"113.999265"},{"id":"531B557CFBFFD232","name":"龍珠島","lat":"22.367917","long":"113.996286"},{"id":"46261DE8D4DFD821","name":"愛琴海岸","lat":"22.371567","long":"113.995416"},{"id":"5A3DB1CED74A109E","name":"掃管笏變電站","lat":"22.373820","long":"113.996152"},{"id":"22E22257A0FA43D3","name":"星堤","lat":"22.375663","long":"113.999657"},{"id":"752B1B808E1B4CB5","name":"掃管笏路","lat":"22.373413","long":"114.003020"},{"id":"E346E933481C3D83","name":"掃管笏","lat":"22.372203","long":"114.003459"},{"id":"130015EE1C05A484","name":"掃管笏路","lat":"22.374274","long":"114.002279"},{"id":"0F9DE5E3F13FBABA","name":"星堤","lat":"22.375593","long":"113.999537"},{"id":"FCE8D0E0D2A89B8B","name":"管翠路","lat":"22.375103","long":"113.997705"},{"id":"D77779E531F14725","name":"愛琴海岸","lat":"22.371429","long":"113.995269"},{"id":"F626C47C1F73E1AE","name":"香港黃金海岸","lat":"22.371209","long":"113.993965"},{"id":"813A44129E51981F","name":"黃金泳灘","lat":"22.373454","long":"113.991954"},{"id":"8972CD96C0B11BB2","name":"咖啡灣","lat":"22.375388","long":"113.986063"},{"id":"4AA82FE086BA80FD","name":"碧翠花園","lat":"22.377758","long":"113.983419"},{"id":"3410D9B6EF36D674","name":"青山灣碼頭","lat":"22.378810","long":"113.980728"},{"id":"9D88EE061FF5E1D0","name":"三聖邨","lat":"22.381267","long":"113.979047"},{"id":"03B2C07AC4117C59","name":"三聖總站","lat":"22.382065","long":"113.977355"}],"routeId":"N252","description":"正常班次"}]