[{"company":"kmb","route":"N260","routeType":"1","dir":"O","orig":"屯門碼頭","dest":"美孚","stopList":[{"id":"E3E171AEDE35ACDF","name":"屯門碼頭總站","lat":"22.372714","long":"113.966656"},{"id":"015AD88813C61900","name":"美樂花園 (TM464)","lat":"22.375412","long":"113.960844"},{"id":"B88E6F52E2BC2E34","name":"蝴蝶站 (TM671)","lat":"22.378219","long":"113.961708"},{"id":"3FAE59A79C8BCC93","name":"新屯門中心 (TM673)","lat":"22.381791","long":"113.963366"},{"id":"A1D3216AF158C117","name":"龍門站 (TM676)","lat":"22.385573","long":"113.965241"},{"id":"D010FF7CF77383B7","name":"青雲站 (TM181)","lat":"22.393585","long":"113.967462"},{"id":"F4D9335688592803","name":"鳴琴站 (TM185)","lat":"22.396654","long":"113.967361"},{"id":"C192BEF2264E0CC6","name":"石排站 (TM188)","lat":"22.401910","long":"113.967871"},{"id":"542CC0EC83BAEA01","name":"新圍苑 (TM380)","lat":"22.405362","long":"113.964142"},{"id":"840532B7C95DF870","name":"兆邦苑 (TM382)","lat":"22.407738","long":"113.965595"},{"id":"2F5F973821A594A9","name":"寶田轉車站 - 寶田 (T1) (TM191)","lat":"22.409510","long":"113.967056"},{"id":"EDF4C2EAFDBD4693","name":"大興警署 (TM550)","lat":"22.407849","long":"113.970585"},{"id":"12CF2025741EF844","name":"麒麟圍 (TM485)","lat":"22.410727","long":"113.976479"},{"id":"580D52F4D93CAD9B","name":"欣田邨 (TM488)","lat":"22.413767","long":"113.976890"},{"id":"3199543D3AE70527","name":"五柳路 (TM490)","lat":"22.415601","long":"113.979372"},{"id":"BDD49A91FF705B42","name":"虎地 (TM700)","lat":"22.413423","long":"113.980436"},{"id":"8C32D9DDB85891A6","name":"紅橋 (K4) (TM711)","lat":"22.401816","long":"113.977423"},{"id":"5238463F47B490D6","name":"新墟街市 (TM715)","lat":"22.396452","long":"113.976542"},{"id":"C1BF4509359B0895","name":"屯門市中心總站 (TM976)","lat":"22.391509","long":"113.975556"},{"id":"2D3D025684145373","name":"安定邨 (TM609)","lat":"22.387846","long":"113.975339"},{"id":"07B714029E91FD81","name":"兆麟苑 (TM614)","lat":"22.384918","long":"113.975370"},{"id":"913F2DF20E573CEA","name":"豐景園 (TM621)","lat":"22.383796","long":"113.973641"},{"id":"18C9D0216996D75A","name":"屯門公路轉車站 (A8) (TM751)","lat":"22.362689","long":"114.015770"},{"id":"D893FD9E88E2A98D","name":"荃景圍天橋 (TW376)","lat":"22.375764","long":"114.107846"},{"id":"5941DC3E9FA7BE8B","name":"愉景新城 (TW382)","lat":"22.375009","long":"114.112917"},{"id":"85B0E39398B91605","name":"荃灣站 (TW385)","lat":"22.374120","long":"114.115025"},{"id":"1F934873940D1F49","name":"荃灣眾安街 (TW387)","lat":"22.372659","long":"114.118190"},{"id":"C9E264A3F9D4CEB3","name":"大窩口轉車站 -大窩口站 (A1)","lat":"22.370561","long":"114.123847"},{"id":"6ED65F69CDBFDEB6","name":"昌榮路迴旋處 (KW400)","lat":"22.370145","long":"114.132069"},{"id":"364529AB163D8609","name":"葵俊苑 (KW453)","lat":"22.364743","long":"114.132908"},{"id":"4E3FEA4E559A5D16","name":"新葵興花園 (KW458)","lat":"22.362423","long":"114.132128"},{"id":"DA17B01A4A61A358","name":"葵芳邨 (KW462)","lat":"22.359821","long":"114.131178"},{"id":"D8828243CCA293B4","name":"葵涌道荔景邨 (KW464)","lat":"22.352386","long":"114.126387"},{"id":"F36F422FDC6B9D3F","name":"葵涌交滙處 (KW465)","lat":"22.339640","long":"114.132619"},{"id":"62E0E61D5250535A","name":"美孚轉車站 (SS460)","lat":"22.337485","long":"114.140456"},{"id":"CBB9FC4A0C13979B","name":"美孚巴士總站 (SS990)","lat":"22.337284","long":"114.139940"}],"routeId":"N260","description":"正常班次"},{"company":"kmb","route":"N260","routeType":"1","dir":"I","orig":"美孚","dest":"屯門碼頭","stopList":[{"id":"CBB9FC4A0C13979B","name":"美孚巴士總站 (SS990)","lat":"22.337284","long":"114.139940"},{"id":"0CC9C5E5DBB3FF89","name":"美孚轉車站 (SS322)","lat":"22.336630","long":"114.140316"},{"id":"62742CFBA2BE9854","name":"葵涌交滙處 (KW100)","lat":"22.340597","long":"114.131524"},{"id":"246ECB0F3B94855D","name":"葵涌道荔景邨 (KW102)","lat":"22.352823","long":"114.126548"},{"id":"95A8334E0385A5E7","name":"葵芳邨 (KW107)","lat":"22.359562","long":"114.130778"},{"id":"4173C3AEE8B6F33E","name":"葵涌耀榮里 (KW125)","lat":"22.369113","long":"114.133275"},{"id":"AB10F01039440464","name":"葵涌健全街 (KW127)","lat":"22.370324","long":"114.131214"},{"id":"354A2C15BD189228","name":"大窩口轉車站-大窩口站 (B1)","lat":"22.370356","long":"114.124855"},{"id":"C7FC5050194509AE","name":"荃灣眾安街 (TW137)","lat":"22.371340","long":"114.119103"},{"id":"DBFB1B9BF53FC655","name":"荃灣建明街 (TW145)","lat":"22.373631","long":"114.115516"},{"id":"A68A34F71D94FF13","name":"荃景圍天橋 (TW153)","lat":"22.375480","long":"114.108839"},{"id":"DB516EC0B8DAF046","name":"屯門公路轉車站 (B9) (TM100)","lat":"22.357963","long":"114.019237"},{"id":"64312A5DFF11636C","name":"豐景園 (TM156)","lat":"22.384009","long":"113.972822"},{"id":"CB2A65E69B2B71BE","name":"翠寧花園 (TM157)","lat":"22.383922","long":"113.974412"},{"id":"59081A58EA5BC728","name":"友愛邨 (TM162)","lat":"22.387839","long":"113.975112"},{"id":"28C36BBE416103C2","name":"屯門市廣場 (TM125)","lat":"22.393195","long":"113.976794"},{"id":"BC301D7E7F063331","name":"新墟街市 (TM132)","lat":"22.398858","long":"113.976525"},{"id":"CBE54DB551C24A02","name":"紅橋 (TM133)","lat":"22.402437","long":"113.977155"},{"id":"0B77310D4512A3F9","name":"虎地 (TM150)","lat":"22.412962","long":"113.979772"},{"id":"E01BD8E1BEC29EA6","name":"五柳路 (TM526)","lat":"22.415511","long":"113.979679"},{"id":"E16D49ECA536ECC6","name":"兆康路 (TM528)","lat":"22.414894","long":"113.977411"},{"id":"F224A907BD68406A","name":"兆康苑兆賢閣 (TM530)","lat":"22.410177","long":"113.976578"},{"id":"4F36FEF121788834","name":"屯門醫院 (TM531)","lat":"22.408729","long":"113.975608"},{"id":"ECE3F3BE270C27E2","name":"寶怡花園 (TM478)","lat":"22.408361","long":"113.968805"},{"id":"594A765BE3A43C73","name":"寶田轉車站 - 盈豐園 (S1)","lat":"22.407770","long":"113.967281"},{"id":"507D90B4B976DBD6","name":"田景邨田樂樓 (TM536)","lat":"22.407591","long":"113.964929"},{"id":"1F6BFDF34BABCE6A","name":"田景邨田裕樓 (TM540)","lat":"22.405482","long":"113.964709"},{"id":"19B569A51034271F","name":"石排站 (TM584)","lat":"22.402023","long":"113.968039"},{"id":"B3CCA98CC6CE7C8C","name":"鳴琴站 (TM585)","lat":"22.397121","long":"113.967538"},{"id":"1F5BF0C69F30C752","name":"青雲站 (TM590)","lat":"22.393642","long":"113.967801"},{"id":"854E787D0F56BF91","name":"聖彼得堂 (TM593)","lat":"22.392096","long":"113.967806"},{"id":"AD25F24A6E6ACEE3","name":"富健花園 (TM431)","lat":"22.383870","long":"113.964718"},{"id":"83A02749D0CB2EE8","name":"新屯門中心 (TM433)","lat":"22.381790","long":"113.963853"},{"id":"3104B2FBA1EEE592","name":"兆山苑柳景閣 (TM435)","lat":"22.377425","long":"113.961420"},{"id":"86D1BF834F627D5C","name":"蝴蝶邨蝶心樓 (TM630)","lat":"22.374166","long":"113.962277"},{"id":"1D944152BA58ABF3","name":"湖景邨湖碧樓 (TM631)","lat":"22.373681","long":"113.964085"},{"id":"722B3DD3D7BCFA21","name":"屯門碼頭(兆禧苑) (TM633)","lat":"22.373120","long":"113.966618"},{"id":"E3E171AEDE35ACDF","name":"屯門碼頭總站","lat":"22.372714","long":"113.966656"}],"routeId":"N260","description":"正常班次"}]