[{"company":"kmb","route":"N272","routeType":"1","dir":"O","orig":"大學站","dest":"白石角(循環線)","stopList":[{"id":"9F542D4B6CF41651","name":"大學站","lat":"22.412678","long":"114.210665"},{"id":"739A5DDE0CF1970C","name":"馬料水公眾碼頭","lat":"22.415908","long":"114.213778"},{"id":"9E95343C77BB85E2","name":"水上活動中心","lat":"22.420023","long":"114.214250"},{"id":"2D1A8946EF054FC9","name":"香港生物科技研究院","lat":"22.423223","long":"114.213922"},{"id":"DADEC4FDAD7C58B3","name":"科學園(第一期)","lat":"22.424247","long":"114.211432"},{"id":"E8F5E085BAEFE100","name":"科研路","lat":"22.426628","long":"114.208027"},{"id":"3313B37BF82AFF18","name":"雲滙","lat":"22.429561","long":"114.203338"},{"id":"F8F0E91589F099CD","name":"白石角","lat":"22.431368","long":"114.201986"},{"id":"5747450359C7907C","name":"逸瓏灣","lat":"22.431675","long":"114.203753"},{"id":"3F24CFF9046300D9","name":"雲滙","lat":"22.429805","long":"114.203323"},{"id":"3A7AC3A5F9530786","name":"創新路","lat":"22.428649","long":"114.204981"},{"id":"39E7051B17D302DA","name":"科研路","lat":"22.426442","long":"114.208450"},{"id":"1C6EAAF5F48167F9","name":"科學園(第一期)","lat":"22.424272","long":"114.211589"},{"id":"1D1571E9D1588FBE","name":"香港生物科技研究院","lat":"22.422664","long":"114.214179"},{"id":"64101F297D3C1C55","name":"水上活動中心","lat":"22.418662","long":"114.214271"},{"id":"5B39CC28607910E4","name":"馬料水公眾碼頭","lat":"22.416027","long":"114.213945"},{"id":"9F542D4B6CF41651","name":"大學站","lat":"22.412678","long":"114.210665"}],"routeId":"N272","description":"正常班次"}]