[{"company":"kmb","route":"N283","routeType":"1","dir":"O","orig":"尖沙咀東(麼地道)","dest":"黃泥頭","stopList":[{"id":"F3D86A2A72FF3582","name":"尖沙咀東（麼地道） (YT921)","lat":"22.296805","long":"114.176056"},{"id":"8E8DB91C885F1230","name":"尖東站 K11 MUSEA (YT633)","lat":"22.294724","long":"114.174189"},{"id":"940A31DA2A6051A9","name":"尖沙咀轉車站-半島酒店 (YT100)","lat":"22.295138","long":"114.172249"},{"id":"4A38244491180BF7","name":"尖沙咀轉車站 - 海防道 (YT105)","lat":"22.297792","long":"114.172054"},{"id":"5419928D472EAD8D","name":"栢麗購物大道 (YT112)","lat":"22.301864","long":"114.171726"},{"id":"357B7D41501CDACA","name":"柯士甸道 (YT118)","lat":"22.304119","long":"114.171653"},{"id":"DF10BE627F25E7DD","name":"油麻地寧波街 (YT127)","lat":"22.306879","long":"114.171386"},{"id":"D7C7D86E923EEAE1","name":"九龍中央郵政局 (YT134)","lat":"22.309345","long":"114.171133"},{"id":"088B858E4B54D8AC","name":"油麻地文明里 (YT140)","lat":"22.311337","long":"114.170814"},{"id":"05D8591BD5405ED4","name":"旺角長沙街 (MK162)","lat":"22.315851","long":"114.169933"},{"id":"258EDF9D3C3FD200","name":"旺角奶路臣街 (MK171)","lat":"22.317993","long":"114.169513"},{"id":"5CA7841E84D52C8A","name":"旺角街市 (MK627)","lat":"22.318768","long":"114.166977"},{"id":"22138E6C8051FDBD","name":"銘基書院 (MK631)","lat":"22.318555","long":"114.164859"},{"id":"E68FF6CC803A14A2","name":"美林邨美楓樓 (TA301)","lat":"22.376396","long":"114.176354"},{"id":"613ED01D077362A9","name":"文化博物館 (ST770)","lat":"22.377877","long":"114.186508"},{"id":"66B8F73D3F4E91C9","name":"博康巴士總站 (ST961)","lat":"22.377224","long":"114.195421"},{"id":"8EE5AC5D519C140E","name":"水泉澳邨城泉樓 (ST240)","lat":"22.372763","long":"114.196688"},{"id":"944A9ADFCA286511","name":"水泉澳總站 (ST970)","lat":"22.374466","long":"114.197641"},{"id":"808CA5FECCC6646D","name":"多石街 (ST660)","lat":"22.377451","long":"114.201727"},{"id":"860026BE357B5462","name":"聖羅撒書院 (ST700)","lat":"22.381216","long":"114.202641"},{"id":"4BFB5F2D496CDA56","name":"第一城站 (ST312)","lat":"22.382854","long":"114.203752"},{"id":"51FCE282462E418B","name":"愉翠苑 (ST320)","lat":"22.382525","long":"114.205475"},{"id":"F8BB84BC801E4C85","name":"牛皮沙新村 (ST325)","lat":"22.380184","long":"114.207696"},{"id":"BC39BFC3C7BC3009","name":"香港恒生大學 (ST330)","lat":"22.380733","long":"114.211916"},{"id":"2FABE52A66DF7482","name":"廣柏樓 (ST332)","lat":"22.381786","long":"114.213729"},{"id":"C1E1199805BCC92D","name":"帝堡城 (ST538)","lat":"22.382838","long":"114.215121"},{"id":"F0852C7827CC97EB","name":"黃泥頭巴士總站 (ST890)","lat":"22.382340","long":"114.217954"}],"routeId":"N283","description":"正常班次"}]