[{"company":"ctb","route":"N29","routeType":null,"dir":"I","orig":"東涌站","dest":"將軍澳 (康盛花園)","stopList":[{"id":"001860","name":"東涌站","lat":"22.289530742091","long":"113.94050290053"},{"id":"001864","name":"赤鱲角南路","lat":"22.291892082091","long":"113.92840376053"},{"id":"001842","name":"亞洲空運中心, 駿坪路","lat":"22.295849412091","long":"113.92082136053"},{"id":"001839","name":"機場空運中心, 駿運路","lat":"22.294954752091","long":"113.92331355053"},{"id":"001863","name":"香港空運貨站, 駿運路","lat":"22.297087112091","long":"113.92984635053"},{"id":"001866","name":"赤鱲角消防局, 航膳東路","lat":"22.300214432091","long":"113.93321379053"},{"id":"001867","name":"國泰餐飲, 航膳東路","lat":"22.301812632091","long":"113.93478861053"},{"id":"001844","name":"國泰城, 觀景路","lat":"22.297636222091","long":"113.93331853053"},{"id":"001832","name":"二號檢查閘, 暢連路","lat":"22.310769292091","long":"113.93645407053"},{"id":"001837","name":"機場 (地面運輸中心)","lat":"22.314155382091","long":"113.93690708053"},{"id":"001834","name":"一號客運大樓(北), 暢達路","lat":"22.316527602091","long":"113.93581499053"},{"id":"001836","name":"富豪機場酒店,  暢達路","lat":"22.319353342091","long":"113.93396777053"},{"id":"001854","name":"青嶼幹線巴士轉乘站","lat":"22.339339292091","long":"114.04211697053"},{"id":"001766","name":"畢架山花園, 龍翔道","lat":"22.341561202091","long":"114.16732372053"},{"id":"001767","name":"豐力樓, 龍翔道","lat":"22.343045712091","long":"114.17286134053"},{"id":"001734","name":"天馬苑, 龍翔道","lat":"22.342635352091","long":"114.18641726053"},{"id":"001465","name":"橫頭磡邨宏業樓, 富美街","lat":"22.340518792091","long":"114.18872883053"},{"id":"001615","name":"樂富邨","lat":"22.339000952091","long":"114.18790862053"},{"id":"001523","name":"黃大仙站, 龍翔道","lat":"22.341815742091","long":"114.19217929053"},{"id":"001688","name":"沙田坳道, 龍翔道","lat":"22.341786682091","long":"114.19549949053"},{"id":"002711","name":"荷里活廣場, 上元街","lat":"22.339848372091","long":"114.20308177053"},{"id":"001708","name":"志蓮淨苑, 鳳德道","lat":"22.339966572091","long":"114.20453329053"},{"id":"001448","name":"彩虹邨金碧樓, 彩虹邨通道","lat":"22.335157802091","long":"114.20498066053"},{"id":"001503","name":"坪石邨, 太子道東","lat":"22.333081342091","long":"114.20723458053"},{"id":"001504","name":"啟業邨, 觀塘道","lat":"22.330616082091","long":"114.21034329053"},{"id":"001505","name":"九龍灣站, 觀塘道","lat":"22.325498272091","long":"114.21429538053"},{"id":"001506","name":"牛頭角下邨, 觀塘道","lat":"22.321454812091","long":"114.21463179053"},{"id":"001507","name":"定富街, 觀塘道","lat":"22.316605442091","long":"114.21608286053"},{"id":"001508","name":"牛頭角站, 觀塘道","lat":"22.315130552091","long":"114.21954638053"},{"id":"001509","name":"觀塘市中心, 觀塘道","lat":"22.313441392091","long":"114.22397362053"},{"id":"001510","name":"觀塘站","lat":"22.311633112091","long":"114.22761751053"},{"id":"001520","name":"藍田站, 鯉魚門道","lat":"22.306755832091","long":"114.23353539053"},{"id":"001489","name":"聖公會基孝中學, 啟田道","lat":"22.306171062091","long":"114.23531604053"},{"id":"001490","name":"康田苑, 啟田道","lat":"22.307092582091","long":"114.23511609053"},{"id":"001640","name":"啟田邨啟仁樓, 啟田道","lat":"22.309385422091","long":"114.23368006053"},{"id":"001670","name":"觀塘警署, 將軍澳道","lat":"22.310776012091","long":"114.23129530053"},{"id":"003595","name":"將軍澳隧道巴士轉乘站","lat":"22.315689052091","long":"114.24021817053"},{"id":"001822","name":"富康花園, 寶康路","lat":"22.310280642091","long":"114.26286512053"},{"id":"001823","name":"唐明街公園, 唐明街","lat":"22.310442242091","long":"114.25886195053"},{"id":"001763","name":"彩明苑彩富閣, 景嶺路","lat":"22.308146392091","long":"114.25317597053"},{"id":"001764","name":"調景嶺站, 景嶺路","lat":"22.305291742091","long":"114.25292725053"},{"id":"001824","name":"將軍澳中心, 寶邑路","lat":"22.306218742091","long":"114.25713001053"},{"id":"001825","name":"將軍澳站, 寶邑路","lat":"22.307220372091","long":"114.26005696053"},{"id":"001826","name":"將軍澳廣場, 寶邑路","lat":"22.307988842091","long":"114.26243839053"},{"id":"001752","name":"新寶城, 銀澳路","lat":"22.314385862091","long":"114.26662602053"},{"id":"001736","name":"南豐廣場, 培成路","lat":"22.315095992091","long":"114.26411167053"},{"id":"001737","name":"厚德邨, 寶寧路","lat":"22.319202182091","long":"114.26406339053"},{"id":"001753","name":"景林邨, 寶琳北路","lat":"22.322157142091","long":"114.26110043053"},{"id":"001785","name":"欣景路","lat":"22.323409582091","long":"114.25876793053"},{"id":"001683","name":"梁潔華小學, 寶豐路","lat":"22.323417872091","long":"114.25566861053"},{"id":"001684","name":"怡心園, 寶康路","lat":"22.323019892091","long":"114.25351646053"},{"id":"001675","name":"翠林邨, 寶琳北路","lat":"22.321397042091","long":"114.25026554053"},{"id":"001676","name":"康盛花園","lat":"22.318373042091","long":"114.25406947053"}],"routeId":"N29","description":"正常班次"},{"company":"ctb","route":"N29","routeType":null,"dir":"O","orig":"將軍澳 (康盛花園)","dest":"東涌站","stopList":[{"id":"001676","name":"康盛花園","lat":"22.318373042091","long":"114.25406947053"},{"id":"001677","name":"康盛花園, 寶琳北路","lat":"22.319789002091","long":"114.25412188053"},{"id":"001678","name":"翠林邨, 寶琳北路","lat":"22.322747372091","long":"114.25016544053"},{"id":"003234","name":"富麗花園, 寶康路","lat":"22.322887942091","long":"114.25414805053"},{"id":"001755","name":"寶林邨寶儉樓, 寶豐路","lat":"22.324376342091","long":"114.25670434053"},{"id":"002908","name":"欣明苑, 欣景路","lat":"22.323728202091","long":"114.25864294053"},{"id":"001672","name":"景林邨, 寶琳北路","lat":"22.322123952091","long":"114.26144316053"},{"id":"001726","name":"厚德邨, 寶寧路","lat":"22.319361992091","long":"114.26420930053"},{"id":"001727","name":"重華路","lat":"22.316936322091","long":"114.26586361053"},{"id":"001754","name":"煜明苑, 銀澳路","lat":"22.314505592091","long":"114.26673318053"},{"id":"001818","name":"寶盈花園, 寶邑路","lat":"22.307711102091","long":"114.26217901053"},{"id":"001819","name":"將軍澳站, 寶邑路","lat":"22.307006382091","long":"114.26013810053"},{"id":"001820","name":"入境事務處總部, 寶邑路","lat":"22.305904352091","long":"114.25697856053"},{"id":"001821","name":"健明邨, 景嶺路","lat":"22.306625192091","long":"114.25182331053"},{"id":"001778","name":"唐明苑, 唐明街","lat":"22.310249752091","long":"114.25772815053"},{"id":"001728","name":"尚德邨尚智樓, 唐明街","lat":"22.311288322091","long":"114.26075763053"},{"id":"001751","name":"廣明苑, 寶康路","lat":"22.313236092091","long":"114.26036487053"},{"id":"003589","name":"將軍澳隧道巴士轉乘站","lat":"22.315073802091","long":"114.24024319053"},{"id":"001491","name":"啟田商場, 啟田道","lat":"22.308503542091","long":"114.23445297053"},{"id":"001492","name":"聖公會基孝中學, 啟田道","lat":"22.305971352091","long":"114.23544646053"},{"id":"001522","name":"藍田站, 鯉魚門道","lat":"22.305529462091","long":"114.23413329053"},{"id":"001521","name":"觀塘法院, 鯉魚門道","lat":"22.309748242091","long":"114.22987703053"},{"id":"001493","name":"觀塘站, 觀塘道","lat":"22.311150572091","long":"114.22769503053"},{"id":"001494","name":"駿業里, 觀塘道","lat":"22.313346232091","long":"114.22351063053"},{"id":"001495","name":"創紀之城, 觀塘道","lat":"22.314321422091","long":"114.22087864053"},{"id":"001496","name":"定富街, 觀塘道","lat":"22.316092622091","long":"114.21629897053"},{"id":"001498","name":"牛頭角下邨, 觀塘道","lat":"22.320182512091","long":"114.21448890053"},{"id":"001499","name":"德福花園, 觀塘道","lat":"22.322004582091","long":"114.21431732053"},{"id":"001500","name":"九龍灣站, 觀塘道","lat":"22.325551032091","long":"114.21393835053"},{"id":"001501","name":"啟泰苑, 觀塘道","lat":"22.328831762091","long":"114.21175486053"},{"id":"001525","name":"彩虹邨丹鳳樓, 龍翔道","lat":"22.335290892091","long":"114.20761701053"},{"id":"001695","name":"鑽石山站, 龍翔道","lat":"22.339272392091","long":"114.20228739053"},{"id":"001690","name":"沙田坳道, 龍翔道","lat":"22.341586742091","long":"114.19546107053"},{"id":"001524","name":"摩士公園游泳池, 龍翔道","lat":"22.341541322091","long":"114.19151762053"},{"id":"001465","name":"橫頭磡邨宏業樓, 富美街","lat":"22.340518792091","long":"114.18872883053"},{"id":"001615","name":"樂富邨","lat":"22.339000952091","long":"114.18790862053"},{"id":"001724","name":"五旬節聖潔會永光書院, 龍翔道","lat":"22.342346632091","long":"114.18854505053"},{"id":"001765","name":"豐力樓, 龍翔道","lat":"22.342559752091","long":"114.17294742053"},{"id":"001725","name":"畢架山花園, 龍翔道","lat":"22.341581972091","long":"114.16679537053"},{"id":"001853","name":"青嶼幹線巴士轉乘站","lat":"22.338232802091","long":"114.04196854053"},{"id":"001832","name":"二號檢查閘, 暢連路","lat":"22.310769292091","long":"113.93645407053"},{"id":"001833","name":"一號停車場, 暢達路","lat":"22.312719322091","long":"113.93716755053"},{"id":"001834","name":"一號客運大樓(北), 暢達路","lat":"22.316527602091","long":"113.93581499053"},{"id":"001836","name":"富豪機場酒店,  暢達路","lat":"22.319353342091","long":"113.93396777053"},{"id":"001845","name":"國泰城, 駿明路","lat":"22.297630222091","long":"113.93286939053"},{"id":"001866","name":"赤鱲角消防局, 航膳東路","lat":"22.300214432091","long":"113.93321379053"},{"id":"001867","name":"國泰餐飲, 航膳東路","lat":"22.301812632091","long":"113.93478861053"},{"id":"001872","name":"駿運南路, 駿運路","lat":"22.296307722091","long":"113.92828152053"},{"id":"001838","name":"機場空運中心, 駿運路","lat":"22.295103112091","long":"113.92453797053"},{"id":"001842","name":"亞洲空運中心, 駿坪路","lat":"22.295849412091","long":"113.92082136053"},{"id":"001862","name":"赤鱲角南路","lat":"22.291866272091","long":"113.92870664053"},{"id":"001858","name":"東涌纜車站, 達東路","lat":"22.289058372091","long":"113.93864113053"},{"id":"001860","name":"東涌站","lat":"22.289530742091","long":"113.94050290053"}],"routeId":"N29","description":"正常班次"}]