[{"company":"ctb","route":"N29","routeType":null,"dir":"I","orig":"東涌站","dest":"將軍澳 (康盛花園)","stopList":[{"id":"001860","name":"東涌站","lat":"22.289531","long":"113.940503"},{"id":"001864","name":"赤鱲角南路","lat":"22.291892","long":"113.928404"},{"id":"001842","name":"亞洲空運中心, 駿坪路","lat":"22.295849","long":"113.920821"},{"id":"001839","name":"機場空運中心, 駿運路","lat":"22.294955","long":"113.923314"},{"id":"001863","name":"香港空運貨站, 駿運路","lat":"22.297087","long":"113.929846"},{"id":"001866","name":"赤鱲角消防局, 航膳東路","lat":"22.300214","long":"113.933214"},{"id":"001867","name":"國泰餐飲, 航膳東路","lat":"22.301813","long":"113.934789"},{"id":"001844","name":"國泰城, 觀景路","lat":"22.297636","long":"113.933319"},{"id":"001832","name":"二號檢查閘, 暢連路","lat":"22.310769","long":"113.936454"},{"id":"001837","name":"機場 (地面運輸中心)","lat":"22.314155","long":"113.936907"},{"id":"001834","name":"一號客運大樓(北), 暢達路","lat":"22.316528","long":"113.935815"},{"id":"001836","name":"富豪機場酒店,  暢達路","lat":"22.319353","long":"113.933968"},{"id":"001854","name":"青嶼幹線巴士轉乘站","lat":"22.339339","long":"114.042117"},{"id":"001766","name":"畢架山花園, 龍翔道","lat":"22.341561","long":"114.167324"},{"id":"001767","name":"豐力樓, 龍翔道","lat":"22.343046","long":"114.172861"},{"id":"001734","name":"天馬苑, 龍翔道","lat":"22.342635","long":"114.186417"},{"id":"001465","name":"橫頭磡邨宏業樓, 富美街","lat":"22.340519","long":"114.188729"},{"id":"001615","name":"樂富邨","lat":"22.339001","long":"114.187909"},{"id":"001523","name":"黃大仙站, 龍翔道","lat":"22.341816","long":"114.192179"},{"id":"001688","name":"沙田坳道, 龍翔道","lat":"22.341787","long":"114.195499"},{"id":"002711","name":"荷里活廣場, 上元街","lat":"22.339848","long":"114.203082"},{"id":"001708","name":"志蓮淨苑, 鳳德道","lat":"22.339967","long":"114.204533"},{"id":"001448","name":"彩虹邨金碧樓, 彩虹邨通道","lat":"22.335158","long":"114.204981"},{"id":"001503","name":"坪石邨, 太子道東","lat":"22.333081","long":"114.207235"},{"id":"001504","name":"啟業邨, 觀塘道","lat":"22.330616","long":"114.210343"},{"id":"001505","name":"九龍灣站, 觀塘道","lat":"22.325498","long":"114.214295"},{"id":"001506","name":"牛頭角下邨, 觀塘道","lat":"22.321455","long":"114.214632"},{"id":"001507","name":"定富街, 觀塘道","lat":"22.316605","long":"114.216083"},{"id":"001508","name":"牛頭角站, 觀塘道","lat":"22.315131","long":"114.219546"},{"id":"001509","name":"觀塘市中心, 觀塘道","lat":"22.313441","long":"114.223974"},{"id":"001510","name":"觀塘站","lat":"22.311633","long":"114.227618"},{"id":"001520","name":"藍田站, 鯉魚門道","lat":"22.306756","long":"114.233535"},{"id":"001489","name":"聖公會基孝中學, 啟田道","lat":"22.306171","long":"114.235316"},{"id":"001490","name":"康田苑, 啟田道","lat":"22.307093","long":"114.235116"},{"id":"001640","name":"啟田邨啟仁樓, 啟田道","lat":"22.309385","long":"114.233680"},{"id":"001670","name":"觀塘警署, 將軍澳道","lat":"22.310776","long":"114.231295"},{"id":"003595","name":"將軍澳隧道巴士轉乘站","lat":"22.315689","long":"114.240218"},{"id":"001822","name":"富康花園, 寶康路","lat":"22.310281","long":"114.262865"},{"id":"001823","name":"唐明街公園, 唐明街","lat":"22.310442","long":"114.258862"},{"id":"001763","name":"彩明苑彩富閣, 景嶺路","lat":"22.308146","long":"114.253176"},{"id":"001764","name":"調景嶺站, 景嶺路","lat":"22.305292","long":"114.252927"},{"id":"001824","name":"將軍澳中心, 寶邑路","lat":"22.306219","long":"114.257130"},{"id":"001825","name":"將軍澳站, 寶邑路","lat":"22.307220","long":"114.260057"},{"id":"001826","name":"將軍澳廣場, 寶邑路","lat":"22.307989","long":"114.262438"},{"id":"001752","name":"新寶城, 銀澳路","lat":"22.314561","long":"114.266431"},{"id":"001736","name":"南豐廣場, 培成路","lat":"22.315096","long":"114.264112"},{"id":"001737","name":"厚德邨, 寶寧路","lat":"22.319202","long":"114.264063"},{"id":"001753","name":"景林邨, 寶琳北路","lat":"22.322157","long":"114.261100"},{"id":"001785","name":"欣景路","lat":"22.323410","long":"114.258768"},{"id":"001683","name":"梁潔華小學, 寶豐路","lat":"22.323418","long":"114.255669"},{"id":"001684","name":"怡心園, 寶康路","lat":"22.323020","long":"114.253516"},{"id":"001675","name":"翠林邨, 寶琳北路","lat":"22.321397","long":"114.250266"},{"id":"001676","name":"康盛花園","lat":"22.318373","long":"114.254069"}],"routeId":"N29","description":"正常班次"},{"company":"ctb","route":"N29","routeType":null,"dir":"O","orig":"將軍澳 (康盛花園)","dest":"東涌站","stopList":[{"id":"001676","name":"康盛花園","lat":"22.318373","long":"114.254069"},{"id":"001677","name":"康盛花園, 寶琳北路","lat":"22.319789","long":"114.254122"},{"id":"001678","name":"翠林邨, 寶琳北路","lat":"22.322747","long":"114.250165"},{"id":"003234","name":"富麗花園, 寶康路","lat":"22.322888","long":"114.254148"},{"id":"001755","name":"寶林邨寶儉樓, 寶豐路","lat":"22.324376","long":"114.256704"},{"id":"002908","name":"欣明苑, 欣景路","lat":"22.323728","long":"114.258643"},{"id":"001672","name":"景林邨, 寶琳北路","lat":"22.322124","long":"114.261443"},{"id":"001726","name":"厚德邨, 寶寧路","lat":"22.319362","long":"114.264209"},{"id":"001727","name":"重華路","lat":"22.316936","long":"114.265864"},{"id":"001754","name":"煜明苑, 銀澳路","lat":"22.314669","long":"114.266538"},{"id":"001818","name":"寶盈花園, 寶邑路","lat":"22.307711","long":"114.262179"},{"id":"001819","name":"將軍澳站, 寶邑路","lat":"22.307006","long":"114.260138"},{"id":"001820","name":"入境事務處總部, 寶邑路","lat":"22.305904","long":"114.256979"},{"id":"001821","name":"健明邨, 景嶺路","lat":"22.306625","long":"114.251823"},{"id":"001778","name":"唐明苑, 唐明街","lat":"22.310250","long":"114.257728"},{"id":"001728","name":"尚德邨尚智樓, 唐明街","lat":"22.311288","long":"114.260758"},{"id":"001751","name":"廣明苑, 寶康路","lat":"22.313236","long":"114.260365"},{"id":"003589","name":"將軍澳隧道巴士轉乘站","lat":"22.315074","long":"114.240243"},{"id":"001491","name":"啟田商場, 啟田道","lat":"22.308504","long":"114.234453"},{"id":"001492","name":"聖公會基孝中學, 啟田道","lat":"22.305971","long":"114.235446"},{"id":"001522","name":"藍田站, 鯉魚門道","lat":"22.305529","long":"114.234133"},{"id":"001521","name":"觀塘法院, 鯉魚門道","lat":"22.309748","long":"114.229877"},{"id":"001493","name":"觀塘站, 觀塘道","lat":"22.311151","long":"114.227695"},{"id":"001494","name":"駿業里, 觀塘道","lat":"22.313346","long":"114.223511"},{"id":"001495","name":"創紀之城, 觀塘道","lat":"22.314321","long":"114.220879"},{"id":"001496","name":"定富街, 觀塘道","lat":"22.316093","long":"114.216299"},{"id":"001498","name":"牛頭角下邨, 觀塘道","lat":"22.320183","long":"114.214489"},{"id":"001499","name":"德福花園, 觀塘道","lat":"22.322005","long":"114.214317"},{"id":"001500","name":"九龍灣站, 觀塘道","lat":"22.325551","long":"114.213938"},{"id":"001501","name":"啟泰苑, 觀塘道","lat":"22.328832","long":"114.211755"},{"id":"001525","name":"彩虹邨丹鳳樓, 龍翔道","lat":"22.335291","long":"114.207617"},{"id":"001695","name":"鑽石山站, 龍翔道","lat":"22.339272","long":"114.202287"},{"id":"001690","name":"沙田坳道, 龍翔道","lat":"22.341587","long":"114.195461"},{"id":"001524","name":"摩士公園游泳池, 龍翔道","lat":"22.341541","long":"114.191518"},{"id":"001465","name":"橫頭磡邨宏業樓, 富美街","lat":"22.340519","long":"114.188729"},{"id":"001615","name":"樂富邨","lat":"22.339001","long":"114.187909"},{"id":"001724","name":"五旬節聖潔會永光書院, 龍翔道","lat":"22.342347","long":"114.188545"},{"id":"001765","name":"豐力樓, 龍翔道","lat":"22.342560","long":"114.172947"},{"id":"001725","name":"畢架山花園, 龍翔道","lat":"22.341582","long":"114.166795"},{"id":"001853","name":"青嶼幹線巴士轉乘站","lat":"22.338233","long":"114.041969"},{"id":"001832","name":"二號檢查閘, 暢連路","lat":"22.310769","long":"113.936454"},{"id":"001833","name":"一號停車場, 暢達路","lat":"22.312719","long":"113.937168"},{"id":"001834","name":"一號客運大樓(北), 暢達路","lat":"22.316528","long":"113.935815"},{"id":"001836","name":"富豪機場酒店,  暢達路","lat":"22.319353","long":"113.933968"},{"id":"001845","name":"國泰城, 駿明路","lat":"22.297630","long":"113.932869"},{"id":"001866","name":"赤鱲角消防局, 航膳東路","lat":"22.300214","long":"113.933214"},{"id":"001867","name":"國泰餐飲, 航膳東路","lat":"22.301813","long":"113.934789"},{"id":"001872","name":"駿運南路, 駿運路","lat":"22.296308","long":"113.928282"},{"id":"001838","name":"機場空運中心, 駿運路","lat":"22.295103","long":"113.924538"},{"id":"001842","name":"亞洲空運中心, 駿坪路","lat":"22.295849","long":"113.920821"},{"id":"001862","name":"赤鱲角南路","lat":"22.291866","long":"113.928707"},{"id":"001858","name":"東涌纜車站, 達東路","lat":"22.289058","long":"113.938641"},{"id":"001860","name":"東涌站","lat":"22.289531","long":"113.940503"}],"routeId":"N29","description":"正常班次"}]