[{"company":"kmb","route":"N30","routeType":"1","dir":"O","orig":"元朗站","dest":"機場(暢達路)","stopList":[{"id":"F16C067FBC346D71","name":"元朗站 (YL960)","lat":"22.446096","long":"114.034273"},{"id":"B802C4681F58E3E2","name":"又新街 (S1) (YL245)","lat":"22.444292","long":"114.031170"},{"id":"F8DED1E04A074504","name":"大棠路 (S6) (YL250)","lat":"22.444354","long":"114.028391"},{"id":"8BE58FAD7E9C94C7","name":"康樂路 (S11) (YL255)","lat":"22.444383","long":"114.026050"},{"id":"1DBADE3376C4149E","name":"元朗警署 (S13) (YL257)","lat":"22.444466","long":"114.023938"},{"id":"61130BDD0AFFBA86","name":"水邊村 (YL260)","lat":"22.444568","long":"114.021140"},{"id":"147195048B687121","name":"元朗公園 (YL262)","lat":"22.444081","long":"114.018759"},{"id":"B6C73B7C3607611B","name":"天耀邨耀豐樓 (TN231)","lat":"22.453161","long":"114.005882"},{"id":"471AB47F0E2C6E89","name":"景湖居 (TN241)","lat":"22.458691","long":"114.004980"},{"id":"5AD0EDD70D540E29","name":"麗湖居 (TN250)","lat":"22.460342","long":"114.004668"},{"id":"D7F4AE9D52F68682","name":"天晴邨晴雲樓 (TN253)","lat":"22.463125","long":"114.003910"},{"id":"073FDD804B77DE09","name":"天富苑能富閣 (TN281)","lat":"22.465044","long":"114.000689"},{"id":"F60E8E7D4B29135F","name":"天富苑欣富閣 (TN502)","lat":"22.464421","long":"113.997485"},{"id":"4DD9CB2D8C7DB1D8","name":"天頌苑 (TN506)","lat":"22.460486","long":"113.997244"},{"id":"F24C06FAF6EE076F","name":"天瑞邨 (TN509)","lat":"22.456381","long":"113.999479"},{"id":"775642281FBFE336","name":"天水圍公園 (TN511)","lat":"22.454484","long":"114.002970"},{"id":"B85641FDDED22352","name":"天耀邨耀盛樓 (TN572)","lat":"22.452259","long":"114.002123"},{"id":"8C8037479F88F500","name":"天耀邨耀民樓 (TN580)","lat":"22.449585","long":"114.003182"},{"id":"EF0567DCF0D20204","name":"天水圍站 (YL613)","lat":"22.446719","long":"114.003014"},{"id":"210978D525EEDF4F","name":"紅橋 (K5) (TM710)","lat":"22.401991","long":"113.977501"},{"id":"C4BDAA5047CADCBA","name":"新墟街市 (TM716)","lat":"22.396452","long":"113.976542"},{"id":"249DF4A1B287E14F","name":"屯門市中心 (TM975)","lat":"22.391573","long":"113.975564"},{"id":"AF9FE138E3D5D5F0","name":"安定邨 (TM612)","lat":"22.387815","long":"113.975337"},{"id":"1D44677AEFBA8773","name":"兆麟苑 (TM615)","lat":"22.384297","long":"113.975334"},{"id":"18580F35B0A312CF","name":"豐景園 (TM622)","lat":"22.383841","long":"113.972579"},{"id":"0412B5C2C05B00AD","name":"屯門赤鱲角隧道轉車站 (A3)","lat":"22.368636","long":"113.948637"},{"id":"AC0BDA78C106FF7A","name":"東涌消防局","lat":"22.286195","long":"113.941061"},{"id":"277DD90A63454F48","name":"東堤灣畔","lat":"22.287341","long":"113.939308"},{"id":"40AC79F25124280A","name":"赤鱲角南路","lat":"22.291872","long":"113.928410"},{"id":"86F4FDCF2F5D13ED","name":"駿運北路","lat":"22.295006","long":"113.923374"},{"id":"52C7FFE6629F5972","name":"香港空運貨站","lat":"22.297184","long":"113.929972"},{"id":"7211E63DE150A10E","name":"空郵中心","lat":"22.302014","long":"113.931068"},{"id":"AAC64BCDD5B55A86","name":"國泰城","lat":"22.297687","long":"113.933356"},{"id":"A99B6BB7F1628A08","name":"暢連路","lat":"22.310702","long":"113.936563"},{"id":"20AEF0F80E06013D","name":"暢達路(一號客運大樓)(北)","lat":"22.316879","long":"113.935826"}],"routeId":"N30","description":"正常班次"},{"company":"kmb","route":"N30","routeType":"1","dir":"I","orig":"機場(暢達路)","dest":"元朗站","stopList":[{"id":"20AEF0F80E06013D","name":"暢達路(一號客運大樓)(北)","lat":"22.316879","long":"113.935826"},{"id":"86201D4BB45ED201","name":"國泰城","lat":"22.297608","long":"113.932902"},{"id":"5BD8484E82721AF9","name":"機場警署","lat":"22.301843","long":"113.931336"},{"id":"F2DFF3A02940D925","name":"駿運南路","lat":"22.296359","long":"113.928230"},{"id":"F00B9766890B9FD5","name":"機場空運中心","lat":"22.295290","long":"113.925103"},{"id":"A14D4AF63BFAB364","name":"亞洲空運中心","lat":"22.296099","long":"113.920795"},{"id":"1159654D863462B1","name":"赤鱲角南路","lat":"22.292002","long":"113.928405"},{"id":"3AE0CA0446E027D5","name":"東涌纜車站","lat":"22.289206","long":"113.938679"},{"id":"A4B015A5BA35DDF9","name":"富東廣場","lat":"22.288777","long":"113.941995"},{"id":"A033D7537C3E1920","name":"裕東苑","lat":"22.285985","long":"113.941656"},{"id":"80818BFC3FE76A5B","name":"屯門赤鱲角隧道轉車站 (T3)","lat":"22.368998","long":"113.947621"},{"id":"4566E35B3D2C20B5","name":"豐景園 (TM155)","lat":"22.383977","long":"113.972905"},{"id":"5055F6D68F0DD49D","name":"翠寧花園 (TM158)","lat":"22.383893","long":"113.974480"},{"id":"4D02E857ADDE8AAF","name":"友愛邨 (TM163)","lat":"22.387886","long":"113.975114"},{"id":"2BDF4BB3B2E038A2","name":"屯門市廣場 (TM124)","lat":"22.393095","long":"113.976826"},{"id":"B876788F86A8D127","name":"新墟街市 (TM131)","lat":"22.398684","long":"113.976530"},{"id":"D9B82EE66AFF2975","name":"紅橋 (TM134)","lat":"22.402582","long":"113.977175"},{"id":"CEDD8C935E63648C","name":"天水圍站 (YL113)","lat":"22.446518","long":"114.001899"},{"id":"521ACE041201135C","name":"天盛苑 (TN205)","lat":"22.449499","long":"114.002938"},{"id":"DAC9F4035C02B5B2","name":"賞湖居 (TN211)","lat":"22.452473","long":"114.002031"},{"id":"6174C11305616FCA","name":"天水圍公園 (TN221)","lat":"22.454823","long":"114.001892"},{"id":"1C49FFB3352144AC","name":"天瑞邨 (TN222)","lat":"22.456987","long":"113.998854"},{"id":"5498C13EB8685C46","name":"天華邨 (TN224)","lat":"22.460290","long":"113.997108"},{"id":"7C8F479D41B69151","name":"天恩邨 (TN227)","lat":"22.464277","long":"113.997257"},{"id":"213CF009551C7C39","name":"天逸邨逸洋樓 (TN520)","lat":"22.465611","long":"113.999920"},{"id":"5AF9ADB51A9F2C51","name":"香港青年協會李兆基書院 (TN532)","lat":"22.463615","long":"114.004184"},{"id":"CE9312CA8B00024E","name":"美湖居 (TN534)","lat":"22.461038","long":"114.004351"},{"id":"0E63473C95554A20","name":"天慈邨 (TN605)","lat":"22.453013","long":"114.006244"},{"id":"ADD19B88AA8E99DC","name":"鳳池村 (YL141)","lat":"22.446441","long":"114.019456"},{"id":"F6282DDA0B14F96A","name":"水邊圍邨 (YL357)","lat":"22.444541","long":"114.019732"},{"id":"F87A56BD0A2640ED","name":"元朗廣場 (N2) (YL360)","lat":"22.444681","long":"114.023872"},{"id":"D54B0CA58FE5559D","name":"元朗同樂街 (N12) (YL372)","lat":"22.444616","long":"114.028395"},{"id":"3D566753F149907F","name":"谷亭街 (N17) (YL378)","lat":"22.444578","long":"114.030375"},{"id":"F16C067FBC346D71","name":"元朗站 (YL960)","lat":"22.446096","long":"114.034273"}],"routeId":"N30","description":"正常班次"}]