[{"company":"nlb","route":"N37","routeType":null,"dir":null,"orig":"迎東邨","dest":"東涌站巴士總站 (循環線)","stopList":[{"id":"297","name":"迎東邨","lat":"22.297104","long":"113.953342","street":"迎東邨","fare":"5.4","fareHoliday":"5.4"},{"id":"191","name":"昇薈(南行)","lat":"22.295835","long":"113.952077","street":"迎東路","fare":"5.4","fareHoliday":"5.4"},{"id":"298","name":"映灣園二期","lat":"22.291932","long":"113.950490","street":"文東路","fare":"5.4","fareHoliday":"5.4"},{"id":"111","name":"怡東路","lat":"22.290949","long":"113.948012","street":"文東路","fare":"5.4","fareHoliday":"5.4"},{"id":"112","name":"怡文中學","lat":"22.290850","long":"113.944611","street":"文東路","fare":"5.4","fareHoliday":"5.4"},{"id":"299","name":"海堤灣畔","lat":"22.293039","long":"113.943179","street":"惠東路","fare":"5.4","fareHoliday":"5.4"},{"id":"78","name":"東涌纜車站","lat":"22.289301","long":"113.938733","street":"達東路","fare":"5.4","fareHoliday":"5.4"},{"id":"105","name":"東涌港鐵站","lat":"22.289613","long":"113.940210","street":"達東路","fare":"5.4","fareHoliday":"5.4"},{"id":"107","name":"海堤灣畔","lat":"22.292925","long":"113.943471","street":"惠東路","fare":"5.4","fareHoliday":"5.4"},{"id":"108","name":"藍天海岸","lat":"22.290942","long":"113.945931","street":"文東路","fare":"5.4","fareHoliday":"5.4"},{"id":"186","name":"映灣園三期","lat":"22.291424","long":"113.948975","street":"文東路","fare":"5.4","fareHoliday":"5.4"},{"id":"109","name":"映灣園二期","lat":"22.291882","long":"113.950010","street":"文東路","fare":"5.4","fareHoliday":"5.4"},{"id":"194","name":"映灣園一期","lat":"22.293495","long":"113.951816","street":"文東路","fare":"5.4","fareHoliday":"5.4"},{"id":"190","name":"昇薈(北行)","lat":"22.295823","long":"113.951907","street":"迎東路","fare":"5.4","fareHoliday":"5.4"},{"id":"193","name":"迎東邨","lat":"22.297104","long":"113.953342","street":"迎東邨","fare":"0.0","fareHoliday":"0.0"}],"routeId":"86","description":"正常班次"}]