[{"company":"nlb","route":"N38","routeType":null,"dir":null,"orig":"逸東邨","dest":"東涌站巴士總站","stopList":[{"id":"289","name":"逸東邨","lat":"22.282053","long":"113.935862","street":"逸東街","fare":"5.4","fareHoliday":"5.4"},{"id":"76","name":"北大嶼山醫院(南行)","lat":"22.281861","long":"113.938803","street":"松仁路","fare":"5.4","fareHoliday":"5.4"},{"id":"77","name":"東涌消防局","lat":"22.286030","long":"113.941057","street":"順東路","fare":"5.4","fareHoliday":"5.4"},{"id":"78","name":"東涌纜車站","lat":"22.289301","long":"113.938733","street":"達東路","fare":"5.4","fareHoliday":"5.4"},{"id":"105","name":"東涌港鐵站","lat":"22.289613","long":"113.940210","street":"達東路","fare":"0.0","fareHoliday":"0.0"}],"routeId":"44","description":"正常班次"},{"company":"nlb","route":"N38","routeType":null,"dir":null,"orig":"東涌站巴士總站","dest":"逸東邨","stopList":[{"id":"105","name":"東涌港鐵站","lat":"22.289613","long":"113.940210","street":"達東路","fare":"5.4","fareHoliday":"5.4"},{"id":"81","name":"裕東苑","lat":"22.286077","long":"113.941603","street":"順東路","fare":"5.4","fareHoliday":"5.4"},{"id":"185","name":"北大嶼山醫院(北行), 逸東邨美逸樓","lat":"22.281295","long":"113.938822","street":"松仁路","fare":"5.4","fareHoliday":"5.4"},{"id":"88","name":"逸東邨居逸樓","lat":"22.282369","long":"113.936576","street":"逸東街","fare":"5.4","fareHoliday":"5.4"},{"id":"89","name":"逸東邨","lat":"22.282053","long":"113.935862","street":"逸東街","fare":"0.0","fareHoliday":"0.0"}],"routeId":"45","description":"正常班次"}]