[{"company":"kmb","route":"N39","routeType":"1","dir":"O","orig":"荃灣站","dest":"荃威花園(循環線)","stopList":[{"id":"0653C07D043A0E97","name":"荃灣站巴士總站","lat":"22.373948","long":"114.116140"},{"id":"D711AFA9658D51E9","name":"荃灣富華街","lat":"22.373486","long":"114.115860"},{"id":"3F545756160D7BEA","name":"福來邨永康樓","lat":"22.374433","long":"114.113771"},{"id":"50C0A622B149C308","name":"美環街","lat":"22.376345","long":"114.110501"},{"id":"A73739F6D37090EE","name":"荃景花園","lat":"22.378110","long":"114.109520"},{"id":"07814531B88CD829","name":"荃灣中心","lat":"22.378635","long":"114.108257"},{"id":"A722DAAC99CE03D4","name":"聖母領報堂","lat":"22.377067","long":"114.105443"},{"id":"5FD70A34C55CE590","name":"荃灣港安醫院","lat":"22.376212","long":"114.104470"},{"id":"B97161BE6BCBD04D","name":"荃威花園總站","lat":"22.377306","long":"114.103928"},{"id":"FE30EA565CC9ADBE","name":"荃景圍街巿","lat":"22.378755","long":"114.104288"},{"id":"D1CAF0CE0129B0E6","name":"荃灣中心","lat":"22.378619","long":"114.107064"},{"id":"CF2B9E9382183398","name":"荃景花園第二期","lat":"22.377698","long":"114.110250"},{"id":"C5C940CF1281B923","name":"美環街","lat":"22.376370","long":"114.110711"},{"id":"9429666D064419BE","name":"愉景新城","lat":"22.375047","long":"114.112821"},{"id":"0653C07D043A0E97","name":"荃灣站巴士總站","lat":"22.373948","long":"114.116140"}],"routeId":"N39","description":"正常班次"}]