[{"company":"kmb","route":"N43","routeType":"1","dir":"O","orig":"荃灣站","dest":"青衣(長宏邨)","stopList":[{"id":"520D0D5DB7FAB41C","name":"荃灣站巴士總站 (TW911)","lat":"22.373894","long":"114.116248"},{"id":"92A8281D80524F78","name":"荃灣大河道 (TW290)","lat":"22.371910","long":"114.115970"},{"id":"CDEB07C7C0841D5B","name":"戴麟趾夫人診所 (TW552)","lat":"22.370549","long":"114.115365"},{"id":"F9F75324B8F1D7E3","name":"荃灣鹹田街 (TW559)","lat":"22.369419","long":"114.117462"},{"id":"FE90421D0B82E691","name":"名逸居 (TW565)","lat":"22.367635","long":"114.120784"},{"id":"F9F4E00007242BED","name":"青衣轉車站 - 長安總站 (A7)","lat":"22.361381","long":"114.103025"},{"id":"4E870B220826BEE0","name":"楓樹窩體育館 (TY211)","lat":"22.355604","long":"114.102353"},{"id":"5AD2A4D21C226335","name":"青衣邨宜業樓 (TY212)","lat":"22.354345","long":"114.102443"},{"id":"A454170B2B59B587","name":"綠悠雅苑 (TY215)","lat":"22.352641","long":"114.105149"},{"id":"D6E7412666B1175B","name":"翠怡花園 (TY242)","lat":"22.351712","long":"114.107879"},{"id":"21A1859E80CD542A","name":"青衣工業中心 (TY244)","lat":"22.349963","long":"114.109196"},{"id":"6DF1AF2871D4B7D9","name":"長青邨青桃樓 (TY101)","lat":"22.344820","long":"114.109832"},{"id":"196A1E44C305C174","name":"美景花園 (TY111)","lat":"22.344755","long":"114.107760"},{"id":"BDE0F1679E1C8ABF","name":"長青巴士總站 (TY113)","lat":"22.348267","long":"114.105463"},{"id":"13458794A52910B0","name":"青盛苑 (TY115)","lat":"22.348861","long":"114.103381"},{"id":"3F13933D0157CFCF","name":"青華苑 (TY117)","lat":"22.349501","long":"114.099478"},{"id":"A2BE47AFF20CD4F6","name":"曉峰園 (TY130)","lat":"22.353940","long":"114.097467"},{"id":"CC6B75E6D60B4C57","name":"長亨邨停車場 (TY131)","lat":"22.355984","long":"114.097366"},{"id":"79842A7E2FC0844F","name":"長宏巴士總站 (TY981)","lat":"22.357376","long":"114.096235"}],"routeId":"N43","description":"正常班次"}]