[{"company":"gmb","route":"N4C","routeType":1,"orig":"香港仔(石排灣)","dest":"銅鑼灣(景隆街)","stopList":[{"id":20011318,"name":"石排灣邨公共運輸交匯處","lat":22.249805168312875,"long":114.15738252063221},{"id":20011237,"name":"南寧街,海晶閣外","lat":22.24893017271479,"long":114.15387958288194},{"id":20009832,"name":"香港仔大道178號","lat":22.248994718013126,"long":114.15568470954896},{"id":20011613,"name":"黃竹坑道23號","lat":22.24856400170924,"long":114.16351407766345},{"id":20000240,"name":"黃竹坑道 49號","lat":22.249367280637806,"long":114.16770676428112},{"id":20011476,"name":"黃竹坑道, 近香港仔隧道巴士站","lat":22.24994215289587,"long":114.17548723298324},{"id":20011246,"name":"駱克道,銅鑼灣廣場一期外","lat":22.280479345323673,"long":114.18261408805849},{"id":20011350,"name":"景隆街,近總統戲院","lat":22.281466302732174,"long":114.18354976626293}],"routeId":2004089,"description":"通宵服務"},{"company":"gmb","route":"N4C","routeType":2,"orig":"銅鑼灣(景隆街)","dest":"香港仔(石排灣)","stopList":[{"id":20011350,"name":"景隆街, 近總統戲院","lat":22.281466302732174,"long":114.18354976626293},{"id":20011479,"name":"黃竹坑道40號","lat":22.248383322587486,"long":114.1662482743835},{"id":20000361,"name":"香港仔海傍道, 逸港居外","lat":22.24756948944506,"long":114.15931550542977},{"id":20000169,"name":"香港仔海傍道, 香港仔海濱公園外","lat":22.246954996200248,"long":114.15587173771375},{"id":20011481,"name":"西安街12號對面","lat":22.248847794008388,"long":114.15490057154788},{"id":20011318,"name":"石排灣邨公共運輸交匯處","lat":22.249805168312875,"long":114.15738252063221}],"routeId":2004089,"description":"通宵服務"}]