[{"company":"ctb","route":"N601","routeType":null,"dir":"O","orig":"金鐘 (東)","dest":"寶達邨","stopList":[{"id":"001138","name":"金鐘 - 港鐵 D 出口","lat":"22.278641","long":"114.165635"},{"id":"002430","name":"盧押道, 軒尼詩道","lat":"22.277681","long":"114.170998"},{"id":"002432","name":"菲林明道, 軒尼詩道","lat":"22.277753","long":"114.173695"},{"id":"002434","name":"史釗域道, 軒尼詩道","lat":"22.278010","long":"114.176171"},{"id":"002435","name":"杜老誌道, 軒尼詩道","lat":"22.278721","long":"114.179097"},{"id":"002437","name":"灣仔消防局, 軒尼詩道","lat":"22.279687","long":"114.181788"},{"id":"002555","name":"銅鑼灣 - 百德新街, 怡和街","lat":"22.279935","long":"114.185585"},{"id":"001213","name":"維多利亞公園, 高士威道","lat":"22.281133","long":"114.190066"},{"id":"001259","name":"銀幕街, 英皇道","lat":"22.283616","long":"114.192460"},{"id":"001260","name":"七海商業中心, 英皇道","lat":"22.287743","long":"114.192966"},{"id":"001261","name":"電廠街, 英皇道","lat":"22.290057","long":"114.195058"},{"id":"001263","name":"書局街, 英皇道","lat":"22.291181","long":"114.199901"},{"id":"001264","name":"港運城, 英皇道","lat":"22.291704","long":"114.202490"},{"id":"001464","name":"東區海底隧道巴士轉乘站","lat":"22.301112","long":"114.233206"},{"id":"001522","name":"藍田站, 鯉魚門道","lat":"22.305529","long":"114.234133"},{"id":"001521","name":"觀塘法院, 鯉魚門道","lat":"22.309748","long":"114.229877"},{"id":"001493","name":"觀塘站, 觀塘道","lat":"22.311151","long":"114.227695"},{"id":"003041","name":"和樂邨, 協和街","lat":"22.316060","long":"114.226095"},{"id":"003042","name":"秀雅道遊樂場, 曉光街","lat":"22.320338","long":"114.228121"},{"id":"003043","name":"曉麗苑, 曉光街","lat":"22.318954","long":"114.229618"},{"id":"003044","name":"曉光街遊樂場, 曉光街","lat":"22.316995","long":"114.231578"},{"id":"003045","name":"梁式芝書院, 曉光街","lat":"22.314868","long":"114.233751"},{"id":"001719","name":"秀茂坪邨秀明樓, 秀明道","lat":"22.315965","long":"114.233910"},{"id":"001720","name":"秀茂坪邨秀富樓, 秀明道","lat":"22.317069","long":"114.232257"},{"id":"002702","name":"秀茂坪商場, 秀明道","lat":"22.319076","long":"114.231367"},{"id":"001721","name":"秀茂坪邨秀樂樓, 秀明道","lat":"22.321487","long":"114.230640"},{"id":"003071","name":"秀茂坪邨秀康樓, 秀茂坪道","lat":"22.322802","long":"114.230861"},{"id":"003072","name":"秀茂坪邨秀程樓, 秀茂坪道","lat":"22.319879","long":"114.233598"},{"id":"003068","name":"寶達邨-巴士總站","lat":"22.317747","long":"114.236135"}],"routeId":"N601","description":"正常班次"}]