[{"company":"kmb","route":"N601","routeType":"1","dir":"O","orig":"金鐘站(東)","dest":"寶達","stopList":[{"id":"E30B8672A91A50B9","name":"金鐘(東)總站","lat":"22.278511","long":"114.165291"},{"id":"E74202351AF7F37D","name":"盧押道","lat":"22.277724","long":"114.170967"},{"id":"9DA98A5E3914E2E3","name":"菲林明道","lat":"22.277777","long":"114.173578"},{"id":"92C62E07455F7C6C","name":"史釗域道","lat":"22.278050","long":"114.175951"},{"id":"1FFFFBAE28F48D03","name":"杜老誌道","lat":"22.278593","long":"114.178606"},{"id":"CCBCD7F613287BC8","name":"灣仔消防局","lat":"22.279763","long":"114.181907"},{"id":"B4372FB3544677BB","name":"百德新街","lat":"22.280063","long":"114.185296"},{"id":"913E96996F3B7E3A","name":"維多利亞公園","lat":"22.281113","long":"114.190019"},{"id":"328C9939240A94CA","name":"銀幕街","lat":"22.283631","long":"114.192440"},{"id":"58C47FBFFF12E65F","name":"七海商業中心","lat":"22.287726","long":"114.192958"},{"id":"4AEB8A22E18AB111","name":"電廠街","lat":"22.290036","long":"114.195070"},{"id":"AE4423E551C360BF","name":"書局街","lat":"22.291228","long":"114.199938"},{"id":"9DE043DB23CEDAA8","name":"港運城","lat":"22.291706","long":"114.202365"},{"id":"D678B3364437D16B","name":"東隧轉車站 (L1) (LT101)","lat":"22.301070","long":"114.232925"},{"id":"2EF9764BE18FC290","name":"藍田站 (LT607)","lat":"22.305354","long":"114.234128"},{"id":"F1A90CEE2B8C40CC","name":"觀塘法院 (F2) (KT611)","lat":"22.309991","long":"114.229553"},{"id":"CB341BEEABF66D6E","name":"觀塘站 (E3) (KT620)","lat":"22.311151","long":"114.227669"},{"id":"6530130BE25E909C","name":"和樂邨 (KT255)","lat":"22.316432","long":"114.226177"},{"id":"D3FEF85E4DAEEE4E","name":"秀雅道遊樂場 (KT285)","lat":"22.320222","long":"114.228251"},{"id":"C3201264CC8E5C5D","name":"曉麗苑 (KT286)","lat":"22.319078","long":"114.229349"},{"id":"C8830886D41FB5FA","name":"曉光街遊樂場 (KT287)","lat":"22.317021","long":"114.231554"},{"id":"D9ABBD996944C4D3","name":"梁式芝書院 (KT288)","lat":"22.314896","long":"114.233811"},{"id":"D17050E8964504BB","name":"秀明樓 (KT519)","lat":"22.315934","long":"114.233922"},{"id":"04DDF4F7F1C74876","name":"秀富樓 (KT520)","lat":"22.317096","long":"114.232170"},{"id":"BF08F9C08BB54A2B","name":"秀茂坪商場 (KT522)","lat":"22.319131","long":"114.231266"},{"id":"5FF5FCFD1121F033","name":"秀樂樓 (KT525)","lat":"22.321718","long":"114.230419"},{"id":"B809C24DC8C87767","name":"秀康樓 (KT297)","lat":"22.323111","long":"114.230621"},{"id":"3BA4DBB4520188DF","name":"秀程樓 (KT298)","lat":"22.320010","long":"114.233479"},{"id":"FA5C305D16B299A5","name":"寶達巴士總站 (KT967)","lat":"22.317629","long":"114.236099"}],"routeId":"N601","description":"正常班次"}]