[{"company":"ctb","route":"N601","routeType":null,"dir":"O","orig":"金鐘 (東)","dest":"寶達邨","stopList":[{"id":"001138","name":"金鐘站","lat":"22.278641252091","long":"114.16563501053"},{"id":"002430","name":"盧押道, 軒尼詩道","lat":"22.277681222091","long":"114.17099800053"},{"id":"002432","name":"菲林明道, 軒尼詩道","lat":"22.277753192091","long":"114.17369502053"},{"id":"002434","name":"史釗域道, 軒尼詩道","lat":"22.278009642091","long":"114.17617122053"},{"id":"002435","name":"杜老誌道, 軒尼詩道","lat":"22.278720922091","long":"114.17909682053"},{"id":"002437","name":"灣仔消防局, 軒尼詩道","lat":"22.279686862091","long":"114.18178779053"},{"id":"002555","name":"百德新街, 怡和街","lat":"22.279935442091","long":"114.18558549053"},{"id":"001213","name":"維多利亞公園, 高士威道","lat":"22.281133262091","long":"114.19006592053"},{"id":"001259","name":"銀幕街, 英皇道","lat":"22.283615512091","long":"114.19246041053"},{"id":"001260","name":"七海商業中心, 英皇道","lat":"22.287742812091","long":"114.19296558053"},{"id":"001261","name":"電廠街, 英皇道","lat":"22.290056622091","long":"114.19505769053"},{"id":"001263","name":"新光戲院, 英皇道","lat":"22.291180532091","long":"114.19990139053"},{"id":"001264","name":"港運城, 英皇道","lat":"22.291703622091","long":"114.20248986053"},{"id":"001464","name":"東區海底隧道巴士轉乘站","lat":"22.301175862091","long":"114.23338190053"},{"id":"001522","name":"藍田站, 鯉魚門道","lat":"22.305529462091","long":"114.23413329053"},{"id":"001521","name":"觀塘法院, 鯉魚門道","lat":"22.309748242091","long":"114.22987703053"},{"id":"001493","name":"觀塘站, 觀塘道","lat":"22.311150572091","long":"114.22769503053"},{"id":"003041","name":"和樂邨, 協和街","lat":"22.316059982091","long":"114.22609520053"},{"id":"003042","name":"秀雅道遊樂場, 曉光街","lat":"22.320338022091","long":"114.22812130053"},{"id":"003043","name":"曉麗苑, 曉光街","lat":"22.318953952091","long":"114.22961770053"},{"id":"003044","name":"曉光街遊樂場, 曉光街","lat":"22.316994862091","long":"114.23157810053"},{"id":"003045","name":"梁式芝書院, 曉光街","lat":"22.314867892091","long":"114.23375064053"},{"id":"001719","name":"秀茂坪邨秀明樓, 秀明道","lat":"22.315965132091","long":"114.23391033053"},{"id":"001720","name":"秀茂坪邨秀富樓, 秀明道","lat":"22.317068912091","long":"114.23225729053"},{"id":"002702","name":"秀茂坪商場, 秀明道","lat":"22.319075912091","long":"114.23136657053"},{"id":"001721","name":"秀茂坪邨秀樂樓, 秀明道","lat":"22.321487362091","long":"114.23064016053"},{"id":"003071","name":"秀茂坪邨秀康樓, 秀茂坪道","lat":"22.322801922091","long":"114.23086127053"},{"id":"003072","name":"秀茂坪邨秀程樓, 秀茂坪道","lat":"22.319879292091","long":"114.23359818053"},{"id":"003068","name":"寶達邨","lat":"22.317747462091","long":"114.23613488053"}],"routeId":"N601","description":"正常班次"}]