[{"company":"kmb","route":"N680","routeType":"1","dir":"O","orig":"錦英苑","dest":"中環(港澳碼頭)","stopList":[{"id":"4D8E5172E1C1EAF5","name":"錦英苑巴士總站 (MA961)","lat":"22.423592","long":"114.237166"},{"id":"D156C558FF163BE3","name":"錦龍苑 (MA196)","lat":"22.426073","long":"114.239403"},{"id":"013F884CBCB1CBE4","name":"富寶花園 (MA303)","lat":"22.425459","long":"114.235563"},{"id":"BA6D9F93E62B8075","name":"馬鞍山市中心總站 (MA954)","lat":"22.424406","long":"114.231554"},{"id":"028E0B68D3166C00","name":"福安花園 (MA312)","lat":"22.423273","long":"114.228508"},{"id":"1D6A8B8C58C268FF","name":"馬鞍山運動場 (MA371)","lat":"22.422151","long":"114.228420"},{"id":"F86BDB236D6ACDC3","name":"耀安邨耀謙樓 (MA379)","lat":"22.418124","long":"114.230662"},{"id":"664BAA2EA12B80B1","name":"錦駿苑 (MA186)","lat":"22.413265","long":"114.226888"},{"id":"30553FA19D045D25","name":"富安花園 (MA392)","lat":"22.407330","long":"114.222794"},{"id":"4A3D71FFAB41B756","name":"亞公角 (MA401)","lat":"22.402012","long":"114.215473"},{"id":"A78292AA77A277A7","name":"沙田醫院 (MA403)","lat":"22.398890","long":"114.212419"},{"id":"578C11F0F4197509","name":"石門轉車站-新界鄉議局大樓","lat":"22.391450","long":"114.206460"},{"id":"A295FD27A4E5A7C5","name":"小瀝源草地滾球場 (ST530)","lat":"22.388524","long":"114.203828"},{"id":"C43782B93826F4CD","name":"小瀝源路遊樂場 (ST532)","lat":"22.386434","long":"114.206225"},{"id":"2223D64E9ED2E1A7","name":"帝逸酒店 (ST534)","lat":"22.383874","long":"114.209102"},{"id":"FFBEBD7068E01EA4","name":"大老山隧道 (A1) (ST792)","lat":"22.377571","long":"114.212260"},{"id":"9535298A652873DB","name":"東隧轉車站 (LT411)","lat":"22.300285","long":"114.233264"},{"id":"B71025EB663E736F","name":"港運城","lat":"22.291395","long":"114.202081"},{"id":"BA85309F7551F553","name":"新都城大廈","lat":"22.290833","long":"114.199274"},{"id":"F8365ACAC0B85C65","name":"長康街","lat":"22.290172","long":"114.196075"},{"id":"3F3DBD185AC10BBE","name":"炮台山站","lat":"22.288182","long":"114.193624"},{"id":"29BF740504C5EEB6","name":"清風街","lat":"22.284865","long":"114.193037"},{"id":"284DE8206A13DF9B","name":"中央圖書館","lat":"22.280263","long":"114.189257"},{"id":"FD0217E6CBC7AB9F","name":"希慎廣場","lat":"22.279960","long":"114.183396"},{"id":"605D6334917DC2E4","name":"天樂里","lat":"22.279109","long":"114.180898"},{"id":"265B143AC892EE78","name":"北海中心","lat":"22.278332","long":"114.178530"},{"id":"B65DB5330193E38E","name":"軒尼詩道官立小學","lat":"22.277752","long":"114.175652"},{"id":"A0424645102B1D9C","name":"修頓球場","lat":"22.277389","long":"114.172021"},{"id":"E532860B16A18F3C","name":"循道衛理大廈","lat":"22.277550","long":"114.169949"},{"id":"082B6C57881C35D6","name":"太古廣場","lat":"22.278022","long":"114.164963"},{"id":"B1DE024B06DE2EC7","name":"中銀大廈","lat":"22.279474","long":"114.162208"},{"id":"EC2573EE5FF42AAC","name":"滙豐總行","lat":"22.280726","long":"114.159172"},{"id":"74EE2ECB1A3773E9","name":"利源東街","lat":"22.283072","long":"114.156844"},{"id":"C0B3CCF700EDA89C","name":"中環街市","lat":"22.284818","long":"114.155374"},{"id":"B4962A215D3DFA65","name":"永吉街","lat":"22.285455","long":"114.154437"},{"id":"7D54A8E5B99740BE","name":"中環(港澳碼頭)","lat":"22.288584","long":"114.150285"}],"routeId":"N680","description":"正常班次"},{"company":"kmb","route":"N680","routeType":"1","dir":"I","orig":"中環(港澳碼頭)","dest":"錦英苑","stopList":[{"id":"7D54A8E5B99740BE","name":"中環(港澳碼頭)","lat":"22.288584","long":"114.150285"},{"id":"A7F67878C66E1A1C","name":"港澳碼頭","lat":"22.287724","long":"114.151555"},{"id":"2DF5E48438A56E56","name":"林士街","lat":"22.286162","long":"114.153634"},{"id":"AD2AE1E443FB8908","name":"恒生銀行總行","lat":"22.284463","long":"114.155914"},{"id":"C0B0B597A9C896F7","name":"皇后像廣場","lat":"22.280784","long":"114.159628"},{"id":"83D17F49F5F5B5F1","name":"遮打花園","lat":"22.280085","long":"114.160819"},{"id":"B7EE8C907E1E50C0","name":"金鐘站","lat":"22.278437","long":"114.164445"},{"id":"60012869923EEE68","name":"軍器廠街","lat":"22.277821","long":"114.169460"},{"id":"1B5E6822783B914B","name":"柯布連道","lat":"22.277689","long":"114.172687"},{"id":"36904A9AD2C13B32","name":"史釗域道","lat":"22.278242","long":"114.177343"},{"id":"CCBCD7F613287BC8","name":"灣仔消防局","lat":"22.279763","long":"114.181907"},{"id":"B4372FB3544677BB","name":"百德新街","lat":"22.280063","long":"114.185296"},{"id":"913E96996F3B7E3A","name":"維多利亞公園","lat":"22.281113","long":"114.190019"},{"id":"328C9939240A94CA","name":"銀幕街","lat":"22.283631","long":"114.192440"},{"id":"58C47FBFFF12E65F","name":"七海商業中心","lat":"22.287726","long":"114.192958"},{"id":"4AEB8A22E18AB111","name":"電廠街","lat":"22.290036","long":"114.195070"},{"id":"AE4423E551C360BF","name":"書局街","lat":"22.291228","long":"114.199938"},{"id":"9DE043DB23CEDAA8","name":"港運城","lat":"22.291706","long":"114.202365"},{"id":"991E47DBD416B908","name":"東隧轉車站 (LT100)","lat":"22.300972","long":"114.232741"},{"id":"C57C924EEB5463E5","name":"大老山隧道 (B2) (ST112)","lat":"22.376800","long":"114.211883"},{"id":"02CF8D1FE31E9A09","name":"帝逸酒店 (ST606)","lat":"22.383660","long":"114.208940"},{"id":"B8E228521E55C7C5","name":"第一城寶城街 (ST607)","lat":"22.386360","long":"114.205960"},{"id":"40829C12642639D4","name":"石門轉車站 - 濱景花園 (ST147)","lat":"22.391590","long":"114.206164"},{"id":"16A7F2C343AA6DE6","name":"沙田醫院 (MA100)","lat":"22.399870","long":"114.213035"},{"id":"4B0E21EDF07F9C83","name":"亞公角 (MA103)","lat":"22.402759","long":"114.216742"},{"id":"1CF4AE2F7045B848","name":"富安花園 (MA108)","lat":"22.406232","long":"114.221917"},{"id":"E27820FF0AF73D52","name":"錦駿苑 (MA110)","lat":"22.411915","long":"114.224178"},{"id":"6F5592E4FF8A35E8","name":"耀安邨 (MA125)","lat":"22.419624","long":"114.229192"},{"id":"5E073AD8BC9F2AC8","name":"馬鞍山運動場 (MA127)","lat":"22.421847","long":"114.228372"},{"id":"B31E6B9D8E5B4493","name":"福安花園 (MA155)","lat":"22.423627","long":"114.228332"},{"id":"46D02E1C1CD82C9A","name":"海栢花園 (MA159)","lat":"22.425032","long":"114.231520"},{"id":"0E2175C0750054FE","name":"雅典居 (MA162)","lat":"22.426028","long":"114.236373"},{"id":"6BD93B827893E41E","name":"錦龍苑 (MA331)","lat":"22.425830","long":"114.239819"},{"id":"4D8E5172E1C1EAF5","name":"錦英苑巴士總站 (MA961)","lat":"22.423592","long":"114.237166"}],"routeId":"N680","description":"正常班次"},{"company":"ctb","route":"N680","routeType":null,"dir":"I","orig":"馬鞍山 (錦英苑)","dest":"中環 (港澳碼頭)","stopList":[{"id":"003090","name":"錦英苑","lat":"22.423629","long":"114.237369"},{"id":"003091","name":"錦龍苑, 錦英路","lat":"22.425999","long":"114.239457"},{"id":"003092","name":"富寶花園, 西沙路","lat":"22.425542","long":"114.235583"},{"id":"001950","name":"馬鞍山市中心","lat":"22.424135","long":"114.231693"},{"id":"003093","name":"福安花園, 西沙路","lat":"22.423224","long":"114.228472"},{"id":"001914","name":"馬鞍山運動場, 恆康街","lat":"22.421916","long":"114.228729"},{"id":"001915","name":"耀安邨耀謙樓, 恆康街","lat":"22.418047","long":"114.230700"},{"id":"003851","name":"錦駿苑, 馬鞍山路","lat":"22.413317","long":"114.226882"},{"id":"003078","name":"富安花園, 恆德街","lat":"22.407221","long":"114.222733"},{"id":"002028","name":"亞公角, 亞公角街","lat":"22.402005","long":"114.215507"},{"id":"002029","name":"沙田醫院, 亞公角街","lat":"22.398613","long":"114.212160"},{"id":"003079","name":"新界鄉議局大樓, 大涌橋路","lat":"22.391432","long":"114.206318"},{"id":"003080","name":"小瀝源路草地滾球場, 小瀝源路","lat":"22.388647","long":"114.203691"},{"id":"003081","name":"小瀝源路遊樂場, 小瀝源路","lat":"22.386322","long":"114.206250"},{"id":"003082","name":"歷奇單車場, 小瀝源路","lat":"22.383865","long":"114.208986"},{"id":"001986","name":"大老山隧道巴士轉乘站","lat":"22.377149","long":"114.212566"},{"id":"001463","name":"東區海底隧道巴士轉乘站","lat":"22.300498","long":"114.233513"},{"id":"001278","name":"港運城, 英皇道","lat":"22.291506","long":"114.202413"},{"id":"001280","name":"新都城大廈, 英皇道","lat":"22.290877","long":"114.199380"},{"id":"001364","name":"長康街, 英皇道","lat":"22.290177","long":"114.195946"},{"id":"001283","name":"炮台山站, 英皇道","lat":"22.288147","long":"114.193555"},{"id":"001286","name":"清風街, 英皇道","lat":"22.284714","long":"114.192917"},{"id":"001215","name":"香港中央圖書館, 高士威道","lat":"22.280082","long":"114.188878"},{"id":"002439","name":"銅鑼灣 - 希慎廣場, 軒尼詩道","lat":"22.280000","long":"114.183359"},{"id":"002441","name":"天樂里, 軒尼詩道","lat":"22.278926","long":"114.180298"},{"id":"002442","name":"北海中心, 軒尼詩道","lat":"22.278328","long":"114.178455"},{"id":"002444","name":"軒尼詩道官立小學, 軒尼詩道","lat":"22.277745","long":"114.175435"},{"id":"002446","name":"修頓球場, 軒尼詩道","lat":"22.277433","long":"114.171879"},{"id":"002448","name":"循道衛理大廈, 軒尼詩道","lat":"22.277588","long":"114.169814"},{"id":"001140","name":"金鐘 - 太古廣場, 金鐘道","lat":"22.278071","long":"114.164867"},{"id":"001142","name":"中銀大廈, 金鐘道","lat":"22.279480","long":"114.162144"},{"id":"001053","name":"滙豐總行大廈, 德輔道中","lat":"22.280739","long":"114.159050"},{"id":"001055","name":"利源東街, 德輔道中","lat":"22.283055","long":"114.156865"},{"id":"001056","name":"中環街市, 德輔道中","lat":"22.284855","long":"114.155394"},{"id":"001057","name":"永吉街, 德輔道中","lat":"22.285680","long":"114.154107"},{"id":"001027","name":"中環 (港澳碼頭)","lat":"22.288274","long":"114.150422"}],"routeId":"N680","description":"正常班次"},{"company":"ctb","route":"N680","routeType":null,"dir":"O","orig":"中環 (港澳碼頭)","dest":"馬鞍山 (錦英苑)","stopList":[{"id":"001027","name":"中環 (港澳碼頭)","lat":"22.288274","long":"114.150422"},{"id":"001028","name":"港澳碼頭, 干諾道中","lat":"22.287715","long":"114.151337"},{"id":"001044","name":"林士街, 德輔道中","lat":"22.286050","long":"114.153728"},{"id":"001173","name":"恒生銀行總行大廈, 德輔道中","lat":"22.284360","long":"114.155968"},{"id":"001051","name":"皇后像廣場, 德輔道中","lat":"22.280749","long":"114.159644"},{"id":"001052","name":"遮打花園, 德輔道中","lat":"22.280109","long":"114.160646"},{"id":"001137","name":"金鐘 - 統一中心, 金鐘道","lat":"22.278349","long":"114.164939"},{"id":"002427","name":"軍器廠街, 軒尼詩道","lat":"22.277849","long":"114.168945"},{"id":"002431","name":"柯布連道, 軒尼詩道","lat":"22.277694","long":"114.173130"},{"id":"002572","name":"史釗域道, 軒尼詩道","lat":"22.278204","long":"114.177342"},{"id":"002437","name":"灣仔消防局, 軒尼詩道","lat":"22.279687","long":"114.181788"},{"id":"002555","name":"銅鑼灣 - 百德新街, 怡和街","lat":"22.279935","long":"114.185585"},{"id":"001213","name":"維多利亞公園, 高士威道","lat":"22.281133","long":"114.190066"},{"id":"001259","name":"銀幕街, 英皇道","lat":"22.283616","long":"114.192460"},{"id":"001260","name":"七海商業中心, 英皇道","lat":"22.287743","long":"114.192966"},{"id":"001261","name":"電廠街, 英皇道","lat":"22.290057","long":"114.195058"},{"id":"001263","name":"書局街, 英皇道","lat":"22.291181","long":"114.199901"},{"id":"001264","name":"港運城, 英皇道","lat":"22.291704","long":"114.202490"},{"id":"001464","name":"東區海底隧道巴士轉乘站","lat":"22.301112","long":"114.233206"},{"id":"001985","name":"大老山隧道巴士轉乘站","lat":"22.376911","long":"114.211789"},{"id":"003084","name":"源康街, 小瀝源路","lat":"22.383673","long":"114.208887"},{"id":"003085","name":"沙田第一城第 27 座, 小瀝源路","lat":"22.386287","long":"114.205967"},{"id":"003086","name":"濱景花園, 大涌橋路","lat":"22.391635","long":"114.206229"},{"id":"002064","name":"沙田醫院, 亞公角街","lat":"22.399761","long":"114.212936"},{"id":"002065","name":"亞公角, 亞公角街","lat":"22.402644","long":"114.216526"},{"id":"002066","name":"富安花園, 亞公角街","lat":"22.406139","long":"114.221857"},{"id":"003850","name":"錦駿苑, 馬鞍山路","lat":"22.411839","long":"114.224100"},{"id":"001916","name":"耀安邨, 恆康街","lat":"22.419497","long":"114.229150"},{"id":"001917","name":"馬鞍山運動場, 恆康街","lat":"22.421804","long":"114.228505"},{"id":"001949","name":"福安花園, 西沙路","lat":"22.423505","long":"114.228216"},{"id":"003087","name":"海柏花園, 西沙路","lat":"22.424954","long":"114.231396"},{"id":"003094","name":"雅典居, 西沙路","lat":"22.425906","long":"114.236413"},{"id":"003083","name":"錦龍苑, 錦英路","lat":"22.425983","long":"114.239683"},{"id":"003090","name":"錦英苑","lat":"22.423629","long":"114.237369"}],"routeId":"N680","description":"正常班次"}]