[{"company":"gmb","route":"N69X","routeType":1,"orig":"數碼港","dest":"銅鑼灣(駱克道)","stopList":[{"id":20003337,"name":"數碼港公共運輸交匯處","lat":22.261913456129104,"long":114.13014951276878},{"id":20007719,"name":"數碼港道, 資訊道","lat":22.260957427048748,"long":114.13142144680025},{"id":20002491,"name":"數碼港道,數碼港3座對面","lat":22.259855137241153,"long":114.1325465536851},{"id":20002492,"name":"數碼港道,貝沙灣1期對面","lat":22.25667641368813,"long":114.13279979594871},{"id":20004115,"name":"數碼港道,貝沙灣南灣","lat":22.254735047769753,"long":114.13364443373167},{"id":20000177,"name":"華景街,華翠樓外巴士總站","lat":22.254058483197042,"long":114.13650657100926},{"id":20000369,"name":"石排灣道, 萬景樓外","lat":22.249726180420055,"long":114.14784846631281},{"id":20007449,"name":"石排灣道, 田灣街","lat":22.24918449683099,"long":114.1487410810011},{"id":20002494,"name":"香港仔海傍道,香港仔巴士總站外","lat":22.24739742700089,"long":114.15531871492551},{"id":20002391,"name":"香港仔大道48-50號, 業漁大樓外","lat":22.247388719500034,"long":114.15791858401488},{"id":20002495,"name":"香港仔隧道收費廣場","lat":22.249972587173318,"long":114.17565198948495},{"id":20000048,"name":"崇正大廈, 摩理臣山道","lat":22.275737024871884,"long":114.18001810360705},{"id":20000049,"name":"摩理臣山道32號","lat":22.277037435208904,"long":114.1801248665824},{"id":20000021,"name":"駱克道, 馬師道以東","lat":22.279945286015074,"long":114.18080416182231},{"id":20006944,"name":"駱克道, 近景隆街","lat":22.280703771510595,"long":114.1834919962774}],"routeId":2000802,"description":"正常班次"},{"company":"gmb","route":"N69X","routeType":2,"orig":"銅鑼灣(駱克道)","dest":"數碼港","stopList":[{"id":20006944,"name":"駱克道, 近景隆街","lat":22.280703771510595,"long":114.1834919962774},{"id":20000057,"name":"黃竹坑道, 黃竹坑遊樂場外","lat":22.250279510423415,"long":114.17048124803054},{"id":20000361,"name":"香港仔海傍道, 逸港居外","lat":22.24756948944506,"long":114.15931550542977},{"id":20000169,"name":"香港仔海傍道, 香港仔海濱公園外","lat":22.246954996200248,"long":114.15587173771375},{"id":20000328,"name":"珍寶碼頭, 香港仔海傍道","lat":22.24789374206594,"long":114.15267025693798},{"id":20000329,"name":"田灣街, 香港仔海傍道","lat":22.24858837945915,"long":114.14820764038369},{"id":20000363,"name":"華景街, 華翠樓外","lat":22.25392303044659,"long":114.1365357141342},{"id":20004118,"name":"數碼港道, 貝沙灣南灣","lat":22.25482538786498,"long":114.13377052565532},{"id":20003338,"name":"數碼港道, 貝沙灣1期","lat":22.258220688096564,"long":114.13291573399223},{"id":20003337,"name":"數碼港公共運輸交匯處","lat":22.261913456129104,"long":114.13014951276878}],"routeId":2000802,"description":"正常班次"}]