[{"company":"kmb","route":"NA36","routeType":"1","dir":"O","orig":"國泰城","dest":"錦上路站","stopList":[{"id":"5FE1FD252713A49B","name":"國泰城 (CL342)","lat":"22.297608","long":"113.932902"},{"id":"B8BAF95E90D6E16E","name":"機場(地面運輸中心)巴士總站","lat":"22.313383","long":"113.937757"},{"id":"883451BFA586E00E","name":"港珠澳大橋香港口岸 (W3)","lat":"22.316264","long":"113.950488"},{"id":"80818BFC3FE76A5B","name":"屯門赤鱲角隧道轉車站 (T3)","lat":"22.368998","long":"113.947621"},{"id":"2BDF4BB3B2E038A2","name":"屯門市廣場 (TM124)","lat":"22.393095","long":"113.976826"},{"id":"D9B82EE66AFF2975","name":"紅橋 (TM134)","lat":"22.402582","long":"113.977175"},{"id":"ADD19B88AA8E99DC","name":"鳳池村 (YL141)","lat":"22.446441","long":"114.019456"},{"id":"F87A56BD0A2640ED","name":"元朗廣場 (N2) (YL360)","lat":"22.444681","long":"114.023872"},{"id":"D54B0CA58FE5559D","name":"元朗同樂街 (N12) (YL372)","lat":"22.444616","long":"114.028395"},{"id":"3D566753F149907F","name":"谷亭街 (N17) (YL378)","lat":"22.444578","long":"114.030375"},{"id":"9FB710B737A32C3A","name":"形點 II (YL393)","lat":"22.446580","long":"114.035512"},{"id":"39CA64EA95DEE080","name":"形點 I (YL405)","lat":"22.445065","long":"114.036445"},{"id":"C59B16415222709D","name":"東成里 (YL421)","lat":"22.444407","long":"114.043751"},{"id":"88B9BE4ED93A3292","name":"凹頭 (YL632)","lat":"22.444159","long":"114.048568"},{"id":"7469F3B24F889F1B","name":"下高埔村 (YL634)","lat":"22.442496","long":"114.051608"},{"id":"8DBA8FDF35CE7CC0","name":"高埔村 (YL635)","lat":"22.440430","long":"114.056288"},{"id":"FD27DF93530C7540","name":"錦上路站 (YL863)","lat":"22.434360","long":"114.065081"}],"routeId":"NA36","description":"正常班次"},{"company":"kmb","route":"NA36","routeType":"1","dir":"I","orig":"錦上路站","dest":"國泰城","stopList":[{"id":"FD27DF93530C7540","name":"錦上路站 (YL863)","lat":"22.434360","long":"114.065081"},{"id":"9DD0D04123E70E56","name":"高埔村 (YL735)","lat":"22.440176","long":"114.056258"},{"id":"2CF4CFA22192E30A","name":"下高埔村 (YL737)","lat":"22.441913","long":"114.052704"},{"id":"45B57C063BB57D07","name":"凹頭 (YL739)","lat":"22.443185","long":"114.050075"},{"id":"69CFE96E38AD1D50","name":"東成里 (YL567)","lat":"22.443935","long":"114.045892"},{"id":"2E73B26A07205432","name":"楊屋村 (YL569)","lat":"22.444260","long":"114.042387"},{"id":"7B93AB79165E79E6","name":"形點 I (A2) (YL241)","lat":"22.444276","long":"114.036040"},{"id":"B802C4681F58E3E2","name":"又新街 (S1) (YL245)","lat":"22.444292","long":"114.031170"},{"id":"F8DED1E04A074504","name":"大棠路 (S6) (YL250)","lat":"22.444354","long":"114.028391"},{"id":"8BE58FAD7E9C94C7","name":"康樂路 (S11) (YL255)","lat":"22.444383","long":"114.026050"},{"id":"1DBADE3376C4149E","name":"元朗警署 (S13) (YL257)","lat":"22.444466","long":"114.023938"},{"id":"61130BDD0AFFBA86","name":"水邊村 (YL260)","lat":"22.444568","long":"114.021140"},{"id":"147195048B687121","name":"元朗公園 (YL262)","lat":"22.444081","long":"114.018759"},{"id":"210978D525EEDF4F","name":"紅橋 (K5) (TM710)","lat":"22.401991","long":"113.977501"},{"id":"98197302E98C548E","name":"華都花園 (TM722)","lat":"22.391695","long":"113.977782"},{"id":"C70342BF7C6A4732","name":"屯門赤鱲角隧道轉車站 (A1)","lat":"22.368444","long":"113.948584"},{"id":"0D5759F7A4B185FE","name":"港珠澳大橋旅檢大樓 (落客站)","lat":"22.317083","long":"113.950041"},{"id":"C552CE565E1F0C85","name":"一號客運大樓 (落客站)","lat":"22.315047","long":"113.936362"},{"id":"AAC64BCDD5B55A86","name":"國泰城 (CL221)","lat":"22.297687","long":"113.933356"}],"routeId":"NA36","description":"正常班次"}]