[{"company":"kmb","route":"NA40","routeType":"1","dir":"O","orig":"烏溪沙站","dest":"港珠澳大橋香港口岸","stopList":[{"id":"BA72214DFE48AA86","name":"烏溪沙站 (MA982)","lat":"22.428334","long":"114.244021"},{"id":"6E42FB38EBBE1C42","name":"利安邨 (MA164)","lat":"22.427450","long":"114.240590"},{"id":"118212ABD14E1580","name":"錦龍苑 (MA330)","lat":"22.425883","long":"114.239790"},{"id":"EEF73B5695D2AB0F","name":"錦英苑 (MA334)","lat":"22.423795","long":"114.238721"},{"id":"0AA7219BB2418438","name":"新港城 (MA114)","lat":"22.422699","long":"114.232890"},{"id":"844648D1EDB4A4CD","name":"馬鞍山市中心 (MA306)","lat":"22.424520","long":"114.231475"},{"id":"3DD89EF20A237A4C","name":"福安花園 (MA313)","lat":"22.423372","long":"114.228570"},{"id":"24CD3B0F3389F822","name":"耀安邨總站 (MA933)","lat":"22.419327","long":"114.229671"},{"id":"5EDA0C1BE5CE95CF","name":"頌安邨 (MA316)","lat":"22.420657","long":"114.227166"},{"id":"424003F7939E9F01","name":"錦鞍苑 (MA322)","lat":"22.418719","long":"114.226396"},{"id":"E900EC472C60D5D8","name":"欣安邨 (MA141)","lat":"22.415211","long":"114.226664"},{"id":"4EFF1135BD93EE9E","name":"保泰街 (MA343)","lat":"22.413953","long":"114.223658"},{"id":"F88D7720B4F389B0","name":"德信中學 (MA351)","lat":"22.410689","long":"114.221549"},{"id":"FA141FB0FF048F32","name":"錦泰苑 (MA357)","lat":"22.407972","long":"114.220132"},{"id":"FBE33E1EA7BA6051","name":"富安巴士總站 (MA905)","lat":"22.405335","long":"114.223935"},{"id":"DCDF76EA791EDED7","name":"亞公角 (MA400)","lat":"22.402195","long":"114.215962"},{"id":"6E2A182F0DD98D48","name":"沙田醫院 (MA405)","lat":"22.398865","long":"114.212380"},{"id":"51E6C8BD0176D660","name":"石門轉車站-新界鄉議局大樓","lat":"22.391300","long":"114.206304"},{"id":"E757600B79B0B2AC","name":"沙田第一城 (ST506)","lat":"22.388434","long":"114.201784"},{"id":"5E70E7D7AB0F41DE","name":"禾輋邨 (ST730)","lat":"22.387544","long":"114.196445"},{"id":"1179478DCE94A5C6","name":"瀝源邨 (ST738)","lat":"22.384248","long":"114.193347"},{"id":"197315C40E767929","name":"沙田市中心巴士總站 (ST928)","lat":"22.381943","long":"114.188103"},{"id":"225D34B4D891AFB1","name":"好運中心 (ST168)","lat":"22.383045","long":"114.190303"},{"id":"412DEEF534E127AF","name":"青嶼幹線轉車站 (A1) (TW606)","lat":"22.338302","long":"114.042190"},{"id":"AAC64BCDD5B55A86","name":"國泰城 (CL221)","lat":"22.297687","long":"113.933356"},{"id":"C552CE565E1F0C85","name":"一號客運大樓 (落客站)","lat":"22.315047","long":"113.936362"},{"id":"0D5759F7A4B185FE","name":"港珠澳大橋旅檢大樓 (落客站)","lat":"22.317083","long":"113.950041"},{"id":"A7378EEEBFA0C76C","name":"港珠澳大橋香港口岸 (E7)","lat":"22.315761","long":"113.950402"}],"routeId":"NA40","description":"正常班次"},{"company":"kmb","route":"NA40","routeType":"1","dir":"I","orig":"港珠澳大橋香港口岸","dest":"烏溪沙站","stopList":[{"id":"A7378EEEBFA0C76C","name":"港珠澳大橋香港口岸 (E7)","lat":"22.315761","long":"113.950402"},{"id":"CFDE62B6C9EDE114","name":"機場(地面運輸中心)巴士總站","lat":"22.314039","long":"113.937235"},{"id":"31418DC3F19236BF","name":"國泰城 (CL341)","lat":"22.297609","long":"113.933050"},{"id":"0879D399E5B5FE0C","name":"青嶼幹線轉車站 (N2) (TW705)","lat":"22.339065","long":"114.041670"},{"id":"04EA3349BDD260C8","name":"沙田市中心巴士總站 (ST923)","lat":"22.382420","long":"114.188533"},{"id":"452DC333DCAD8464","name":"瀝源邨 (ST176)","lat":"22.384532","long":"114.193274"},{"id":"95974C5D780AB509","name":"禾輋邨 (ST181)","lat":"22.387846","long":"114.196375"},{"id":"727AA8B21AB74300","name":"沙田第一城 (ST145)","lat":"22.389541","long":"114.203506"},{"id":"582EA09A77D20CC3","name":"石門轉車站 - 濱景花園 (ST149)","lat":"22.391533","long":"114.206093"},{"id":"04543155BFC77A1B","name":"沙田醫院 (MA102)","lat":"22.399853","long":"114.213088"},{"id":"6F03E19C5E800893","name":"亞公角 (MA105)","lat":"22.402759","long":"114.216742"},{"id":"7FDBE1ABD7231657","name":"富安巴士總站 (MA901)","lat":"22.405528","long":"114.224213"},{"id":"B86B05AB0F82C94E","name":"錦泰苑 (MA132)","lat":"22.408812","long":"114.220636"},{"id":"AC515BE42D6D6CBC","name":"德信中學 (MA134)","lat":"22.410657","long":"114.221375"},{"id":"CE813C1E1A72C7B0","name":"海典灣 (MA135)","lat":"22.414386","long":"114.222345"},{"id":"E900EC472C60D5D8","name":"欣安邨 (MA141)","lat":"22.415211","long":"114.226664"},{"id":"297B262BF8D00544","name":"聽濤雅苑 (MA152)","lat":"22.419070","long":"114.226093"},{"id":"A6424D59E135C4EC","name":"頌安邨 (MA153)","lat":"22.420741","long":"114.226763"},{"id":"24CD3B0F3389F822","name":"耀安邨總站 (MA933)","lat":"22.419327","long":"114.229671"},{"id":"040478A068F3E0EB","name":"福安花園 (MA156)","lat":"22.423857","long":"114.228573"},{"id":"8EB192ED041A8459","name":"海栢花園 (MA158)","lat":"22.425049","long":"114.231666"},{"id":"1E04D9D97DE148C2","name":"馬鞍山警署 (MA181)","lat":"22.422348","long":"114.232940"},{"id":"507E8F5167002BC5","name":"錦英苑 (MA191)","lat":"22.423979","long":"114.238460"},{"id":"362D0188DD0985FF","name":"錦龍苑 (MA194)","lat":"22.426019","long":"114.239450"},{"id":"A90443FD0C19C4B1","name":"利安邨 (MA163)","lat":"22.427627","long":"114.240415"},{"id":"BA72214DFE48AA86","name":"烏溪沙站 (MA982)","lat":"22.428334","long":"114.244021"}],"routeId":"NA40","description":"正常班次"}]