[{"company":"kmb","route":"PB1","routeType":"2","dir":"O","orig":"西沙 GO PARK","dest":"上水","stopList":[{"id":"8B9E121BB71771F4","name":"西沙 GO PARK","lat":"22.426319","long":"114.267036"},{"id":"8C90768E30E981C6","name":"沙田大會堂","lat":"22.382023","long":"114.191197"},{"id":"B1882202E2B36620","name":"白石角(科研路)","lat":"22.428807","long":"114.208558"},{"id":"2B011CC82C51D518","name":"運頭塘邨","lat":"22.443221","long":"114.168832"},{"id":"F02A1646BD4FC0E2","name":"彩蒲苑彩碧閣 (ND105a)","lat":"22.502837","long":"114.124773"},{"id":"2B011CC82C51D518","name":"運頭塘邨","lat":"22.443221","long":"114.168832"},{"id":"B1882202E2B36620","name":"白石角(科研路)","lat":"22.428807","long":"114.208558"},{"id":"8C90768E30E981C6","name":"沙田大會堂","lat":"22.382023","long":"114.191197"},{"id":"8B9E121BB71771F4","name":"西沙 GO PARK","lat":"22.426319","long":"114.267036"}],"routeId":"PB1","description":"特別班次"}]