[{"company":"kmb","route":"PB2","routeType":"1","dir":"O","orig":"馬灣","dest":"中環 (由馬灣出發 循環行走)","stopList":[{"id":"02FBFA6B14F230C6","name":"馬灣 (珀欣路)","lat":"22.347130","long":"114.059822"},{"id":"321060BAE1447BEE","name":"荃灣站","lat":"22.372748","long":"114.119285"},{"id":"860671A5FA383DA3","name":"泓景臺","lat":"22.335146","long":"114.147718"},{"id":"0524415976F284A4","name":"柯士甸道西","lat":"22.302618","long":"114.159612"},{"id":"90F0F685E42CC10D","name":"中環碼頭(民光街)","lat":"22.286032","long":"114.161172"},{"id":"0524415976F284A4","name":"柯士甸道西","lat":"22.302618","long":"114.159612"},{"id":"860671A5FA383DA3","name":"泓景臺","lat":"22.335146","long":"114.147718"},{"id":"321060BAE1447BEE","name":"荃灣站","lat":"22.372748","long":"114.119285"},{"id":"02FBFA6B14F230C6","name":"馬灣 (珀欣路)","lat":"22.347130","long":"114.059822"}],"routeId":"PB2","description":"正常班次"}]