[{"company":"kmb","route":"PB2","routeType":"1","dir":"O","orig":"西沙 GO PARK","dest":"香港故宮文化博物館","stopList":[{"id":"8B9E121BB71771F4","name":"西沙 GO PARK","lat":"22.426319","long":"114.267036"},{"id":"064B06C60E5EE126","name":"美裕街","lat":"22.383910","long":"114.272414"},{"id":"06CC6423AA236B72","name":"將軍澳(唐俊街)","lat":"22.303002","long":"114.261429"},{"id":"9252A494500A05C9","name":"觀塘碼頭 (基業街)","lat":"22.309177","long":"114.221147"},{"id":"029C4172D953DAF5","name":"啟德(沐元街)","lat":"22.331823","long":"114.198511"},{"id":"F050648C108571ED","name":"香港故宮文化博物館","lat":"22.301472","long":"114.156170"},{"id":"029C4172D953DAF5","name":"啟德(沐元街)","lat":"22.331823","long":"114.198511"}],"routeId":"PB2","description":"正常班次"},{"company":"kmb","route":"PB2","routeType":"2","dir":"O","orig":"西沙 GO PARK","dest":"啟德(沐元街)","stopList":[{"id":"8B9E121BB71771F4","name":"西沙 GO PARK","lat":"22.426319","long":"114.267036"},{"id":"064B06C60E5EE126","name":"美裕街","lat":"22.383910","long":"114.272414"},{"id":"06CC6423AA236B72","name":"將軍澳(唐俊街)","lat":"22.303002","long":"114.261429"},{"id":"9252A494500A05C9","name":"觀塘碼頭 (基業街)","lat":"22.309177","long":"114.221147"},{"id":"029C4172D953DAF5","name":"啟德(沐元街)","lat":"22.331823","long":"114.198511"},{"id":"9252A494500A05C9","name":"觀塘碼頭 (基業街)","lat":"22.309177","long":"114.221147"}],"routeId":"PB2","description":"特別班次"}]