[{"company":"kmb","route":"PB2B","routeType":"1","dir":"O","orig":"石門站","dest":"西九龍文化區 (由沙田出發 循環行走)","stopList":[{"id":"77D8D65A6BD868B3","name":"石門站","lat":"22.387499","long":"114.208580"},{"id":"8C90768E30E981C6","name":"沙田大會堂","lat":"22.382023","long":"114.191197"},{"id":"B3F486EAD0CE8187","name":"大圍站","lat":"22.373947","long":"114.179157"},{"id":"045FB4EAE4FE52D6","name":"南昌站 (V WALK)","lat":"22.328007","long":"114.153683"},{"id":"0524415976F284A4","name":"柯士甸道西","lat":"22.302618","long":"114.159612"},{"id":"045FB4EAE4FE52D6","name":"南昌站 (V WALK)","lat":"22.328007","long":"114.153683"},{"id":"B3F486EAD0CE8187","name":"大圍站","lat":"22.373947","long":"114.179157"},{"id":"8C90768E30E981C6","name":"沙田大會堂","lat":"22.382023","long":"114.191197"},{"id":"77D8D65A6BD868B3","name":"石門站","lat":"22.387499","long":"114.208580"}],"routeId":"PB2B","description":"正常班次"}]