[{"company":"kmb","route":"PB2B","routeType":"1","dir":"O","orig":"屯門站(V CITY)","dest":"西九文化區(由屯門出發 循環行走)","stopList":[{"id":"0678C85600B1A019","name":"屯門站(V City)","lat":"22.395230","long":"113.973850"},{"id":"A02CB1283981A937","name":"港鐵荃灣西站","lat":"22.368443","long":"114.112024"},{"id":"045FB4EAE4FE52D6","name":"南昌站 (V WALK)","lat":"22.328007","long":"114.153683"},{"id":"825D1D3AB07C1AC2","name":"長沙灣荔盈街","lat":"22.328170","long":"114.147991"},{"id":"0524415976F284A4","name":"柯士甸道西","lat":"22.302618","long":"114.159612"},{"id":"F050648C108571ED","name":"香港故宮文化博物館","lat":"22.301530","long":"114.156018"},{"id":"0524415976F284A4","name":"柯士甸道西","lat":"22.302618","long":"114.159612"},{"id":"045FB4EAE4FE52D6","name":"南昌站 (V WALK)","lat":"22.328007","long":"114.153683"},{"id":"825D1D3AB07C1AC2","name":"長沙灣荔盈街","lat":"22.328170","long":"114.147991"},{"id":"A02CB1283981A937","name":"港鐵荃灣西站","lat":"22.368443","long":"114.112024"},{"id":"0678C85600B1A019","name":"屯門站(V City)","lat":"22.395230","long":"113.973850"}],"routeId":"PB2B","description":"正常班次"}]