[{"company":"kmb","route":"PB2B","routeType":"1","dir":"O","orig":"屯門站(V CITY)","dest":"西九文化區","stopList":[{"id":"0678C85600B1A019","name":"屯門站(V City)","lat":"22.395230","long":"113.973850"},{"id":"CC43907C8D4CED33","name":"香港黃金海岸","lat":"22.372558","long":"113.989567"},{"id":"DEB240F39E92A5B9","name":"深井(海韻花園)","lat":"22.367773","long":"114.060778"},{"id":"658F28C339443C17","name":"奧運(海泓道)","lat":"22.314364","long":"114.164318"},{"id":"0524415976F284A4","name":"柯士甸道西","lat":"22.302618","long":"114.159612"},{"id":"658F28C339443C17","name":"奧運(海泓道)","lat":"22.314364","long":"114.164318"},{"id":"DBC89D4632BE523C","name":"深井(麗都花園)","lat":"22.366398","long":"114.058722"},{"id":"CC43907C8D4CED33","name":"香港黃金海岸","lat":"22.372558","long":"113.989567"},{"id":"0678C85600B1A019","name":"屯門站(V City)","lat":"22.395230","long":"113.973850"}],"routeId":"PB2B","description":"正常班次"}]