[{"company":"kmb","route":"PB6","routeType":"1","dir":"O","orig":"將軍澳(唐俊街)","dest":"中環(由將軍澳出發循環行走)","stopList":[{"id":"06CC6423AA236B72","name":"唐俊街","lat":"22.303002","long":"114.261429"},{"id":"DE8AB4B54CD3D4F2","name":"康城站","lat":"22.296803","long":"114.269336"},{"id":"C1EE377B1D421E2F","name":"城市花園","lat":"22.290301","long":"114.194434"},{"id":"E85A10E61A00CC09","name":"北角匯","lat":"22.292777","long":"114.202044"},{"id":"90F0F685E42CC10D","name":"中環碼頭(民光街)","lat":"22.286032","long":"114.161172"},{"id":"C1EE377B1D421E2F","name":"城市花園","lat":"22.290301","long":"114.194434"},{"id":"E85A10E61A00CC09","name":"北角匯","lat":"22.292777","long":"114.202044"},{"id":"DE8AB4B54CD3D4F2","name":"康城站","lat":"22.296803","long":"114.269336"},{"id":"06CC6423AA236B72","name":"唐俊街","lat":"22.303002","long":"114.261429"}],"routeId":"PB6","description":"正常班次"}]