[{"company":"kmb","route":"PBD1","routeType":"1","dir":"O","orig":"將軍澳","dest":"愉景廣場","stopList":[{"id":"06CC6423AA236B72","name":"將軍澳(唐俊街)","lat":"22.303002","long":"114.261429"},{"id":"029C4172D953DAF5","name":"啟德(沐元街)","lat":"22.331823","long":"114.198511"},{"id":"B26B63709D8A7DFA","name":"愉景北商場","lat":"22.307652","long":"114.016498"},{"id":"E4415E645A9914EF","name":"愉景廣場","lat":"22.294653","long":"114.016613"}],"routeId":"PBD1","description":"正常班次"},{"company":"kmb","route":"PBD1","routeType":"1","dir":"I","orig":"愉景廣場","dest":"將軍澳","stopList":[{"id":"E4415E645A9914EF","name":"愉景廣場","lat":"22.294653","long":"114.016613"},{"id":"E33098F43CF205B8","name":"中環龍和道","lat":"22.282737","long":"114.163977"},{"id":"06CC6423AA236B72","name":"將軍澳(唐俊街)","lat":"22.303002","long":"114.261429"}],"routeId":"PBD1","description":"正常班次"}]