[{"company":"kmb","route":"PN10","routeType":"1","dir":"O","orig":"青衣站","dest":"香港故宮文化博物館","stopList":[{"id":"A8DC6F85E7043234","name":"青衣站","lat":"22.359745","long":"114.107757"},{"id":"658F28C339443C17","name":"奧運(海泓道)","lat":"22.314364","long":"114.164318"},{"id":"95A40BF00DBAB2B8","name":"星光大道","lat":"22.296511","long":"114.177189"},{"id":"8125708E7EC47977","name":"半島酒店","lat":"22.294988","long":"114.171243"},{"id":"F050648C108571ED","name":"香港故宮文化博物館","lat":"22.301530","long":"114.156018"},{"id":"8125708E7EC47977","name":"半島酒店","lat":"22.294988","long":"114.171243"},{"id":"95A40BF00DBAB2B8","name":"星光大道","lat":"22.296511","long":"114.177189"},{"id":"658F28C339443C17","name":"奧運(海泓道)","lat":"22.314364","long":"114.164318"},{"id":"A8DC6F85E7043234","name":"青衣站","lat":"22.359745","long":"114.107757"}],"routeId":"PN10","description":"正常班次"}]