[{"company":"kmb","route":"PN11","routeType":"1","dir":"O","orig":"堅尼地城 (科士街)","dest":"灣仔海濱","stopList":[{"id":"993431C67E83B130","name":"堅尼地城 (科士街)","lat":"22.281243","long":"114.126697"},{"id":"5F32C53A90CDEB52","name":"中環 (港澳碼頭)","lat":"22.288088","long":"114.150019"},{"id":"90F0F685E42CC10D","name":"中環碼頭(民光街)","lat":"22.286032","long":"114.161172"},{"id":"232DC1B2BE92C86F","name":"灣仔海濱","lat":"22.282871","long":"114.179300"},{"id":"1E5B31D284632D4B","name":"維多利亞公園","lat":"22.280452","long":"114.186862"},{"id":"6DED9BB3FAD04626","name":"軒尼詩道","lat":"22.277380","long":"114.172404"},{"id":"90F0F685E42CC10D","name":"中環碼頭(民光街)","lat":"22.286032","long":"114.161172"},{"id":"5F32C53A90CDEB52","name":"中環 (港澳碼頭)","lat":"22.288088","long":"114.150019"},{"id":"993431C67E83B130","name":"堅尼地城 (科士街)","lat":"22.281243","long":"114.126697"}],"routeId":"PN11","description":"正常班次"}]