[{"company":"kmb","route":"PN7","routeType":"1","dir":"O","orig":"港鐵荃灣西站","dest":"灣仔海濱","stopList":[{"id":"A02CB1283981A937","name":"港鐵荃灣西站","lat":"22.368443","long":"114.112024"},{"id":"321060BAE1447BEE","name":"荃灣站","lat":"22.372748","long":"114.119285"},{"id":"4B63964A12D91E2A","name":"葵芳葵富路","lat":"22.358222","long":"111.794683"},{"id":"1E5B31D284632D4B","name":"維多利亞公園","lat":"22.280452","long":"114.186862"},{"id":"693C1DEE3AEEEE51","name":"軒尼詩道","lat":"22.277566","long":"114.172419"},{"id":"232DC1B2BE92C86F","name":"灣仔海濱","lat":"22.282871","long":"114.179300"},{"id":"4B63964A12D91E2A","name":"葵芳葵富路","lat":"22.358222","long":"111.794683"},{"id":"321060BAE1447BEE","name":"荃灣站","lat":"22.372748","long":"114.119285"},{"id":"A02CB1283981A937","name":"港鐵荃灣西站","lat":"22.368443","long":"114.112024"}],"routeId":"PN7","description":"正常班次"}]