[{"company":"kmb","route":"R42","routeType":"1","dir":"O","orig":"迪士尼樂園","dest":"大圍站","stopList":[{"id":"6C5D3C3EEFF28EE6","name":"迪士尼樂園巴士總站","lat":"22.316606","long":"114.045724"},{"id":"8C8191357A7B2C2F","name":"青嶼幹線轉車站 (N7)","lat":"22.339011","long":"114.041587"},{"id":"5C572C50B1AA2B95","name":"荃灣橫龍街","lat":"22.366674","long":"114.117979"},{"id":"D1C91ADAA2E0E466","name":"楊屋道街市","lat":"22.368537","long":"114.114364"},{"id":"725496526DF766B9","name":"大河道","lat":"22.371369","long":"114.114646"},{"id":"3AC7A0BCF72D7F54","name":"荃灣站","lat":"22.373781","long":"114.117542"},{"id":"04EA3349BDD260C8","name":"沙田市中心巴士總站","lat":"22.382420","long":"114.188533"},{"id":"6ACFA599CC0EA4E0","name":"帝都酒店","lat":"22.379733","long":"114.188115"},{"id":"CA89494AD121A8DC","name":"文化博物館","lat":"22.377762","long":"114.186539"},{"id":"FCA7A9D99D36338B","name":"秦石邨","lat":"22.374252","long":"114.186633"},{"id":"2E0FD54FCF000E13","name":"車公廟","lat":"22.374416","long":"114.184036"},{"id":"4F09976CA4CF80C9","name":"大圍轉車站 - 新翠邨新明樓 (A2)","lat":"22.372094","long":"114.180196"},{"id":"B49F719CC4A8BD7E","name":"大圍站總站 (G8)","lat":"22.372804","long":"114.180216"}],"routeId":"R42","description":"正常班次"},{"company":"kmb","route":"R42","routeType":"1","dir":"I","orig":"大圍站","dest":"迪士尼樂園","stopList":[{"id":"B49F719CC4A8BD7E","name":"大圍站總站 (G8)","lat":"22.372804","long":"114.180216"},{"id":"65F5585B72A99D7F","name":"車公廟","lat":"22.374684","long":"114.184147"},{"id":"94BA372E9FDC87C4","name":"秦石邨","lat":"22.374476","long":"114.186187"},{"id":"A6631CAD2E2DE2A6","name":"文化博物館","lat":"22.377601","long":"114.186323"},{"id":"84FC122EC64D8885","name":"希爾頓中心","lat":"22.379622","long":"114.187141"},{"id":"04EA3349BDD260C8","name":"沙田市中心巴士總站","lat":"22.382420","long":"114.188533"},{"id":"225D34B4D891AFB1","name":"好運中心","lat":"22.383045","long":"114.190303"},{"id":"0A77311427E8CB2B","name":"荃灣站","lat":"22.373771","long":"114.117765"},{"id":"2F3C6668D919E5E4","name":"楊屋道街市","lat":"22.368448","long":"114.115097"},{"id":"65C8216FB0BC4FBC","name":"荃灣橫窩仔街","lat":"22.366580","long":"114.118655"},{"id":"444BEB5BB189B3A0","name":"青嶼幹線轉車站 (A7)","lat":"22.338327","long":"114.042265"},{"id":"FE235D7DCABCA944","name":"迪士尼樂園巴士總站","lat":"22.316272","long":"114.046180"}],"routeId":"R42","description":"正常班次"}]