[{"company":"kmb","route":"R673","routeType":"1","dir":"O","orig":"上水(清河)","dest":"銅鑼灣 (維多利亞公園)","stopList":[{"id":"583E102838FA4D0A","name":"清河邨總站 (ND935)","lat":"22.494584","long":"114.128190"},{"id":"6F11F73C749338DB","name":"御景峰 (ND117)","lat":"22.495680","long":"114.128132"},{"id":"C799751FDFCE292E","name":"上水轉車站 - 上水總站 (ND905)","lat":"22.502744","long":"114.127704"},{"id":"D3E18D04B69DF388","name":"天平邨天明樓 (ND244)","lat":"22.502508","long":"114.132603"},{"id":"C4F843F93CDCBE64","name":"皇府山 (ND255)","lat":"22.503324","long":"114.136614"},{"id":"4235BA400EB10F0E","name":"粉嶺樓路 (ND565)","lat":"22.500752","long":"114.140170"},{"id":"879A98CD29D9433F","name":"上水宣道小學 (ND296)","lat":"22.500807","long":"114.142610"},{"id":"A22E315AD21129EB","name":"粉嶺樂和街 (ND552)","lat":"22.497002","long":"114.142831"},{"id":"944EC71DD1731BE0","name":"粉嶺消防局 (ND555)","lat":"22.494104","long":"114.140097"},{"id":"EF78DD9F765C6565","name":"粉嶺站轉車站 - 祥華邨 (ND184)","lat":"22.492466","long":"114.140389"},{"id":"BFAE1E951D3B63EC","name":"粉嶺中心　　 (ND187)","lat":"22.491181","long":"114.142627"},{"id":"C67060F448591E4F","name":"塘坑 (ND247)","lat":"22.490878","long":"114.145976"},{"id":"F7D40D08CB05EA87","name":"華明轉車站 (ND984)","lat":"22.484250","long":"114.141642"},{"id":"923E5B79E1B48739","name":"欣盛苑 (ND392)","lat":"22.486987","long":"114.140504"},{"id":"FA52803E2628A212","name":"牽晴間 (ND151)","lat":"22.486635","long":"114.143349"},{"id":"2431FF3100478DEE","name":"九龍塘聯合道 (KC661)","lat":"22.337823","long":"114.179256"},{"id":"ED6FCB0422D541F5","name":"九龍塘站 (KC662)","lat":"22.335662","long":"114.179091"},{"id":"850F72123F644500","name":"龍濤花園 (KC665)","lat":"22.331444","long":"114.178818"},{"id":"3821D64D2BF1BB66","name":"九龍醫院 (KC668)","lat":"22.323641","long":"114.178381"},{"id":"66C6FDFC88F56E51","name":"醫療輔助總部 (KC678)","lat":"22.316951","long":"114.178572"},{"id":"7CD8F96A087CDDF2","name":"愛民邨 (KC679)","lat":"22.313102","long":"114.176914"},{"id":"4D3CBBDB95447F2E","name":"紅隧轉車站 (HH505)","lat":"22.302826","long":"114.180845"},{"id":"76B4054F2E1F00B0","name":"邊寧頓街 (WC250)","lat":"22.278744","long":"114.185975"},{"id":"17B98BD1165A7B92","name":"維多利亞公園 (ED310)","lat":"22.280958","long":"114.189949"}],"routeId":"R673","description":"正常班次"}]