[{"company":"ctb","route":"R680","routeType":null,"dir":"O","orig":"馬鞍山 (錦英苑)","dest":"銅鑼灣 (維多利亞公園)","stopList":[{"id":"003090","name":"錦英苑","lat":"22.423628812091","long":"114.23736893053"},{"id":"003091","name":"錦龍苑, 錦英路","lat":"22.425998642091","long":"114.23945700053"},{"id":"003092","name":"富寶花園, 西沙路","lat":"22.425542202091","long":"114.23558313053"},{"id":"001950","name":"馬鞍山市中心","lat":"22.424081542091","long":"114.23144860053"},{"id":"003093","name":"福安花園, 西沙路","lat":"22.423224492091","long":"114.22847174053"},{"id":"001914","name":"馬鞍山運動場, 恆康街","lat":"22.421916022091","long":"114.22872854053"},{"id":"001915","name":"耀安邨耀謙樓, 恆康街","lat":"22.418047082091","long":"114.23069989053"},{"id":"003078","name":"富安花園, 恆德街","lat":"22.407220942091","long":"114.22273293053"},{"id":"002028","name":"亞公角, 亞公角街","lat":"22.402005302091","long":"114.21550653053"},{"id":"002029","name":"沙田醫院, 亞公角街","lat":"22.398612682091","long":"114.21216033053"},{"id":"003079","name":"新界鄉議局大樓, 大涌橋路","lat":"22.391431672091","long":"114.20631812053"},{"id":"003080","name":"小瀝源路草地滾球場, 小瀝源路","lat":"22.388647162091","long":"114.20369146053"},{"id":"003081","name":"小瀝源路遊樂場, 小瀝源路","lat":"22.386322352091","long":"114.20624953053"},{"id":"003082","name":"歷奇單車場, 小瀝源路","lat":"22.383865382091","long":"114.20898572053"},{"id":"001476","name":"海底隧道巴士轉乘站","lat":"22.303015922091","long":"114.18084154053"},{"id":"002962","name":"景隆街, 告士打道","lat":"22.281610952091","long":"114.18248055053"},{"id":"002474","name":"邊寧頓街","lat":"22.278458822091","long":"114.18603081053"},{"id":"001213","name":"維多利亞公園, 高士威道","lat":"22.281133262091","long":"114.19006592053"}],"routeId":"R680","description":"正常班次"}]