[{"company":"ctb","route":"R680","routeType":null,"dir":"O","orig":"馬鞍山 (錦英苑)","dest":"銅鑼灣 (維多利亞公園)","stopList":[{"id":"003090","name":"錦英苑","lat":"22.423629","long":"114.237369"},{"id":"003091","name":"錦龍苑, 錦英路","lat":"22.425999","long":"114.239457"},{"id":"003092","name":"富寶花園, 西沙路","lat":"22.425542","long":"114.235583"},{"id":"001950","name":"馬鞍山市中心","lat":"22.424135","long":"114.231693"},{"id":"003093","name":"福安花園, 西沙路","lat":"22.423224","long":"114.228472"},{"id":"001914","name":"馬鞍山運動場, 恆康街","lat":"22.421916","long":"114.228729"},{"id":"001915","name":"耀安邨耀謙樓, 恆康街","lat":"22.418047","long":"114.230700"},{"id":"003078","name":"富安花園, 恆德街","lat":"22.407221","long":"114.222733"},{"id":"002028","name":"亞公角, 亞公角街","lat":"22.402005","long":"114.215507"},{"id":"002029","name":"沙田醫院, 亞公角街","lat":"22.398613","long":"114.212160"},{"id":"003079","name":"新界鄉議局大樓, 大涌橋路","lat":"22.391432","long":"114.206318"},{"id":"003080","name":"小瀝源路草地滾球場, 小瀝源路","lat":"22.388647","long":"114.203691"},{"id":"003081","name":"小瀝源路遊樂場, 小瀝源路","lat":"22.386322","long":"114.206250"},{"id":"003082","name":"歷奇單車場, 小瀝源路","lat":"22.383865","long":"114.208986"},{"id":"001476","name":"海底隧道巴士轉乘站","lat":"22.303016","long":"114.180842"},{"id":"002962","name":"景隆街, 告士打道","lat":"22.281611","long":"114.182481"},{"id":"002474","name":"邊寧頓街","lat":"22.278459","long":"114.186031"},{"id":"001213","name":"維多利亞公園, 高士威道","lat":"22.281133","long":"114.190066"}],"routeId":"R680","description":"正常班次"}]