[{"company":"kmb","route":"R680","routeType":"1","dir":"O","orig":"錦英苑","dest":"銅鑼灣 (維多利亞公園)","stopList":[{"id":"4D8E5172E1C1EAF5","name":"錦英苑巴士總站 (MA961)","lat":"22.423592","long":"114.237166"},{"id":"D156C558FF163BE3","name":"錦龍苑 (MA196)","lat":"22.426073","long":"114.239403"},{"id":"013F884CBCB1CBE4","name":"富寶花園 (MA303)","lat":"22.425459","long":"114.235563"},{"id":"1D99BD02B9B45429","name":"馬鞍山市中心總站 (MA953)","lat":"22.424445","long":"114.231544"},{"id":"028E0B68D3166C00","name":"福安花園 (MA312)","lat":"22.423273","long":"114.228508"},{"id":"1D6A8B8C58C268FF","name":"馬鞍山運動場 (MA371)","lat":"22.422151","long":"114.228420"},{"id":"F86BDB236D6ACDC3","name":"耀安邨耀謙樓 (MA379)","lat":"22.418124","long":"114.230662"},{"id":"30553FA19D045D25","name":"富安花園 (MA392)","lat":"22.407330","long":"114.222794"},{"id":"4A3D71FFAB41B756","name":"亞公角 (MA401)","lat":"22.402012","long":"114.215473"},{"id":"A78292AA77A277A7","name":"沙田醫院 (MA403)","lat":"22.398890","long":"114.212419"},{"id":"578C11F0F4197509","name":"石門轉車站-新界鄉議局大樓","lat":"22.391450","long":"114.206460"},{"id":"A295FD27A4E5A7C5","name":"小瀝源草地滾球場 (ST530)","lat":"22.388524","long":"114.203828"},{"id":"C43782B93826F4CD","name":"小瀝源路遊樂場 (ST532)","lat":"22.386434","long":"114.206225"},{"id":"2223D64E9ED2E1A7","name":"帝逸酒店 (ST534)","lat":"22.383874","long":"114.209102"},{"id":"4D3CBBDB95447F2E","name":"紅隧轉車站 (HH505)","lat":"22.302826","long":"114.180845"},{"id":"D1D807234805DBF4","name":"景隆街","lat":"22.281740","long":"114.182919"},{"id":"76B4054F2E1F00B0","name":"邊寧頓街 (WC250)","lat":"22.278744","long":"114.185975"},{"id":"17B98BD1165A7B92","name":"維多利亞公園 (ED310)","lat":"22.280958","long":"114.189949"}],"routeId":"R680","description":"正常班次"},{"company":"ctb","route":"R680","routeType":null,"dir":"O","orig":"馬鞍山 (錦英苑)","dest":"銅鑼灣 (維多利亞公園)","stopList":[{"id":"003090","name":"錦英苑","lat":"22.423629","long":"114.237369"},{"id":"003091","name":"錦龍苑, 錦英路","lat":"22.425999","long":"114.239457"},{"id":"003092","name":"富寶花園, 西沙路","lat":"22.425542","long":"114.235583"},{"id":"001950","name":"馬鞍山市中心","lat":"22.424135","long":"114.231693"},{"id":"003093","name":"福安花園, 西沙路","lat":"22.423224","long":"114.228472"},{"id":"001914","name":"馬鞍山運動場, 恆康街","lat":"22.421916","long":"114.228729"},{"id":"001915","name":"耀安邨耀謙樓, 恆康街","lat":"22.418047","long":"114.230700"},{"id":"003078","name":"富安花園, 恆德街","lat":"22.407221","long":"114.222733"},{"id":"002028","name":"亞公角, 亞公角街","lat":"22.402005","long":"114.215507"},{"id":"002029","name":"沙田醫院, 亞公角街","lat":"22.398613","long":"114.212160"},{"id":"003079","name":"新界鄉議局大樓, 大涌橋路","lat":"22.391432","long":"114.206318"},{"id":"003080","name":"小瀝源路草地滾球場, 小瀝源路","lat":"22.388647","long":"114.203691"},{"id":"003081","name":"小瀝源路遊樂場, 小瀝源路","lat":"22.386322","long":"114.206250"},{"id":"003082","name":"歷奇單車場, 小瀝源路","lat":"22.383865","long":"114.208986"},{"id":"001476","name":"海底隧道巴士轉乘站","lat":"22.303016","long":"114.180842"},{"id":"002962","name":"景隆街, 告士打道","lat":"22.281611","long":"114.182481"},{"id":"002474","name":"邊寧頓街","lat":"22.278459","long":"114.186031"},{"id":"001213","name":"維多利亞公園, 高士威道","lat":"22.281133","long":"114.190066"}],"routeId":"R680","description":"正常班次"}]