[{"company":"kmb","route":"R680","routeType":"1","dir":"O","orig":"錦英苑","dest":"銅鑼灣 (維多利亞公園)","stopList":[{"id":"4D8E5172E1C1EAF5","name":"錦英苑巴士總站","lat":"22.423592","long":"114.237166"},{"id":"D156C558FF163BE3","name":"錦龍苑","lat":"22.426073","long":"114.239403"},{"id":"013F884CBCB1CBE4","name":"富寶花園","lat":"22.425459","long":"114.235563"},{"id":"1D99BD02B9B45429","name":"馬鞍山市中心總站","lat":"22.424445","long":"114.231544"},{"id":"028E0B68D3166C00","name":"福安花園","lat":"22.423273","long":"114.228508"},{"id":"1D6A8B8C58C268FF","name":"馬鞍山運動場","lat":"22.422151","long":"114.228420"},{"id":"F86BDB236D6ACDC3","name":"耀安邨耀謙樓","lat":"22.418124","long":"114.230662"},{"id":"30553FA19D045D25","name":"富安花園","lat":"22.407330","long":"114.222794"},{"id":"4A3D71FFAB41B756","name":"亞公角","lat":"22.402012","long":"114.215473"},{"id":"A78292AA77A277A7","name":"沙田醫院","lat":"22.398890","long":"114.212419"},{"id":"578C11F0F4197509","name":"石門轉車站-新界鄉議局大樓 (S3)","lat":"22.391450","long":"114.206460"},{"id":"A295FD27A4E5A7C5","name":"小瀝源草地滾球場","lat":"22.388524","long":"114.203828"},{"id":"C43782B93826F4CD","name":"小瀝源路遊樂場","lat":"22.386434","long":"114.206225"},{"id":"2223D64E9ED2E1A7","name":"帝逸酒店","lat":"22.383874","long":"114.209102"},{"id":"4D3CBBDB95447F2E","name":"紅隧轉車站 (A4)","lat":"22.302826","long":"114.180845"},{"id":"D1D807234805DBF4","name":"景隆街","lat":"22.281740","long":"114.182919"},{"id":"76B4054F2E1F00B0","name":"邊寧頓街","lat":"22.278744","long":"114.185975"},{"id":"17B98BD1165A7B92","name":"維多利亞公園","lat":"22.280958","long":"114.189949"}],"routeId":"R680","description":"正常班次"}]