[{"company":"ctb","route":"R796","routeType":null,"dir":"O","orig":"日出康城 (經:尚德)","dest":"尖沙咀(麼地道)","stopList":[{"id":"003329","name":"日出康城","lat":"22.295873","long":"114.268360"},{"id":"002919","name":"峻瀅, 環保大道","lat":"22.297406","long":"114.272521"},{"id":"002928","name":"日出康城領都, 環保大道","lat":"22.294213","long":"114.273395"},{"id":"002929","name":"日出康城首都, 環保大道","lat":"22.296755","long":"114.272665"},{"id":"002930","name":"邵氏影城, 環保大道","lat":"22.303470","long":"114.271389"},{"id":"002931","name":"清水灣半島","lat":"22.308859","long":"114.266466"},{"id":"001818","name":"寶盈花園, 寶邑路","lat":"22.307711","long":"114.262179"},{"id":"002918","name":"將軍澳站","lat":"22.308567","long":"114.260046"},{"id":"001823","name":"唐明街公園, 唐明街","lat":"22.310442","long":"114.258862"},{"id":"003589","name":"將軍澳隧道巴士轉乘站","lat":"22.315074","long":"114.240243"},{"id":"001419","name":"香港科學館, 漆咸道南","lat":"22.301037","long":"114.176488"},{"id":"001540","name":"尖沙咀 (麼地道)","lat":"22.296063","long":"114.175780"}],"routeId":"R796","description":"正常班次"}]