[{"company":"kmb","route":"R94","routeType":"1","dir":"O","orig":"大埔太和","dest":"黃石碼頭","stopList":[{"id":"8C1810DE2419A30B","name":"太和站","lat":"22.450873","long":"114.161011"},{"id":"27222F0DE22582ED","name":"大埔中心總站","lat":"22.452896","long":"114.168960"},{"id":"12E4BAFA2B73435B","name":"廣福邨","lat":"22.446599","long":"114.173474"},{"id":"3A450B5AD5AF1605","name":"海栢花園","lat":"22.425043","long":"114.231566"},{"id":"6B775855F6FB16D9","name":"泥涌","lat":"22.430622","long":"114.256823"},{"id":"91A28A7727443F66","name":"北潭涌","lat":"22.397194","long":"114.319274"},{"id":"F2ADAE66B5249736","name":"黃石碼頭","lat":"22.435277","long":"114.336777"},{"id":"A19AA44836C6FA32","name":"黃石碼頭總站","lat":"22.434752","long":"114.336730"}],"routeId":"R94","description":"正常班次"},{"company":"kmb","route":"R94","routeType":"1","dir":"I","orig":"黃石碼頭","dest":"大埔太和","stopList":[{"id":"A19AA44836C6FA32","name":"黃石碼頭總站","lat":"22.434752","long":"114.336730"},{"id":"E9AA1B6995F25F52","name":"北潭涌","lat":"22.397301","long":"114.319199"},{"id":"5D86C919F15C0611","name":"西澳","lat":"22.430732","long":"114.254147"},{"id":"7E2611CD03F9450A","name":"馬鞍山市中心","lat":"22.424602","long":"114.231779"},{"id":"CDB292D507E4302D","name":"廣福邨","lat":"22.446299","long":"114.173076"},{"id":"0A8E2BA2F75E472E","name":"大埔超級城","lat":"22.451004","long":"114.170088"},{"id":"9FDEEC09AD1B601B","name":"太和廣場","lat":"22.450689","long":"114.160767"}],"routeId":"R94","description":"正常班次"}]