[{"company":"kmb","route":"R948","routeType":"1","dir":"O","orig":"青衣(長宏邨)","dest":"銅鑼灣(維多利亞公園)","stopList":[{"id":"79842A7E2FC0844F","name":"長宏巴士總站 (TY981)","lat":"22.357376","long":"114.096235"},{"id":"FF5CF18C5510B901","name":"長亨邨商場 (TY300)","lat":"22.354299","long":"114.097567"},{"id":"7E50BA0974C3B983","name":"長亨邨 (TY123)","lat":"22.353376","long":"114.098675"},{"id":"00EC5193F83C6F76","name":"青衣轉車站 - 長安總站 (A5)","lat":"22.361544","long":"114.102887"},{"id":"4E870B220826BEE0","name":"楓樹窩體育館 (TY211)","lat":"22.355604","long":"114.102353"},{"id":"5AD2A4D21C226335","name":"青衣邨宜業樓 (TY212)","lat":"22.354345","long":"114.102443"},{"id":"A454170B2B59B587","name":"綠悠雅苑 (TY215)","lat":"22.352641","long":"114.105149"},{"id":"973EBE6A3543C701","name":"翠怡花園 (TY240)","lat":"22.351555","long":"114.107871"},{"id":"AB87BD2749FFEACA","name":"長青邨青梅樓 (TY251)","lat":"22.350044","long":"114.106997"},{"id":"D0BE5E470FE2AD0B","name":"長康邨康富樓 (TY252)","lat":"22.350508","long":"114.105682"},{"id":"67F3E54FF145BA65","name":"長康邨康豐樓 (TY255)","lat":"22.350826","long":"114.101846"},{"id":"F02CE37AD01DF17E","name":"長康邨康祥樓 (TY256)","lat":"22.349964","long":"114.100818"},{"id":"3A9EE9221AB3E27C","name":"青盛苑 (TY317)","lat":"22.348985","long":"114.103555"},{"id":"7192051038B36F08","name":"長青巴士總站 (TY319)","lat":"22.348183","long":"114.106781"},{"id":"1A37A52F97A04C81","name":"長青邨青槐樓 (TY327)","lat":"22.345714","long":"114.107914"},{"id":"CA60760D2303E6D0","name":"長青邨青桃樓 (TY332)","lat":"22.345004","long":"114.109689"},{"id":"06C9926B2E2B304F","name":"紅隧轉車站 (A6) (HH503)","lat":"22.303077","long":"114.180907"},{"id":"76B4054F2E1F00B0","name":"邊寧頓街 (WC250)","lat":"22.278744","long":"114.185975"},{"id":"17B98BD1165A7B92","name":"維多利亞公園 (ED310)","lat":"22.280958","long":"114.189949"}],"routeId":"R948","description":"正常班次"}]