[{"company":"kmb","route":"R948","routeType":"1","dir":"O","orig":"青衣(長宏邨)","dest":"銅鑼灣(維多利亞公園)","stopList":[{"id":"79842A7E2FC0844F","name":"長宏巴士總站","lat":"22.357376","long":"114.096235"},{"id":"FF5CF18C5510B901","name":"長亨邨商場","lat":"22.354299","long":"114.097567"},{"id":"7E50BA0974C3B983","name":"長亨邨","lat":"22.353376","long":"114.098675"},{"id":"00EC5193F83C6F76","name":"青衣轉車站 - 長安總站 (A5)","lat":"22.361544","long":"114.102887"},{"id":"4E870B220826BEE0","name":"楓樹窩體育館","lat":"22.355604","long":"114.102353"},{"id":"5AD2A4D21C226335","name":"青衣邨宜業樓","lat":"22.354345","long":"114.102443"},{"id":"A454170B2B59B587","name":"綠悠雅苑","lat":"22.352641","long":"114.105149"},{"id":"973EBE6A3543C701","name":"翠怡花園","lat":"22.351555","long":"114.107871"},{"id":"AB87BD2749FFEACA","name":"長青邨青梅樓","lat":"22.350044","long":"114.106997"},{"id":"D0BE5E470FE2AD0B","name":"長康邨康富樓","lat":"22.350508","long":"114.105682"},{"id":"67F3E54FF145BA65","name":"長康邨康豐樓","lat":"22.350826","long":"114.101846"},{"id":"F02CE37AD01DF17E","name":"長康邨康祥樓","lat":"22.349964","long":"114.100818"},{"id":"3A9EE9221AB3E27C","name":"青盛苑","lat":"22.348985","long":"114.103555"},{"id":"7192051038B36F08","name":"長青巴士總站","lat":"22.348183","long":"114.106781"},{"id":"1A37A52F97A04C81","name":"長青邨青槐樓","lat":"22.345714","long":"114.107914"},{"id":"CA60760D2303E6D0","name":"長青邨青桃樓","lat":"22.345004","long":"114.109689"},{"id":"06C9926B2E2B304F","name":"紅隧轉車站 (A6)","lat":"22.303077","long":"114.180907"},{"id":"76B4054F2E1F00B0","name":"邊寧頓街","lat":"22.278744","long":"114.185975"},{"id":"17B98BD1165A7B92","name":"維多利亞公園","lat":"22.280958","long":"114.189949"}],"routeId":"R948","description":"正常班次"},{"company":"ctb","route":"R948","routeType":null,"dir":"O","orig":"青衣 (長宏邨)","dest":"銅鑼灣 (維多利亞公園)","stopList":[{"id":"003319","name":"長宏邨","lat":"22.357352502091","long":"114.09614481053"},{"id":"003320","name":"長亨邨商場, 寮肚路","lat":"22.354095012091","long":"114.09754082053"},{"id":"002005","name":"長亨邨, 青衣西路","lat":"22.353983202091","long":"114.09901248053"},{"id":"003108","name":"長安邨","lat":"22.361614492091","long":"114.10334104053"},{"id":"003109","name":"楓樹窩體育館, 楓樹窩路","lat":"22.355774492091","long":"114.10227707053"},{"id":"003110","name":"青衣邨宜業樓, 楓樹窩路","lat":"22.353930342091","long":"114.10238967053"},{"id":"003111","name":"綠悠雅苑, 楓樹窩路","lat":"22.352617712091","long":"114.10515363053"},{"id":"003112","name":"翠怡花園, 青衣鄉事會路","lat":"22.351573222091","long":"114.10786171053"},{"id":"003113","name":"長青邨青梅樓, 涌美路","lat":"22.350119882091","long":"114.10698398053"},{"id":"003114","name":"長康邨康富樓, 涌美路","lat":"22.350456982091","long":"114.10563934053"},{"id":"003115","name":"長康邨康豐樓, 涌美路","lat":"22.350882442091","long":"114.10184093053"},{"id":"003116","name":"長康邨康祥樓, 涌美路","lat":"22.349880032091","long":"114.10074011053"},{"id":"003117","name":"青盛苑, 青康路","lat":"22.349030072091","long":"114.10343268053"},{"id":"003118","name":"長青邨, 青康路","lat":"22.348155322091","long":"114.10672938053"},{"id":"003119","name":"長青邨青槐樓, 青康路","lat":"22.345828512091","long":"114.10787335053"},{"id":"003138","name":"長青邨青桃樓, 青衣路","lat":"22.345164902091","long":"114.10983153053"},{"id":"001476","name":"海底隧道巴士轉乘站","lat":"22.303015922091","long":"114.18084154053"},{"id":"002474","name":"邊寧頓街","lat":"22.278458822091","long":"114.18603081053"},{"id":"001213","name":"維多利亞公園, 高士威道","lat":"22.281133262091","long":"114.19006592053"}],"routeId":"R948","description":"正常班次"}]