[{"company":"ctb","route":"R962","routeType":null,"dir":"O","orig":"屯門 (龍門居)","dest":"銅鑼灣 (摩頓台)","stopList":[{"id":"003852","name":"業旺邨, 天后路","lat":"22.388118912091","long":"113.97007174053"},{"id":"001935","name":"富健花園, 龍門路","lat":"22.383682272091","long":"113.96454509053"},{"id":"001936","name":"新屯門中心, 龍門路","lat":"22.382282552091","long":"113.96386549053"},{"id":"001937","name":"兆山苑, 龍門路","lat":"22.377683392091","long":"113.96164627053"},{"id":"002008","name":"蝴蝶邨蝶心樓, 湖翠路","lat":"22.374343712091","long":"113.96200785053"},{"id":"002009","name":"湖景邨湖碧樓, 湖翠路","lat":"22.373490332091","long":"113.96447831053"},{"id":"002011","name":"湖景邨湖畔樓, 湖景路","lat":"22.374598372091","long":"113.96566277053"},{"id":"002012","name":"湖景邨湖翠樓, 湖景路","lat":"22.376824242091","long":"113.96628250053"},{"id":"002034","name":"屯門中央廣場, 海榮路","lat":"22.381099242091","long":"113.97217623053"},{"id":"001922","name":"老鼠洲兒童遊樂場, 海榮路","lat":"22.382870572091","long":"113.97629109053"},{"id":"001885","name":"三聖邨, 青山公路","lat":"22.381796872091","long":"113.97878411053"},{"id":"001886","name":"青山灣, 青山公路","lat":"22.378968672091","long":"113.98070427053"},{"id":"001887","name":"海景花園, 青山公路","lat":"22.377714962091","long":"113.98373810053"},{"id":"001888","name":"咖啡灣, 青山公路","lat":"22.375547652091","long":"113.98612562053"},{"id":"001889","name":"黃金泳灘, 青山公路","lat":"22.373768332091","long":"113.99066569053"},{"id":"001890","name":"香港黃金海岸, 青山公路","lat":"22.371958012091","long":"113.99360308053"},{"id":"003484","name":"掃管笏","lat":"22.371838802091","long":"114.00360027053"},{"id":"003543","name":"NAPA, 掃管笏路","lat":"22.374301082091","long":"114.00222662053"},{"id":"003485","name":"星堤, 掃管笏路","lat":"22.375540622091","long":"113.99951058053"},{"id":"003486","name":"管翠路, 掃管笏路","lat":"22.374961652091","long":"113.99752248053"},{"id":"003487","name":"愛琴海岸, 掃管笏路","lat":"22.371349122091","long":"113.99523908053"},{"id":"001891","name":"嘉和里村, 青山公路","lat":"22.369464482091","long":"113.99535738053"},{"id":"001892","name":"小秀村, 青山公路","lat":"22.368120842091","long":"113.99915158053"},{"id":"002048","name":"愛琴灣, 青山公路","lat":"22.366255022091","long":"114.00334253053"},{"id":"002049","name":"小欖新村, 青山公路","lat":"22.366366032091","long":"114.00640610053"},{"id":"001893","name":"小欖村, 青山公路","lat":"22.366295772091","long":"114.01120932053"},{"id":"001894","name":"澄麗路, 青山公路","lat":"22.364976592091","long":"114.01332304053"},{"id":"001476","name":"海底隧道巴士轉乘站","lat":"22.303015922091","long":"114.18084154053"},{"id":"002474","name":"邊寧頓街","lat":"22.278458822091","long":"114.18603081053"},{"id":"002535","name":"聖保祿醫院, 銅鑼灣道","lat":"22.278919992091","long":"114.18806171053"},{"id":"002536","name":"銅鑼灣 (摩頓台)","lat":"22.278739572091","long":"114.18998843053"}],"routeId":"R962","description":"正常班次"}]