[{"company":"ctb","route":"R962","routeType":null,"dir":"O","orig":"屯門 (龍門居)","dest":"銅鑼灣 (摩頓台)","stopList":[{"id":"003852","name":"業旺邨, 天后路","lat":"22.388119","long":"113.970072"},{"id":"001935","name":"富健花園, 龍門路","lat":"22.383682","long":"113.964545"},{"id":"001936","name":"新屯門中心, 龍門路","lat":"22.382283","long":"113.963865"},{"id":"001937","name":"兆山苑, 龍門路","lat":"22.377683","long":"113.961646"},{"id":"002008","name":"蝴蝶邨蝶心樓, 湖翠路","lat":"22.374344","long":"113.962008"},{"id":"002009","name":"湖景邨湖碧樓, 湖翠路","lat":"22.373490","long":"113.964478"},{"id":"002011","name":"湖景邨湖畔樓, 湖景路","lat":"22.374598","long":"113.965663"},{"id":"002012","name":"湖景邨湖翠樓, 湖景路","lat":"22.376824","long":"113.966283"},{"id":"002034","name":"屯門中央廣場, 海榮路","lat":"22.381099","long":"113.972176"},{"id":"001922","name":"老鼠洲兒童遊樂場, 海榮路","lat":"22.382871","long":"113.976291"},{"id":"001885","name":"三聖邨, 青山公路","lat":"22.381331","long":"113.979111"},{"id":"001886","name":"青山灣泳灘, 青山公路","lat":"22.378969","long":"113.980704"},{"id":"001887","name":"海景花園, 青山公路","lat":"22.377852","long":"113.983532"},{"id":"001888","name":"咖啡灣, 青山公路","lat":"22.375081","long":"113.986613"},{"id":"001889","name":"黃金泳灘, 青山公路","lat":"22.373687","long":"113.991402"},{"id":"001890","name":"香港黃金海岸, 青山公路","lat":"22.371958","long":"113.993603"},{"id":"003484","name":"掃管笏","lat":"22.372204","long":"114.003537"},{"id":"003543","name":"NAPA, 掃管笏路","lat":"22.374301","long":"114.002227"},{"id":"003485","name":"星堤, 掃管笏路","lat":"22.375541","long":"113.999511"},{"id":"003486","name":"管翠路, 掃管笏路","lat":"22.374962","long":"113.997522"},{"id":"003487","name":"愛琴海岸, 掃管笏路","lat":"22.371349","long":"113.995239"},{"id":"001891","name":"嘉和里村, 青山公路","lat":"22.369464","long":"113.995357"},{"id":"001892","name":"小秀村, 青山公路","lat":"22.368121","long":"113.999152"},{"id":"002048","name":"愛琴灣, 青山公路","lat":"22.366255","long":"114.003343"},{"id":"002049","name":"小欖新村, 青山公路","lat":"22.366366","long":"114.006406"},{"id":"001893","name":"小欖村, 青山公路","lat":"22.366296","long":"114.011209"},{"id":"001894","name":"澄麗路, 青山公路","lat":"22.364977","long":"114.013323"},{"id":"001476","name":"海底隧道巴士轉乘站","lat":"22.303016","long":"114.180842"},{"id":"002474","name":"邊寧頓街","lat":"22.278459","long":"114.186031"},{"id":"002535","name":"聖保祿醫院, 銅鑼灣道","lat":"22.278920","long":"114.188062"},{"id":"002536","name":"銅鑼灣 (摩頓台)","lat":"22.278740","long":"114.189988"}],"routeId":"R962","description":"正常班次"}]