[{"company":"kmb","route":"S1","routeType":"1","dir":"O","orig":"東涌站","dest":"機場(循環線)","stopList":[{"id":"E2BB3825832556CA","name":"東涌站巴士總站","lat":"22.289823","long":"113.940038"},{"id":"77D21A8395AAC001","name":"飛機燃料庫","lat":"22.293397","long":"113.932080"},{"id":"D3B54388E91DAB57","name":"民航處總部","lat":"22.304474","long":"113.939770"},{"id":"C05A618A6C13350B","name":"暢達路(一號客運大樓)(南)","lat":"22.314547","long":"113.936454"},{"id":"20AEF0F80E06013D","name":"暢達路(一號客運大樓)(北)","lat":"22.316879","long":"113.935826"},{"id":"9DCBD34740D95B23","name":"富豪機場酒店","lat":"22.319405","long":"113.934091"},{"id":"9C9F817064169CE7","name":"機場博覽館","lat":"22.319407","long":"113.940447"},{"id":"E48E4C46F64FFB0E","name":"航天城交匯處","lat":"22.317172","long":"113.943407"},{"id":"5B8A639645E2BC49","name":"民航處總部","lat":"22.303701","long":"113.938659"},{"id":"57DB1124DEF92894","name":"飛機燃料庫","lat":"22.293446","long":"113.932363"},{"id":"89A83934270E9BFB","name":"東涌纜車站","lat":"22.289324","long":"113.938822"},{"id":"E2BB3825832556CA","name":"東涌站巴士總站","lat":"22.289823","long":"113.940038"}],"routeId":"S1","description":"正常班次"},{"company":"ctb","route":"S1","routeType":null,"dir":"O","orig":"東涌站","dest":"機場 (一號客運大樓／博覽館)","stopList":[{"id":"001860","name":"東涌站","lat":"22.289530742091","long":"113.94050290053"},{"id":"001846","name":"飛機燃料庫, 觀景路","lat":"22.293374192091","long":"113.93210167053"},{"id":"003588","name":"民航處總部, 東耀路","lat":"22.304047462091","long":"113.93958139053"},{"id":"003395","name":"一號客運大樓(南), 暢達路","lat":"22.314692162091","long":"113.93649556053"},{"id":"001834","name":"一號客運大樓(北), 暢達路","lat":"22.316527602091","long":"113.93581499053"},{"id":"001836","name":"富豪機場酒店,  暢達路","lat":"22.319353342091","long":"113.93396777053"},{"id":"002672","name":"機場博覽館, 航展道","lat":"22.319382992091","long":"113.94047324053"},{"id":"003304","name":"香港天際萬豪酒店, 航天城東路","lat":"22.318241672091","long":"113.94319755053"},{"id":"001868","name":"民航處總部, 東輝路","lat":"22.303667692091","long":"113.93862329053"},{"id":"001847","name":"飛機燃料庫, 觀景路","lat":"22.293103912091","long":"113.93217964053"},{"id":"001858","name":"東涌纜車站, 達東路","lat":"22.289058372091","long":"113.93864113053"},{"id":"001860","name":"東涌站","lat":"22.289530742091","long":"113.94050290053"}],"routeId":"S1","description":"正常班次"}]