[{"company":"ctb","route":"S52P","routeType":null,"dir":"O","orig":"東涌 (逸東邨)","dest":"駿坪路 (亞洲空運中心)","stopList":[{"id":"001870","name":"逸東邨","lat":"22.282152","long":"113.935631"},{"id":"001873","name":"北大嶼山醫院, 松仁路","lat":"22.281766","long":"113.938857"},{"id":"001856","name":"東涌消防局, 順東路","lat":"22.286160","long":"113.941029"},{"id":"001855","name":"東堤灣畔, 順東路","lat":"22.287018","long":"113.939759"},{"id":"001860","name":"東涌站","lat":"22.289531","long":"113.940503"},{"id":"001846","name":"飛機燃料庫, 觀景路","lat":"22.293374","long":"113.932102"},{"id":"001845","name":"國泰城, 駿明路","lat":"22.297630","long":"113.932869"},{"id":"001872","name":"駿運南路, 駿運路","lat":"22.296308","long":"113.928282"},{"id":"001838","name":"機場空運中心, 駿運路","lat":"22.295103","long":"113.924538"},{"id":"001842","name":"亞洲空運中心, 駿坪路","lat":"22.295849","long":"113.920821"},{"id":"001839","name":"機場空運中心, 駿運路","lat":"22.294955","long":"113.923314"},{"id":"001863","name":"香港空運貨站, 駿運路","lat":"22.297087","long":"113.929846"},{"id":"001844","name":"國泰城, 觀景路","lat":"22.297636","long":"113.933319"},{"id":"001847","name":"飛機燃料庫, 觀景路","lat":"22.293104","long":"113.932180"},{"id":"001869","name":"東堤灣畔, 順東路","lat":"22.287312","long":"113.939735"},{"id":"001857","name":"裕東苑, 順東路","lat":"22.286237","long":"113.941271"},{"id":"001874","name":"逸東邨美逸樓, 松仁路","lat":"22.281620","long":"113.938647"},{"id":"002589","name":"逸東邨居逸樓, 逸東街","lat":"22.282598","long":"113.936785"}],"routeId":"S52P","description":"正常班次"}]