[{"company":"kmb","route":"SP3","routeType":"1","dir":"O","orig":"啟德體育園","dest":"青富苑","stopList":[{"id":"CF2AA9B99A043548","name":"啟德體育園","lat":"22.322875","long":"114.193579"},{"id":"CF17F8C87DBBF2BC","name":"美孚轉車站 (SS324)","lat":"22.336751","long":"114.139698"},{"id":"246ECB0F3B94855D","name":"葵涌道荔景邨 (KW102)","lat":"22.352823","long":"114.126548"},{"id":"D17DA49D5EFC6DD4","name":"葵芳廣場 (KW103)","lat":"22.357804","long":"114.130111"},{"id":"ABA04608DBB7C351","name":"光輝圍 (KW111)","lat":"22.367785","long":"114.133619"},{"id":"2658CCFAB79763B6","name":"葵涌屏麗徑 (KW405)","lat":"22.367360","long":"114.134946"},{"id":"264B29FD223D9C4E","name":"葵涌打磚坪街 (KW486)","lat":"22.365984","long":"114.136723"},{"id":"3E376000C84807D6","name":"大隴街 (KW495)","lat":"22.365980","long":"114.139090"},{"id":"C84CAD6CCD18F87F","name":"石籬邨石佳樓 (KW204)","lat":"22.364913","long":"114.140057"},{"id":"478ACE8A8C9A2705","name":"石籬天主教小學 (KW207)","lat":"22.366854","long":"114.142021"},{"id":"A13C2C1D5D3EE0D7","name":"石排街石歡樓 (KW209)","lat":"22.368603","long":"114.141870"},{"id":"AE7C79C814E6BD95","name":"裘錦秋中學 (KW215)","lat":"22.369340","long":"114.140828"},{"id":"C5294C92C5C6E334","name":"石蔭東邨 (KW218)","lat":"22.372104","long":"114.139645"},{"id":"FCBCC90E0ECE4F58","name":"石蔭邨 (KW222)","lat":"22.371910","long":"114.138670"},{"id":"257A6E19DD7F156C","name":"和宜合道運動場 (TW490)","lat":"22.373954","long":"114.136349"},{"id":"28A57C043C111604","name":"石圍角新村 (TW493)","lat":"22.375875","long":"114.136250"},{"id":"F82CDE4D15A43CA3","name":"梨木樹邨 (TW495)","lat":"22.378515","long":"114.137270"},{"id":"DEDD6247441C8C05","name":"可風中學 (TW496)","lat":"22.380167","long":"114.135129"},{"id":"B1D6CA16EE22225D","name":"象山邨秀山樓 (TW415)","lat":"22.378878","long":"114.131633"},{"id":"3B54D43994CAC165","name":"三棟屋村 (TW510)","lat":"22.379816","long":"114.129569"},{"id":"D9655458715EBBF8","name":"海壩村 (TW515)","lat":"22.378954","long":"114.127632"},{"id":"8374DD78C287D9A7","name":"石圍角邨石葵樓 (TW521)","lat":"22.375852","long":"114.124790"},{"id":"D5252DAD51812506","name":"石圍角邨石荷樓 (TW522)","lat":"22.374513","long":"114.122837"},{"id":"09DF70F8DE2426BE","name":"蕙荃體育館 (TW530)","lat":"22.373029","long":"114.122402"},{"id":"5AF593F7A11180E2","name":"荃灣眾安街 (TW139)","lat":"22.371566","long":"114.118883"},{"id":"3F545756160D7BEA","name":"福來邨永康樓 (TW151)","lat":"22.374433","long":"114.113771"},{"id":"B2C63864D1C98F56","name":"大涌道福來邨 (TW323)","lat":"22.374014","long":"114.111383"},{"id":"033CB7A21D6DC60C","name":"祈德尊新邨 (TW326)","lat":"22.371342","long":"114.109806"},{"id":"36880B47F043D519","name":"青衣轉車站 - 長安總站 (TY901)","lat":"22.361381","long":"114.102837"},{"id":"4E870B220826BEE0","name":"楓樹窩體育館 (TY211)","lat":"22.355604","long":"114.102353"},{"id":"5AD2A4D21C226335","name":"青衣邨宜業樓 (TY212)","lat":"22.354345","long":"114.102443"},{"id":"A454170B2B59B587","name":"綠悠雅苑 (TY215)","lat":"22.352641","long":"114.105149"},{"id":"D6E7412666B1175B","name":"翠怡花園 (TY242)","lat":"22.351712","long":"114.107879"},{"id":"AB87BD2749FFEACA","name":"長青邨青梅樓 (TY251)","lat":"22.350044","long":"114.106997"},{"id":"43398296F1D1BD48","name":"長康邨康富樓 (TY253)","lat":"22.350407","long":"114.105638"},{"id":"67F3E54FF145BA65","name":"長康邨康豐樓 (TY255)","lat":"22.350826","long":"114.101846"},{"id":"F93448A5F1168FB1","name":"長康邨康祥樓 (TY314)","lat":"22.349570","long":"114.101158"},{"id":"DFB7FD5832A4BA4E","name":"青盛苑 (TY316)","lat":"22.348985","long":"114.103555"},{"id":"0F60AAE48C3B22EE","name":"長青巴士總站 (TY320)","lat":"22.348166","long":"114.106866"},{"id":"0CFB814CB6C356C1","name":"長青邨青槐樓 (TY323)","lat":"22.345830","long":"114.107927"},{"id":"5B5107DB7CE969DE","name":"青富商場 (TY102)","lat":"22.343103","long":"114.107800"},{"id":"333E9F98EEB84849","name":"青富苑 (TY107)","lat":"22.341387","long":"114.106943"}],"routeId":"SP3","description":"正常班次"}]