[{"company":"kmb","route":"SP7","routeType":"1","dir":"O","orig":"啟德體育園","dest":"上水","stopList":[{"id":"6F9ED75E419D6BAA","name":"啟德體育園","lat":"22.322875","long":"114.193579"},{"id":"9274EF6791CA3ED8","name":"大老山隧道 (B1) (ST113)","lat":"22.376864","long":"114.211807"},{"id":"E8F5E085BAEFE100","name":"科研路 (PA124)","lat":"22.426628","long":"114.208027"},{"id":"79FD1B44D37205B8","name":"雲滙 (PA127)","lat":"22.429561","long":"114.203338"},{"id":"369A5601F8A63B5E","name":"白石角 (PA129)","lat":"22.431492","long":"114.201512"},{"id":"A339426A8F633D63","name":"白石角變電站 (PA130)","lat":"22.433895","long":"114.200812"},{"id":"11B658F68A9F577C","name":"廣福邨　 (TP265)","lat":"22.446299","long":"114.173076"},{"id":"0A8E2BA2F75E472E","name":"大埔超級城 (TP390)","lat":"22.451004","long":"114.170088"},{"id":"18E4449F4C5CE30B","name":"太和邨亨和樓 (TP392)","lat":"22.452199","long":"114.163197"},{"id":"14BDB94A8F3ED3EC","name":"花都廣場 (ND391)","lat":"22.485231","long":"114.142756"},{"id":"D0FB28B8EED62431","name":"欣盛苑 (ND395)","lat":"22.487155","long":"114.140452"},{"id":"9D388587636920DA","name":"粉嶺站轉車站 - 蓬瀛仙館 (D2)","lat":"22.491000","long":"114.138482"},{"id":"ADB9356BBF06F7C7","name":"嘉盛苑 (ND401)","lat":"22.492093","long":"114.133240"},{"id":"8E3F5AE0A97053F9","name":"華慧園 (ND403)","lat":"22.495493","long":"114.130967"},{"id":"A7CE931D8AA9E7F6","name":"上水轉車站 - 上水總站(A1)","lat":"22.502529","long":"114.127680"}],"routeId":"SP7","description":"正常班次"}]