[{"company":"kmb","route":"T80","routeType":"1","dir":"O","orig":"美田","dest":"九龍灣","stopList":[{"id":"E1F73A6B69F39365","name":"美田巴士總站 (TA972)","lat":"22.376324","long":"114.170565"},{"id":"02D4D2C0C430EAD0","name":"美田邨美致樓 (TA160)","lat":"22.377071","long":"114.171768"},{"id":"460D29054B1D54B1","name":"美林巴士總站 (TA964)","lat":"22.377689","long":"114.175003"},{"id":"60F6F482EFA8FE18","name":"大圍街市 (TA332)","lat":"22.373676","long":"114.177158"},{"id":"A66159E033DDEA04","name":"大圍轉車站 - 大圍站 (F1)","lat":"22.372606","long":"114.180304"},{"id":"C92E80A5D7E0E8EC","name":"車公廟 (TA127)","lat":"22.374668","long":"114.184164"},{"id":"52B02EAC7AAB23C1","name":"秦石邨 (TA129)","lat":"22.374551","long":"114.186748"},{"id":"B9EE83CA8ABB578B","name":"乙明邨街 (ST200)","lat":"22.376165","long":"114.191545"},{"id":"6CDAC4513AD44DB7","name":"沙角邨 (ST212)","lat":"22.377292","long":"114.194775"},{"id":"72936E1AD7A19462","name":"崗背街休憩花園 (ST223)","lat":"22.378981","long":"114.197357"},{"id":"30D564180B68ECA8","name":"大老山隧道 (A2) (ST791)","lat":"22.377526","long":"114.212311"},{"id":"F8D908466E28E9C2","name":"觀塘駿業街 (KT571)","lat":"22.309844","long":"114.221264"},{"id":"70CD99F4D487740A","name":"觀塘巧明街 (KT572)","lat":"22.313431","long":"114.217776"},{"id":"992F89F2265F8D8D","name":"觀塘順業街 (KT573)","lat":"22.315896","long":"114.214922"},{"id":"8CCC6A9A25E82BCF","name":"德福花園 (偉業街)","lat":"22.322989","long":"114.211435"}],"routeId":"T80","description":"正常班次"},{"company":"kmb","route":"T80","routeType":"2","dir":"O","orig":"顯徑","dest":"九龍灣","stopList":[{"id":"09AC1B6D147CA643","name":"顯徑巴士總站 (TA932)","lat":"22.362680","long":"114.170968"},{"id":"1D13B640481F4CD1","name":"顯徑邨顯慶樓 (TA560)","lat":"22.364032","long":"114.173908"},{"id":"AC2A4AB84E52364C","name":"顯徑邨顯沛樓 (TA563)","lat":"22.365267","long":"114.175018"},{"id":"F3D3D5E7F698B748","name":"隆亨邨 (TA574)","lat":"22.368855","long":"114.178602"},{"id":"B11E10F012C57433","name":"大圍轉車站 - 新翠邨 (C3)","lat":"22.370095","long":"114.179707"},{"id":"A66159E033DDEA04","name":"大圍轉車站 - 大圍站 (F1)","lat":"22.372606","long":"114.180304"},{"id":"C92E80A5D7E0E8EC","name":"車公廟 (TA127)","lat":"22.374668","long":"114.184164"},{"id":"52B02EAC7AAB23C1","name":"秦石邨 (TA129)","lat":"22.374551","long":"114.186748"},{"id":"B9EE83CA8ABB578B","name":"乙明邨街 (ST200)","lat":"22.376165","long":"114.191545"},{"id":"6CDAC4513AD44DB7","name":"沙角邨 (ST212)","lat":"22.377292","long":"114.194775"},{"id":"72936E1AD7A19462","name":"崗背街休憩花園 (ST223)","lat":"22.378981","long":"114.197357"},{"id":"30D564180B68ECA8","name":"大老山隧道 (A2) (ST791)","lat":"22.377526","long":"114.212311"},{"id":"F8D908466E28E9C2","name":"觀塘駿業街 (KT571)","lat":"22.309844","long":"114.221264"},{"id":"70CD99F4D487740A","name":"觀塘巧明街 (KT572)","lat":"22.313431","long":"114.217776"},{"id":"992F89F2265F8D8D","name":"觀塘順業街 (KT573)","lat":"22.315896","long":"114.214922"},{"id":"8CCC6A9A25E82BCF","name":"德福花園 (偉業街)","lat":"22.322989","long":"114.211435"}],"routeId":"T80","description":"特別班次"}]