[{"company":"kmb","route":"W2","routeType":"1","dir":"O","orig":"佐敦(西九龍站)","dest":"觀塘(循環線)","stopList":[{"id":"40D067F126426DC6","name":"佐敦(西九龍站)巴士總站 (YT957)","lat":"22.307550","long":"114.164551"},{"id":"AC8828CF13B8AA49","name":"西九龍站 (YT282)","lat":"22.304014","long":"114.166620"},{"id":"6085C420AB7E6FF9","name":"佐敦道西九龍站 (YT240)","lat":"22.306180","long":"114.166315"},{"id":"4C49804674904130","name":"上海街 廟街夜市 (YT246)","lat":"22.305631","long":"114.169025"},{"id":"8864CF7D3E4B1EF6","name":"佐敦志和街 (YT250)","lat":"22.305886","long":"114.172499"},{"id":"BE27F066CF40DF7D","name":"啟隧轉車站-啟福道 (KT100)","lat":"22.322242","long":"114.204425"},{"id":"07521BB848913F74","name":"九龍灣宏通街 (KT101)","lat":"22.319534","long":"114.207613"},{"id":"DA0947682FC19B0B","name":"藍田站 (LT910)","lat":"22.306525","long":"114.233772"},{"id":"2EF9764BE18FC290","name":"藍田站 (LT607)","lat":"22.305354","long":"114.234128"},{"id":"5CCBD9A6B58BF20D","name":"九龍佑寧堂 (YT670)","lat":"22.305649","long":"114.172574"},{"id":"E049C81469E2B3C0","name":"白加士街 廟街夜市 (YT671)","lat":"22.305172","long":"114.170361"},{"id":"FD1B403FD4EC3E8D","name":"佐敦炮台街 (YT674)","lat":"22.305617","long":"114.168054"},{"id":"4DB8054CDFBB9E43","name":"西九龍站 (YT280)","lat":"22.304171","long":"114.166525"},{"id":"40D067F126426DC6","name":"佐敦(西九龍站)巴士總站 (YT957)","lat":"22.307550","long":"114.164551"}],"routeId":"W2","description":"正常班次"},{"company":"kmb","route":"W2","routeType":"2","dir":"O","orig":"佐敦(西九龍站)","dest":"麗港公園","stopList":[{"id":"40D067F126426DC6","name":"佐敦(西九龍站)巴士總站 (YT957)","lat":"22.307550","long":"114.164551"},{"id":"AC8828CF13B8AA49","name":"西九龍站 (YT282)","lat":"22.304014","long":"114.166620"},{"id":"6085C420AB7E6FF9","name":"佐敦道西九龍站 (YT240)","lat":"22.306180","long":"114.166315"},{"id":"4C49804674904130","name":"上海街 廟街夜市 (YT246)","lat":"22.305631","long":"114.169025"},{"id":"8864CF7D3E4B1EF6","name":"佐敦志和街 (YT250)","lat":"22.305886","long":"114.172499"},{"id":"BE27F066CF40DF7D","name":"啟隧轉車站-啟福道 (KT100)","lat":"22.322242","long":"114.204425"},{"id":"07521BB848913F74","name":"九龍灣宏通街 (KT101)","lat":"22.319534","long":"114.207613"},{"id":"DA0947682FC19B0B","name":"藍田站 (LT910)","lat":"22.306525","long":"114.233772"},{"id":"2EF9764BE18FC290","name":"藍田站 (LT607)","lat":"22.305354","long":"114.234128"}],"routeId":"W2","description":"特別班次"},{"company":"kmb","route":"W2","routeType":"3","dir":"O","orig":"創紀之城","dest":"佐敦(西九龍站)","stopList":[{"id":"DA0947682FC19B0B","name":"藍田站 (LT910)","lat":"22.306525","long":"114.233772"},{"id":"2EF9764BE18FC290","name":"藍田站 (LT607)","lat":"22.305354","long":"114.234128"},{"id":"5CCBD9A6B58BF20D","name":"九龍佑寧堂 (YT670)","lat":"22.305649","long":"114.172574"},{"id":"E049C81469E2B3C0","name":"白加士街 廟街夜市 (YT671)","lat":"22.305172","long":"114.170361"},{"id":"FD1B403FD4EC3E8D","name":"佐敦炮台街 (YT674)","lat":"22.305617","long":"114.168054"},{"id":"4DB8054CDFBB9E43","name":"西九龍站 (YT280)","lat":"22.304171","long":"114.166525"},{"id":"40D067F126426DC6","name":"佐敦(西九龍站)巴士總站 (YT957)","lat":"22.307550","long":"114.164551"}],"routeId":"W2","description":"特別班次"}]