[{"company":"kmb","route":"W4","routeType":"1","dir":"O","orig":"高鐵(西九龍站)","dest":"西九文化區 ‧ 尖沙咀 ‧ 高鐵站","stopList":[{"id":"1A0F813116024D92","name":"高鐵(西九龍站) (YT290)","lat":"22.303513","long":"114.166393"},{"id":"89A8085A1605FDB4","name":"佐敦道,高鐵站 (YT676)","lat":"22.306354","long":"114.164444"},{"id":"0CC0B21EFF42EE19","name":"柯士甸道西 (YT262)","lat":"22.302367","long":"114.160048"},{"id":"B3E70C6DEFD93416","name":"M+ (YT265)","lat":"22.301510","long":"114.158190"},{"id":"C50C67D1BFF70DDF","name":"香港故宮文化博物館 (YT271)","lat":"22.301502","long":"114.156253"},{"id":"5F60283656DF3016","name":"廣東道,新港中心 (YT205)","lat":"22.297488","long":"114.168979"},{"id":"F57E1173086C7A51","name":"廣東道,北京道 (YT207)","lat":"22.295621","long":"114.169362"},{"id":"576538E1395C8508","name":"尖東站 K11 MUSEA (YT215)","lat":"22.295226","long":"114.174647"},{"id":"1864222D8939BD69","name":"永安廣場 星光大道 (YT218)","lat":"22.296522","long":"114.176660"},{"id":"C650BECDAF9D9EB0","name":"永安廣場 星光大道 (YT629)","lat":"22.296416","long":"114.177000"},{"id":"E3A083E4F64D93CD","name":"九龍公園徑 (YT640)","lat":"22.295997","long":"114.170136"},{"id":"2EEB9CB69FB6A58D","name":"中港城 戲曲中心 (YT645)","lat":"22.300341","long":"114.168095"},{"id":"2048D5E82DD83B2E","name":"柯士甸道西 (YT262)","lat":"22.302367","long":"114.160048"},{"id":"4C69321ABBC7093F","name":"M+ (YT265)","lat":"22.301510","long":"114.158190"},{"id":"74553C232C1FF6CF","name":"香港故宮文化博物館 (YT271)","lat":"22.301502","long":"114.156253"},{"id":"1A0F813116024D92","name":"高鐵(西九龍站) (YT290)","lat":"22.303513","long":"114.166393"}],"routeId":"W4","description":"正常班次"}]