[{"company":"nlb","route":"X11R","routeType":null,"dir":null,"orig":"東涌世茂喜來登酒店","dest":"大澳","stopList":[{"id":"333","name":"東涌世茂喜來登酒店","lat":"22.295428","long":"113.946732","street":"怡東路","fare":"31.5","fareHoliday":"43.9"},{"id":"77","name":"東涌消防局","lat":"22.286030","long":"113.941057","street":"順東路","fare":"31.5","fareHoliday":"43.9"},{"id":"288","name":"伯公坳","lat":"22.248939","long":"113.942597","street":"東涌道","fare":"31.5","fareHoliday":"43.9"},{"id":"26","name":"上長沙泳灘","lat":"22.230877","long":"113.941525","street":"嶼南道","fare":"31.5","fareHoliday":"43.9"},{"id":"41","name":"沙咀","lat":"22.228328","long":"113.890600","street":"姜山道","fare":"31.5","fareHoliday":"43.9"},{"id":"55","name":"大澳","lat":"22.252783","long":"113.862160","street":"大澳道","fare":"31.5","fareHoliday":"43.9"}],"routeId":"108","description":"正常班次"},{"company":"nlb","route":"X11R","routeType":null,"dir":null,"orig":"大澳","dest":"東涌世茂喜來登酒店","stopList":[{"id":"221","name":"大澳","lat":"22.252783","long":"113.862160","street":"大澳道","fare":"31.5","fareHoliday":"43.9"},{"id":"235","name":"沙咀","lat":"22.228503","long":"113.891105","street":"姜山道","fare":"31.5","fareHoliday":"43.9"},{"id":"247","name":"上長沙泳灘","lat":"22.231329","long":"113.941766","street":"嶼南道","fare":"31.5","fareHoliday":"43.9"},{"id":"65","name":"伯公坳","lat":"22.248054","long":"113.943139","street":"東涌道","fare":"31.5","fareHoliday":"43.9"},{"id":"77","name":"東涌消防局","lat":"22.286030","long":"113.941057","street":"順東路","fare":"31.5","fareHoliday":"43.9"},{"id":"78","name":"東涌纜車站","lat":"22.289301","long":"113.938733","street":"達東路","fare":"31.5","fareHoliday":"43.9"},{"id":"334","name":"東涌世茂喜來登酒店","lat":"22.295474","long":"113.946728","street":"怡東路","fare":"31.5","fareHoliday":"43.9"}],"routeId":"109","description":"正常班次"}]