[{"company":"kmb","route":"X33","routeType":"1","dir":"O","orig":"機場博覽館巴士總站","dest":"洪元路洪福邨","stopList":[{"id":"9C9F817064169CE7","name":"機場博覽館","lat":"22.319407","long":"113.940447"},{"id":"4B5144408E60BF11","name":"屯門赤鱲角隧道轉車站 (T2)","lat":"22.369121","long":"113.947704"},{"id":"B651E2A39CD4CC05","name":"蝴蝶灣","lat":"22.375651","long":"113.959226"},{"id":"F734736F35F459DC","name":"蝴蝶站","lat":"22.378219","long":"113.961708"},{"id":"23B913EACE0581E4","name":"新屯門中心","lat":"22.381644","long":"113.963405"},{"id":"C6D5DEF91CB7B581","name":"龍門站","lat":"22.385448","long":"113.965184"},{"id":"4566E35B3D2C20B5","name":"豐景園","lat":"22.383977","long":"113.972905"},{"id":"5055F6D68F0DD49D","name":"翠寧花園","lat":"22.383893","long":"113.974480"},{"id":"4D02E857ADDE8AAF","name":"友愛邨","lat":"22.387886","long":"113.975114"},{"id":"818F12340BA8CA4B","name":"屯門公園","lat":"22.392122","long":"113.975127"},{"id":"D74B67D55C63895F","name":"屯門站總站 (V6)","lat":"22.394975","long":"113.973399"},{"id":"9E1FC92F86D2F4E3","name":"鳴琴站","lat":"22.396585","long":"113.967372"},{"id":"AA239AD010294414","name":"中電","lat":"22.400938","long":"113.968812"},{"id":"284790CC047436BE","name":"台山小學","lat":"22.401251","long":"113.971800"},{"id":"A80A0719C2068B68","name":"大興體育館","lat":"22.403426","long":"113.972576"},{"id":"8667AD096EEED0A8","name":"建生邨樂生樓","lat":"22.404967","long":"113.969095"},{"id":"BA72A994EEF9FABE","name":"新圍苑","lat":"22.405354","long":"113.964209"},{"id":"F8FE29B1FAF8BA77","name":"兆邦苑","lat":"22.407737","long":"113.965662"},{"id":"B26245505565A1E0","name":"寶田轉車站 - 寶田 (T1)","lat":"22.409277","long":"113.967028"},{"id":"88F986C270B16408","name":"和田邨","lat":"22.412897","long":"113.968649"},{"id":"90CFA838B3C95AE0","name":"NOVO LAND","lat":"22.412115","long":"113.970279"},{"id":"3C6FA714F5D6EE83","name":"紫田村","lat":"22.414047","long":"113.973446"},{"id":"2D1C73EF002336DC","name":"欣田邨","lat":"22.414268","long":"113.977171"},{"id":"66C1F17901E91CD9","name":"五柳路","lat":"22.415621","long":"113.979772"},{"id":"8A97896E33AED30C","name":"藍地站","lat":"22.418158","long":"113.981936"},{"id":"54045C861286559E","name":"青磚圍","lat":"22.422507","long":"113.985394"},{"id":"8935A262593E620A","name":"泥圍站","lat":"22.423445","long":"113.986270"},{"id":"E701147EA74E97F2","name":"亦園村","lat":"22.426616","long":"113.989202"},{"id":"CD077FC371E93248","name":"鍾屋村站","lat":"22.429686","long":"113.992324"},{"id":"4CEB8ACF469C6AD5","name":"洪水橋站","lat":"22.433880","long":"113.997787"},{"id":"0C6879C89662708A","name":"洪天路洪福邨","lat":"22.437764","long":"113.998962"},{"id":"DCA166B0A16656DD","name":"洪元路洪福邨","lat":"22.437353","long":"113.996620"}],"routeId":"X33","description":"正常班次"}]