[{"company":"kmb","route":"X43","routeType":"1","dir":"O","orig":"機場博覽館巴士總站","dest":"粉嶺(聯和墟)","stopList":[{"id":"9C9F817064169CE7","name":"機場博覽館","lat":"22.319407","long":"113.940447"},{"id":"8C8191357A7B2C2F","name":"青嶼幹線轉車站 (N7)","lat":"22.339011","long":"114.041587"},{"id":"7D72DDC29E02C14D","name":"大欖隧道轉車站 (B6) (YL231)","lat":"22.420467","long":"114.063572"},{"id":"132D1A664B715A44","name":"新田運輸交匯處 (YL438)","lat":"22.503353","long":"114.081900"},{"id":"F15B04D268DD5C8F","name":"上水站 (ND478)","lat":"22.502004","long":"114.127596"},{"id":"C22372B9DAD0859C","name":"上水廣場","lat":"22.502562","long":"114.127682"},{"id":"B45CD55709BC851E","name":"掃管埔村 (ND175)","lat":"22.499824","long":"114.130338"},{"id":"9B0A34A1BF585BC4","name":"欣翠花園 (ND127)","lat":"22.495511","long":"114.131655"},{"id":"E6D6D7CFDE4D90CF","name":"嘉盛苑 (ND130)","lat":"22.492391","long":"114.133564"},{"id":"EBA831318619FA07","name":"粉嶺置福圍 (ND411)","lat":"22.493014","long":"114.136124"},{"id":"AFD29CB1A4F71AB9","name":"基新中學 (ND132)","lat":"22.491214","long":"114.134960"},{"id":"0AAF9F132CE224F0","name":"粉嶺站轉車站 - 粉嶺站(D1)","lat":"22.490938","long":"114.139024"},{"id":"071AEC9DBAFB7032","name":"景盛苑 (ND137)","lat":"22.487400","long":"114.140608"},{"id":"1B3543ED95A64338","name":"華心邨 (ND140)","lat":"22.485490","long":"114.142806"},{"id":"13E97271E64C885B","name":"塘坑 (ND451)","lat":"22.490691","long":"114.145682"},{"id":"61F3A30772D0913C","name":"粉嶺中心 (ND471)","lat":"22.490874","long":"114.142257"},{"id":"2AC85D87661D5AF6","name":"粉嶺站轉車站 - 粉嶺名都 (B1)","lat":"22.492326","long":"114.140070"},{"id":"D1F2F468672FB541","name":"粉嶺樓 (ND262)","lat":"22.496036","long":"114.141638"},{"id":"BA2B81A1A81DB398","name":"聯和墟球場 (ND264)","lat":"22.497622","long":"114.143210"},{"id":"D44F9DCC71251889","name":"聯和墟總站 (ND966)","lat":"22.500471","long":"114.143622"}],"routeId":"X43","description":"正常班次"}]