[{"company":"kmb","route":"X47","routeType":"1","dir":"O","orig":"機場博覽館巴士總站","dest":"大埔(富亨)","stopList":[{"id":"9C9F817064169CE7","name":"機場博覽館","lat":"22.319407","long":"113.940447"},{"id":"8C8191357A7B2C2F","name":"青嶼幹線轉車站 (N7)","lat":"22.339011","long":"114.041587"},{"id":"156FFE36D7D42EFE","name":"大圍轉車站 - 大圍站 (F2)","lat":"22.372631","long":"114.180352"},{"id":"65F5585B72A99D7F","name":"車公廟 (TA128)","lat":"22.374684","long":"114.184147"},{"id":"94BA372E9FDC87C4","name":"秦石邨 (TA131)","lat":"22.374476","long":"114.186187"},{"id":"A6631CAD2E2DE2A6","name":"文化博物館 (ST104)","lat":"22.377601","long":"114.186323"},{"id":"84FC122EC64D8885","name":"希爾頓中心 (ST161)","lat":"22.379622","long":"114.187141"},{"id":"04EA3349BDD260C8","name":"沙田市中心巴士總站 (ST923)","lat":"22.382420","long":"114.188533"},{"id":"225D34B4D891AFB1","name":"好運中心 (ST168)","lat":"22.383045","long":"114.190303"},{"id":"FC1FCC3EF8D5C544","name":"廣福邨 (TP268)","lat":"22.446293","long":"114.173119"},{"id":"9ACF8C3736E6ABA4","name":"大埔墟站 (TP936)","lat":"22.443620","long":"114.169716"},{"id":"CFFAEEB704CEAD14","name":"大埔廣福道 (TP277)","lat":"22.448090","long":"114.167952"},{"id":"1F672A2CDE7D1F93","name":"大埔寶鄉橋 (TP303)","lat":"22.450024","long":"114.167021"},{"id":"22A5ED4E037CA0A2","name":"大埔安祥路 (TP310)","lat":"22.451730","long":"114.167240"},{"id":"88FF15EF2E1B68A5","name":"大埔中心總站 (TP901)","lat":"22.452896","long":"114.168960"},{"id":"B7CF594A1BE65530","name":"大埔安慈路 (TP743)","lat":"22.452368","long":"114.165370"},{"id":"7A47A23B960DD4FF","name":"太和邨亨和樓 (TP393)","lat":"22.452290","long":"114.162929"},{"id":"638851B5496C1765","name":"大埔公眾泳池 (TP246)","lat":"22.454678","long":"114.164119"},{"id":"437924EA663F3DF6","name":"富亨總站 (TP990)","lat":"22.458245","long":"114.171917"}],"routeId":"X47","description":"正常班次"}]