[{"company":"nlb","route":"XB2","routeType":null,"dir":null,"orig":"元朗港鐵站","dest":"深圳灣口岸(特快)","stopList":[{"id":"161","name":"元朗港鐵站","lat":"22.446189","long":"114.034816","street":"青山公路","fare":"15.8","fareHoliday":"15.8"},{"id":"135","name":"又新街","lat":"22.444308","long":"114.031252","street":"青山公路","fare":"15.8","fareHoliday":"15.8"},{"id":"136","name":"大棠路","lat":"22.444355","long":"114.028255","street":"青山公路","fare":"15.8","fareHoliday":"15.8"},{"id":"137","name":"元朗警署","lat":"22.444383","long":"114.024085","street":"青山公路","fare":"15.8","fareHoliday":"15.8"},{"id":"138","name":"水邊村","lat":"22.444407","long":"114.020781","street":"青山公路","fare":"15.8","fareHoliday":"15.8"},{"id":"139","name":"元朗公園","lat":"22.444117","long":"114.019013","street":"青山公路","fare":"15.8","fareHoliday":"15.8"},{"id":"152","name":"深圳灣口岸","lat":"22.497433","long":"113.950509","street":"深圳灣口岸","fare":"0.0","fareHoliday":"0.0"}],"routeId":"113","description":"正常班次"},{"company":"nlb","route":"XB2","routeType":null,"dir":null,"orig":"深圳灣口岸","dest":"元朗港鐵站(特快)","stopList":[{"id":"152","name":"深圳灣口岸","lat":"22.497433","long":"113.950509","street":"深圳灣口岸","fare":"15.8","fareHoliday":"15.8"},{"id":"157","name":"朗庭園","lat":"22.444259","long":"114.018189","street":"青山公路","fare":"15.8","fareHoliday":"15.8"},{"id":"158","name":"喜利徑","lat":"22.444654","long":"114.025802","street":"青山公路","fare":"15.8","fareHoliday":"15.8"},{"id":"159","name":"同樂街","lat":"22.444629","long":"114.028225","street":"青山公路","fare":"15.8","fareHoliday":"15.8"},{"id":"160","name":"谷亭街","lat":"22.444578","long":"114.030230","street":"青山公路","fare":"15.8","fareHoliday":"15.8"},{"id":"134","name":"元朗港鐵站","lat":"22.446153","long":"114.033888","street":"朗日路","fare":"0.0","fareHoliday":"0.0"}],"routeId":"114","description":"正常班次"}]